{
"type": "FeatureCollection",
"crs": { "type": "name", "properties": { "name": "urn:ogc:def:crs:OGC:1.3:CRS84" } },
"features": [
{ "type": "Feature", "properties": { "inst_name": "ADAMJEE CANTONMENT COLLEGE", "eiin": 107855, "inst_type": "College", "district": "DHAKA", "thana": "CANTONMENT", "mauza": "ARMY (DHAKA CANTT.(PART-1)", "long": 90.392952, "lat": 23.795115, "serial": 452, "isUnique": 1 }, "geometry": { "type": "Point", "coordinates": [ 90.392952, 23.795115 ] } },
{ "type": "Feature", "properties": { "inst_name": "SHAHeed ZIA MOHILA COLLEGE", "eiin": 108334, "inst_type": "College", "district": "DHAKA", "thana": "PALLABI", "mauza": "MIRPUR SEC-12 (BLOCK-E)", "long": 90.372261, "lat": 23.822983, "serial": 453, "isUnique": 1 }, "geometry": { "type": "Point", "coordinates": [ 90.372261, 23.822983 ] } },
{ "type": "Feature", "properties": { "inst_name": "UTTARA ANWARA MODEL DEGREE COLLEGE", "eiin": 108565, "inst_type": "College", "district": "DHAKA", "thana": "DAKSHINKHAN", "mauza": "DAKSHINKHAN (PART)", "long": 90.379662, "lat": 23.875378, "serial": 454, "isUnique": 1 }, "geometry": { "type": "Point", "coordinates": [ 90.379662, 23.875378 ] } },
{ "type": "Feature", "properties": { "inst_name": "TEJGAON  COLLEGE", "eiin": 108533, "inst_type": "College", "district": "DHAKA", "thana": "SHER-E-BANGLA NAGAR", "mauza": "PURBA RAJA BAZAR", "long": 90.375427, "lat": 23.771009, "serial": 455, "isUnique": 1 }, "geometry": { "type": "Point", "coordinates": [ 90.375427, 23.771009 ] } },
{ "type": "Feature", "properties": { "inst_name": "SK. BORHANUDDIN COLLEGE, DHAKA", "eiin": 108137, "inst_type": "College", "district": "DHAKA", "thana": "BANGSHAL", "mauza": "UTTAR BANGSHAL ROAD", "long": 90.4002, "lat": 23.722557, "serial": 456, "isUnique": 1 }, "geometry": { "type": "Point", "coordinates": [ 90.4002, 23.722557 ] } },
{ "type": "Feature", "properties": { "inst_name": "SALIMULLAH DEGREE  COLLEGE", "eiin": 108510, "inst_type": "College", "district": "DHAKA", "thana": "WARI", "mauza": "SUKLAL DAS LANE", "long": 90.416527, "lat": 23.715408, "serial": 457, "isUnique": 1 }, "geometry": { "type": "Point", "coordinates": [ 90.416527, 23.715408 ] } },
{ "type": "Feature", "properties": { "inst_name": "KABI NAZRUL GOVT.COLLEGE", "eiin": 108507, "inst_type": "College", "district": "DHAKA", "thana": "SUTRAPUR", "mauza": "LAKSHMI BAZAR (PART)", "long": 90.413254, "lat": 23.70974, "serial": 458, "isUnique": 1 }, "geometry": { "type": "Point", "coordinates": [ 90.413254, 23.70974 ] } },
{ "type": "Feature", "properties": { "inst_name": "GOVT. SHAHID SOHRAWARDI COLLEGE", "eiin": 108508, "inst_type": "College", "district": "DHAKA", "thana": "SUTRAPUR", "mauza": "LAKSHMI BAZAR (PART)", "long": 90.37101, "lat": 23.769161, "serial": 459, "isUnique": 1 }, "geometry": { "type": "Point", "coordinates": [ 90.37101, 23.769161 ] } },
{ "type": "Feature", "properties": { "inst_name": "CeNTRAL WOMENS COLLEGE", "eiin": 108512, "inst_type": "College", "district": "DHAKA", "thana": "WARI", "mauza": "ABHAYDAS LANE", "long": 90.421005, "lat": 23.719976, "serial": 460, "isUnique": 1 }, "geometry": { "type": "Point", "coordinates": [ 90.421005, 23.719976 ] } },
{ "type": "Feature", "properties": { "inst_name": "DHAKA WOMEN COLLEGE", "eiin": 108563, "inst_type": "College", "district": "DHAKA", "thana": "TURAG", "mauza": "RANABHOLA (PART)", "long": 90.400772, "lat": 23.85828, "serial": 461, "isUnique": 1 }, "geometry": { "type": "Point", "coordinates": [ 90.400772, 23.85828 ] } },
{ "type": "Feature", "properties": { "inst_name": "METROPOLIS COLLEGE", "eiin": 108156, "inst_type": "College", "district": "DHAKA", "thana": "CHAK BAZAR", "mauza": "RAHMATGANJ LANE", "long": 90.387733, "lat": 23.758108, "serial": 462, "isUnique": 1 }, "geometry": { "type": "Point", "coordinates": [ 90.387733, 23.758108 ] } },
{ "type": "Feature", "properties": { "inst_name": "KALATIA COLLEGE", "eiin": 108115, "inst_type": "College", "district": "DHAKA", "thana": "KERANIGANJ", "mauza": "ALINAGAR", "long": 90.370682, "lat": 23.696896, "serial": 463, "isUnique": 1 }, "geometry": { "type": "Point", "coordinates": [ 90.370682, 23.696896 ] } },
{ "type": "Feature", "properties": { "inst_name": "DHAKA MOHANAGAR MOHILA COLLEGE", "eiin": 108509, "inst_type": "College", "district": "DHAKA", "thana": "SUTRAPUR", "mauza": "LAKSHMI BAZAR (PART)", "long": 90.419586, "lat": 23.712139, "serial": 464, "isUnique": 1 }, "geometry": { "type": "Point", "coordinates": [ 90.419586, 23.712139 ] } },
{ "type": "Feature", "properties": { "inst_name": "SARDAR SURUZZAMAN MOHILA COLLEGE", "eiin": 108568, "inst_type": "College", "district": "DHAKA", "thana": "DAKSHINKHAN", "mauza": "DAKSHINKHAN (PART)", "long": 90.407143, "lat": 23.7099, "serial": 465, "isUnique": 1 }, "geometry": { "type": "Point", "coordinates": [ 90.407143, 23.7099 ] } },
{ "type": "Feature", "properties": { "inst_name": "A.K.M. RAHMAT ULLAH DEGREE COLLEGE", "eiin": 108031, "inst_type": "College", "district": "DHAKA", "thana": "BADDA", "mauza": "BARA BERAID", "long": 90.385643, "lat": 23.720814, "serial": 466, "isUnique": 1 }, "geometry": { "type": "Point", "coordinates": [ 90.385643, 23.720814 ] } },
{ "type": "Feature", "properties": { "inst_name": "PALLABU DEGREE COLLEGE", "eiin": 108335, "inst_type": "College", "district": "DHAKA", "thana": "RUPNAGAR", "mauza": "DOARI PARA", "long": 90.354851, "lat": 23.815224, "serial": 467, "isUnique": 1 }, "geometry": { "type": "Point", "coordinates": [ 90.354851, 23.815224 ] } },
{ "type": "Feature", "properties": { "inst_name": "HAZRAT SHAH ALI MOHILA DEGREE COLLEGE", "eiin": 108209, "inst_type": "College", "district": "DHAKA", "thana": "SHAH ALI", "mauza": "UTTAR BISHIL-KA", "long": 90.350739, "lat": 23.79771, "serial": 468, "isUnique": 1 }, "geometry": { "type": "Point", "coordinates": [ 90.350739, 23.79771 ] } },
{ "type": "Feature", "properties": { "inst_name": "UTTARA TOWN COLLEGE", "eiin": 108564, "inst_type": "College", "district": "DHAKA", "thana": "UTTARA  PASCHIM", "mauza": "SECTOR NO-9", "long": 90.400742, "lat": 23.879992, "serial": 469, "isUnique": 1 }, "geometry": { "type": "Point", "coordinates": [ 90.400742, 23.879992 ] } },
{ "type": "Feature", "properties": { "inst_name": "SHAEED RAMIZUDDIN CANTONMENT COLLEGE", "eiin": 107857, "inst_type": "College", "district": "DHAKA", "thana": "CANTONMENT", "mauza": "NAVY (DHAKA CANTT.)", "long": 90.388489, "lat": 23.827944, "serial": 470, "isUnique": 1 }, "geometry": { "type": "Point", "coordinates": [ 90.388489, 23.827944 ] } },
{ "type": "Feature", "properties": { "inst_name": "DEMRA COLLEGE", "eiin": 107908, "inst_type": "College", "district": "DHAKA", "thana": "DEMRA", "mauza": "KAMAR GHOP", "long": 90.483093, "lat": 23.720558, "serial": 471, "isUnique": 1 }, "geometry": { "type": "Point", "coordinates": [ 90.483093, 23.720558 ] } },
{ "type": "Feature", "properties": { "inst_name": "NAYABAZAR degree COLLEGE", "eiin": 108113, "inst_type": "College", "district": "DHAKA", "thana": "KERANIGANJ", "mauza": "ATI", "long": 90.41484, "lat": 23.64956, "serial": 472, "isUnique": 1 }, "geometry": { "type": "Point", "coordinates": [ 90.41484, 23.64956 ] } },
{ "type": "Feature", "properties": { "inst_name": "Shaheed PRESIDENT ZIAUR RAHAMAN degree  COLLEGE", "eiin": 108114, "inst_type": "College", "district": "DHAKA", "thana": "KERANIGANJ", "mauza": "HAZRATPUR", "long": 90.31623, "lat": 23.7311, "serial": 473, "isUnique": 1 }, "geometry": { "type": "Point", "coordinates": [ 90.31623, 23.7311 ] } },
{ "type": "Feature", "properties": { "inst_name": "KERANIGONJ MOHELA COLLEGE", "eiin": 108117, "inst_type": "College", "district": "DHAKA", "thana": "KERANIGANJ", "mauza": "CHUNKUTIY MOUZA (PART)", "long": 90.25162, "lat": 23.74736, "serial": 474, "isUnique": 1 }, "geometry": { "type": "Point", "coordinates": [ 90.25162, 23.74736 ] } },
{ "type": "Feature", "properties": { "inst_name": "JOYPARA COLLEGE", "eiin": 108010, "inst_type": "College", "district": "DHAKA", "thana": "DOHAR", "mauza": "DAKSHIN JOYPARA KHARAKANDA", "long": 90.39884, "lat": 23.70243, "serial": 475, "isUnique": 1 }, "geometry": { "type": "Point", "coordinates": [ 90.39884, 23.70243 ] } },
{ "type": "Feature", "properties": { "inst_name": "PADMA MAHBIBDDYALAY", "eiin": 108009, "inst_type": "College", "district": "DHAKA", "thana": "DOHAR", "mauza": "KHARIA", "long": 90.1451, "lat": 23.58316, "serial": 476, "isUnique": 1 }, "geometry": { "type": "Point", "coordinates": [ 90.1451, 23.58316 ] } },
{ "type": "Feature", "properties": { "inst_name": "NABAJUG DEGREE COLLEGE", "eiin": 107954, "inst_type": "College", "district": "DHAKA", "thana": "DHAMRAI", "mauza": "KUSHIRA", "long": 90.04234, "lat": 24.02346, "serial": 477, "isUnique": 1 }, "geometry": { "type": "Point", "coordinates": [ 90.04234, 24.02346 ] } },
{ "type": "Feature", "properties": { "inst_name": "DHAMRAI GOVT. COLLEGE", "eiin": 107953, "inst_type": "College", "district": "DHAKA", "thana": "DHAMRAI", "mauza": "DAKSHINPARA DHAMRAI", "long": 90.20159, "lat": 23.95344, "serial": 478, "isUnique": 1 }, "geometry": { "type": "Point", "coordinates": [ 90.20159, 23.95344 ] } },
{ "type": "Feature", "properties": { "inst_name": "GOVT. BEGUM BADRUNNESSA GIRLS COLLEGE", "eiin": 108155, "inst_type": "College", "district": "DHAKA", "thana": "LALBAGH", "mauza": "DHAKESHWARI ROAD", "long": 90.38917, "lat": 23.72409, "serial": 479, "isUnique": 1 }, "geometry": { "type": "Point", "coordinates": [ 90.38917, 23.72409 ] } },
{ "type": "Feature", "properties": { "inst_name": "GOVT. EDEN MOHILA COLLEGE", "eiin": 108159, "inst_type": "College", "district": "DHAKA", "thana": "LALBAGH", "mauza": "EDEN GIRLS COLLEGE & HOSTEL)", "long": 90.39923, "lat": 23.72237, "serial": 480, "isUnique": 1 }, "geometry": { "type": "Point", "coordinates": [ 90.39923, 23.72237 ] } },
{ "type": "Feature", "properties": { "inst_name": "COLLEGE OF HOME ECONOMICS DHAKA", "eiin": 108158, "inst_type": "College", "district": "DHAKA", "thana": "LALBAGH", "mauza": "AZIMPUR ROAD (PART1&2)", "long": 90.3987, "lat": 23.72384, "serial": 481, "isUnique": 1 }, "geometry": { "type": "Point", "coordinates": [ 90.3987, 23.72384 ] } },
{ "type": "Feature", "properties": { "inst_name": "FAZLUL HOQ MOHILA COLLEGE", "eiin": 108511, "inst_type": "College", "district": "DHAKA", "thana": "GENDARIA", "mauza": "AKKHAY DAS ROAD", "long": 90.42873, "lat": 23.69241, "serial": 482, "isUnique": 1 }, "geometry": { "type": "Point", "coordinates": [ 90.42873, 23.69241 ] } },
{ "type": "Feature", "properties": { "inst_name": "SHER-E-BANGLA NAGAR ADARSHA MOHILA MOHABIDYALAYA", "eiin": 108534, "inst_type": "College", "district": "DHAKA", "thana": "SHER-E-BANGLA NAGAR", "mauza": "SHER-E-BANGLA NAGAR", "long": 90.43319, "lat": 23.72584, "serial": 483, "isUnique": 1 }, "geometry": { "type": "Point", "coordinates": [ 90.43319, 23.72584 ] } },
{ "type": "Feature", "properties": { "inst_name": "PURANA PALTAN GIRLS COLLEGE", "eiin": 108276, "inst_type": "College", "district": "DHAKA", "thana": "PALTAN", "mauza": "PURANA PALTAN", "long": 90.42148, "lat": 23.71926, "serial": 484, "isUnique": 1 }, "geometry": { "type": "Point", "coordinates": [ 90.42148, 23.71926 ] } },
{ "type": "Feature", "properties": { "inst_name": "ISPAHANE DEGREE COLLEGE", "eiin": 108116, "inst_type": "College", "district": "DHAKA", "thana": "KERANIGANJ", "mauza": "SAKTA", "long": 90.41382, "lat": 23.73027, "serial": 485, "isUnique": 1 }, "geometry": { "type": "Point", "coordinates": [ 90.41382, 23.73027 ] } },
{ "type": "Feature", "properties": { "inst_name": "KHILGAON MODEL COLLEGE", "eiin": 108385, "inst_type": "College", "district": "DHAKA", "thana": "KHILGAON", "mauza": "KHILGAON BLOCK-C", "long": 90.40391, "lat": 23.74633, "serial": 486, "isUnique": 1 }, "geometry": { "type": "Point", "coordinates": [ 90.40391, 23.74633 ] } },
{ "type": "Feature", "properties": { "inst_name": "DHAKA COLLEGE", "eiin": 107977, "inst_type": "College", "district": "DHAKA", "thana": "NEW MARKET", "mauza": "NEWMARKET (KITCHEN MARKT)", "long": 90.43253, "lat": 23.74506, "serial": 487, "isUnique": 1 }, "geometry": { "type": "Point", "coordinates": [ 90.43253, 23.74506 ] } },
{ "type": "Feature", "properties": { "inst_name": "DHAKA IMPERIAL COLLEGE", "eiin": 107974, "inst_type": "College", "district": "DHAKA", "thana": "BADDA", "mauza": "BADDA", "long": 90.43243, "lat": 23.74436, "serial": 488, "isUnique": 1 }, "geometry": { "type": "Point", "coordinates": [ 90.43243, 23.74436 ] } },
{ "type": "Feature", "properties": { "inst_name": "TEGAON MOHILA COLLAGE", "eiin": 108536, "inst_type": "College", "district": "DHAKA", "thana": "TEJGAON", "mauza": "PURBA TEJTURI BAZAR", "long": 90.38507, "lat": 23.73657, "serial": 489, "isUnique": 1 }, "geometry": { "type": "Point", "coordinates": [ 90.38507, 23.73657 ] } },
{ "type": "Feature", "properties": { "inst_name": "GOVT. SCIENCE  COLLEGE,DHAKA", "eiin": 108535, "inst_type": "College", "district": "DHAKA", "thana": "TEJGAON", "mauza": "PURBA TEJTURI BAZAR", "long": 90.39558, "lat": 23.75543, "serial": 490, "isUnique": 1 }, "geometry": { "type": "Point", "coordinates": [ 90.39558, 23.75543 ] } },
{ "type": "Feature", "properties": { "inst_name": "RAMPURA EKRAMUNNESA DEGREE COLLEGE", "eiin": 108034, "inst_type": "College", "district": "DHAKA", "thana": "KHILGAON", "mauza": "KHILGAON BLOCK-A", "long": 90.39721, "lat": 23.76047, "serial": 492, "isUnique": 1 }, "geometry": { "type": "Point", "coordinates": [ 90.39721, 23.76047 ] } },
{ "type": "Feature", "properties": { "inst_name": "KANCHKURA UNIVERSITY COLLEGE", "eiin": 108566, "inst_type": "College", "district": "DHAKA", "thana": "UTTAR KHAN", "mauza": "KASKURA", "long": 90.37664, "lat": 23.75882, "serial": 493, "isUnique": 1 }, "geometry": { "type": "Point", "coordinates": [ 90.37664, 23.75882 ] } },
{ "type": "Feature", "properties": { "inst_name": "GOVT'  MUSIC COLLEGE", "eiin": 108249, "inst_type": "College", "district": "DHAKA", "thana": "MOHAMMADPUR", "mauza": "SHYAMOLI", "long": 90.37948, "lat": 23.77978, "serial": 494, "isUnique": 1 }, "geometry": { "type": "Point", "coordinates": [ 90.37948, 23.77978 ] } },
{ "type": "Feature", "properties": { "inst_name": "GOVT. BANGLA COLLEGE", "eiin": 108210, "inst_type": "College", "district": "DHAKA", "thana": "MIRPUR", "mauza": "BANGLA COLLEGE STAFF QTR.", "long": 90.37792, "lat": 23.78375, "serial": 495, "isUnique": 1 }, "geometry": { "type": "Point", "coordinates": [ 90.37792, 23.78375 ] } },
{ "type": "Feature", "properties": { "inst_name": "RAJDHANI MOHILA COLLEGE", "eiin": 108216, "inst_type": "College", "district": "DHAKA", "thana": "RUPNAGAR", "mauza": "RUPNAGAR", "long": 90.35264, "lat": 23.79687, "serial": 496, "isUnique": 1 }, "geometry": { "type": "Point", "coordinates": [ 90.35264, 23.79687 ] } },
{ "type": "Feature", "properties": { "inst_name": "SHEIKH FAZILATUNNESA ISLAMIC MOHILA COLLEGE", "eiin": 108212, "inst_type": "College", "district": "DHAKA", "thana": "MIRPUR", "mauza": "MIRPUR SEC-2(BLOCK-F)", "long": 90.35576, "lat": 23.79386, "serial": 497, "isUnique": 1 }, "geometry": { "type": "Point", "coordinates": [ 90.35576, 23.79386 ] } },
{ "type": "Feature", "properties": { "inst_name": "DHAKA COMMERCE COLLEGE", "eiin": 108207, "inst_type": "College", "district": "DHAKA", "thana": "MIRPUR", "mauza": "MIRPUR SEC-2 (BLOCK-A)", "long": 90.35219, "lat": 23.79985, "serial": 498, "isUnique": 1 }, "geometry": { "type": "Point", "coordinates": [ 90.35219, 23.79985 ] } },
{ "type": "Feature", "properties": { "inst_name": "BANGABANDHU COLLEGE", "eiin": 108211, "inst_type": "College", "district": "DHAKA", "thana": "PALLABI", "mauza": "MIRPUR SEC-12 (BLOCK-D)", "long": 90.35821, "lat": 23.80247, "serial": 499, "isUnique": 1 }, "geometry": { "type": "Point", "coordinates": [ 90.35821, 23.80247 ] } },
{ "type": "Feature", "properties": { "inst_name": "MIRPUR UNIVERSITY COLLEGE", "eiin": 108206, "inst_type": "College", "district": "DHAKA", "thana": "MIRPUR", "mauza": "MIRPUR SEC-2(BLOCK-F)", "long": 90.34922, "lat": 23.80999, "serial": 500, "isUnique": 1 }, "geometry": { "type": "Point", "coordinates": [ 90.34922, 23.80999 ] } },
{ "type": "Feature", "properties": { "inst_name": "DHAKA MODERN COLLEGE", "eiin": 108208, "inst_type": "College", "district": "DHAKA", "thana": "MIRPUR", "mauza": "DAKSHIN BISHIL", "long": 90.368, "lat": 23.79968, "serial": 501, "isUnique": 1 }, "geometry": { "type": "Point", "coordinates": [ 90.368, 23.79968 ] } },
{ "type": "Feature", "properties": { "inst_name": "GOVT. TITUMIR COLLEGE", "eiin": 108035, "inst_type": "College", "district": "DHAKA", "thana": "BANANI", "mauza": "MOHAKHALI WIRELESS", "long": 90.39205, "lat": 23.77664, "serial": 503, "isUnique": 1 }, "geometry": { "type": "Point", "coordinates": [ 90.39205, 23.77664 ] } },
{ "type": "Feature", "properties": { "inst_name": "T&T  MOHILA   COLLEGE", "eiin": 108036, "inst_type": "College", "district": "DHAKA", "thana": "BANANI", "mauza": "MOHAKHALI WIRELESS", "long": 90.40662, "lat": 23.77951, "serial": 504, "isUnique": 1 }, "geometry": { "type": "Point", "coordinates": [ 90.40662, 23.77951 ] } },
{ "type": "Feature", "properties": { "inst_name": "MAHANAGOR COLLEGE", "eiin": 108033, "inst_type": "College", "district": "DHAKA", "thana": "BADDA", "mauza": "MADHYA BADDA PASCHIM", "long": 90.41006, "lat": 23.7804, "serial": 505, "isUnique": 1 }, "geometry": { "type": "Point", "coordinates": [ 90.41006, 23.7804 ] } },
{ "type": "Feature", "properties": { "inst_name": "SAVAR LABORATORY COLLEGE", "eiin": 131845, "inst_type": "College", "district": "DHAKA", "thana": "SAVAR", "mauza": "BANK COLLONY-B-BLOCK", "long": 90.41865, "lat": 23.86495, "serial": 507, "isUnique": 1 }, "geometry": { "type": "Point", "coordinates": [ 90.41865, 23.86495 ] } },
{ "type": "Feature", "properties": { "inst_name": "COLLEGE OF FINANCE & MANAGEMENT", "eiin": 131047, "inst_type": "College", "district": "DHAKA", "thana": "SAVAR", "mauza": "NAYA BARI", "long": 90.25403, "lat": 23.86478, "serial": 508, "isUnique": 1 }, "geometry": { "type": "Point", "coordinates": [ 90.25403, 23.86478 ] } },
{ "type": "Feature", "properties": { "inst_name": "SAVAR COLLEGE", "eiin": 108453, "inst_type": "College", "district": "DHAKA", "thana": "SAVAR", "mauza": "SAVAR DAKSIN PARA", "long": 90.25581, "lat": 23.84764, "serial": 509, "isUnique": 1 }, "geometry": { "type": "Point", "coordinates": [ 90.25581, 23.84764 ] } },
{ "type": "Feature", "properties": { "inst_name": "COLLEGEX", "eiin": 131670, "inst_type": "College", "district": "DHAKA", "thana": "SAVAR", "mauza": "BANK COLLONY-A-BLOCK", "long": 90.28878, "lat": 23.87442, "serial": 510, "isUnique": 1 }, "geometry": { "type": "Point", "coordinates": [ 90.28878, 23.87442 ] } },
{ "type": "Feature", "properties": { "inst_name": "MOFAZZAL MOMENA CHAKLADAR MOHILA COLLEGE", "eiin": 108452, "inst_type": "College", "district": "DHAKA", "thana": "SAVAR", "mauza": "GENDA", "long": 90.24522, "lat": 23.84325, "serial": 511, "isUnique": 1 }, "geometry": { "type": "Point", "coordinates": [ 90.24522, 23.84325 ] } },
{ "type": "Feature", "properties": { "inst_name": "MIRZA GOLAM HAFIZ COLLEGE", "eiin": 108450, "inst_type": "College", "district": "DHAKA", "thana": "SAVAR", "mauza": "UTTAR RAMCHANDRAPUR(NIRIB)", "long": 90.26203, "lat": 23.89714, "serial": 512, "isUnique": 1 }, "geometry": { "type": "Point", "coordinates": [ 90.26203, 23.89714 ] } },
{ "type": "Feature", "properties": { "inst_name": "AL HAJ ABDUL MANNAN DEGREE COLLEGE", "eiin": 108449, "inst_type": "College", "district": "DHAKA", "thana": "SAVAR", "mauza": "GOHAILBARI", "long": 90.24925, "lat": 24.00892, "serial": 513, "isUnique": 1 }, "geometry": { "type": "Point", "coordinates": [ 90.24925, 24.00892 ] } },
{ "type": "Feature", "properties": { "inst_name": "TETUL JHORA COLLEGE", "eiin": 108448, "inst_type": "College", "district": "DHAKA", "thana": "SAVAR", "mauza": "NANDAKHALI", "long": 90.2385, "lat": 23.99031, "serial": 514, "isUnique": 1 }, "geometry": { "type": "Point", "coordinates": [ 90.2385, 23.99031 ] } },
{ "type": "Feature", "properties": { "inst_name": "SAVAR MODEL COLLEGE", "eiin": 108451, "inst_type": "College", "district": "DHAKA", "thana": "SAVAR", "mauza": "AICH NOADDA (PART)", "long": 90.32578, "lat": 23.93008, "serial": 515, "isUnique": 1 }, "geometry": { "type": "Point", "coordinates": [ 90.32578, 23.93008 ] } },
{ "type": "Feature", "properties": { "inst_name": "ZIRABO DEWAN IDRIS COLLEGE", "eiin": 108454, "inst_type": "College", "district": "DHAKA", "thana": "SAVAR", "mauza": "JIRABA", "long": 90.30411, "lat": 23.92275, "serial": 516, "isUnique": 1 }, "geometry": { "type": "Point", "coordinates": [ 90.30411, 23.92275 ] } },
{ "type": "Feature", "properties": { "inst_name": "DHAKA PRESIDENCY COLLEGE", "eiin": 107979, "inst_type": "College", "district": "DHAKA", "thana": "DHANMONDI", "mauza": "SANKAR", "long": 90.24422, "lat": 23.75039, "serial": 517, "isUnique": 1 }, "geometry": { "type": "Point", "coordinates": [ 90.24422, 23.75039 ] } },
{ "type": "Feature", "properties": { "inst_name": "BANGLADESH HOME ECONOMICS COLLEGE", "eiin": 107982, "inst_type": "College", "district": "DHAKA", "thana": "DHANMONDI", "mauza": "DHANMONDI R.A.", "long": 90.37828, "lat": 23.74406, "serial": 518, "isUnique": 1 }, "geometry": { "type": "Point", "coordinates": [ 90.37828, 23.74406 ] } },
{ "type": "Feature", "properties": { "inst_name": "IDEAL  COLLEGE", "eiin": 107971, "inst_type": "College", "district": "DHAKA", "thana": "DHANMONDI", "mauza": "DHANMONDI R.A.", "long": 90.37711, "lat": 23.74875, "serial": 519, "isUnique": 1 }, "geometry": { "type": "Point", "coordinates": [ 90.37711, 23.74875 ] } },
{ "type": "Feature", "properties": { "inst_name": "DR. MALEKA COLLEGE", "eiin": 107972, "inst_type": "College", "district": "DHAKA", "thana": "DHANMONDI", "mauza": "DHANMONDI R.A.", "long": 90.37817, "lat": 23.74414, "serial": 520, "isUnique": 1 }, "geometry": { "type": "Point", "coordinates": [ 90.37817, 23.74414 ] } },
{ "type": "Feature", "properties": { "inst_name": "DHAKA MOHILA COLLEGE", "eiin": 107980, "inst_type": "College", "district": "DHAKA", "thana": "DHANMONDI", "mauza": "DHANMONDI R.A.", "long": 90.37347, "lat": 23.74769, "serial": 521, "isUnique": 1 }, "geometry": { "type": "Point", "coordinates": [ 90.37347, 23.74769 ] } },
{ "type": "Feature", "properties": { "inst_name": "UNIVERSITY WOMEN'S FEDERATION COLLEGE", "eiin": 107976, "inst_type": "College", "district": "DHAKA", "thana": "DHANMONDI", "mauza": "DHANMONDI R.A.", "long": 90.37347, "lat": 23.745, "serial": 522, "isUnique": 1 }, "geometry": { "type": "Point", "coordinates": [ 90.37347, 23.745 ] } },
{ "type": "Feature", "properties": { "inst_name": "SAMOTA COLLEGE", "eiin": 133714, "inst_type": "College", "district": "DHAKA", "thana": "DHANMONDI", "mauza": "DHANMONDI R.A.", "long": 90.37822, "lat": 23.74431, "serial": 523, "isUnique": 1 }, "geometry": { "type": "Point", "coordinates": [ 90.37822, 23.74431 ] } },
{ "type": "Feature", "properties": { "inst_name": "STAMFORD COLLEGE", "eiin": 107973, "inst_type": "College", "district": "DHAKA", "thana": "DHANMONDI", "mauza": "DHANMONDI R.A.", "long": 90.38575, "lat": 23.74158, "serial": 524, "isUnique": 1 }, "geometry": { "type": "Point", "coordinates": [ 90.38575, 23.74158 ] } },
{ "type": "Feature", "properties": { "inst_name": "DHAKA CITY COLLEGE", "eiin": 107975, "inst_type": "College", "district": "DHAKA", "thana": "DHANMONDI", "mauza": "SHER-E-BANGLA ROAD", "long": 90.375, "lat": 23.74422, "serial": 525, "isUnique": 1 }, "geometry": { "type": "Point", "coordinates": [ 90.375, 23.74422 ] } },
{ "type": "Feature", "properties": { "inst_name": "B.C.I COLLEGE", "eiin": 132169, "inst_type": "College", "district": "DHAKA", "thana": "SHER-E-BANGLA NAGAR", "mauza": "PURBA RAJA BAZAR", "long": 90.38161, "lat": 23.73636, "serial": 526, "isUnique": 1 }, "geometry": { "type": "Point", "coordinates": [ 90.38161, 23.73636 ] } },
{ "type": "Feature", "properties": { "inst_name": "DANIA COLLEGE", "eiin": 107909, "inst_type": "College", "district": "DHAKA", "thana": "JATRABARI", "mauza": "DHANIA (PART)", "long": 90.37828, "lat": 23.74425, "serial": 527, "isUnique": 1 }, "geometry": { "type": "Point", "coordinates": [ 90.37828, 23.74425 ] } },
{ "type": "Feature", "properties": { "inst_name": "ROKEYA AHSAN COLLEGE", "eiin": 107912, "inst_type": "College", "district": "DHAKA", "thana": "JATRABARI", "mauza": "PARA DAGAR(PART", "long": 90.45978, "lat": 23.70839, "serial": 528, "isUnique": 1 }, "geometry": { "type": "Point", "coordinates": [ 90.45978, 23.70839 ] } },
{ "type": "Feature", "properties": { "inst_name": "R.K. CHOWDHURY COLLEGE", "eiin": 107910, "inst_type": "College", "district": "DHAKA", "thana": "JATRABARI", "mauza": "SAIDABAD", "long": 90.46397, "lat": 23.71697, "serial": 529, "isUnique": 1 }, "geometry": { "type": "Point", "coordinates": [ 90.46397, 23.71697 ] } },
{ "type": "Feature", "properties": { "inst_name": "MATUAIL HAJI ABDUL LATIF BHUIYAN COLLEGE", "eiin": 107911, "inst_type": "College", "district": "DHAKA", "thana": "DEMRA", "mauza": "DHARMIKPARA", "long": 90.49822, "lat": 23.72858, "serial": 530, "isUnique": 1 }, "geometry": { "type": "Point", "coordinates": [ 90.49822, 23.72858 ] } },
{ "type": "Feature", "properties": { "inst_name": "RONGMALA AKBAR MHILA COLLEGE", "eiin": 107913, "inst_type": "College", "district": "DHAKA", "thana": "DEMRA", "mauza": "SARALIA", "long": 90.49922, "lat": 23.70653, "serial": 531, "isUnique": 1 }, "geometry": { "type": "Point", "coordinates": [ 90.49922, 23.70653 ] } },
{ "type": "Feature", "properties": { "inst_name": "QUEEN'S COLLEGE", "eiin": 130560, "inst_type": "College", "district": "DHAKA", "thana": "ADABOR", "mauza": "ADARSHA CHAYA NIR", "long": 90.48442, "lat": 23.71508, "serial": 532, "isUnique": 1 }, "geometry": { "type": "Point", "coordinates": [ 90.48442, 23.71508 ] } },
{ "type": "Feature", "properties": { "inst_name": "LAUREL INTERNATIONAL COLLEGE", "eiin": 130583, "inst_type": "College", "district": "DHAKA", "thana": "MOHAMMADPUR", "mauza": "SULTANGANJ (PART)", "long": 90.39653, "lat": 23.73178, "serial": 533, "isUnique": 1 }, "geometry": { "type": "Point", "coordinates": [ 90.39653, 23.73178 ] } },
{ "type": "Feature", "properties": { "inst_name": "PIONEER DEGREE COLLEGE DHAKA", "eiin": 108256, "inst_type": "College", "district": "DHAKA", "thana": "MOHAMMADPUR", "mauza": "PASCHIM KATASUR", "long": 90.396, "lat": 23.73175, "serial": 534, "isUnique": 1 }, "geometry": { "type": "Point", "coordinates": [ 90.396, 23.73175 ] } },
{ "type": "Feature", "properties": { "inst_name": "NOTRE DAME COLLEGE", "eiin": 108274, "inst_type": "College", "district": "DHAKA", "thana": "MOTIJHEEL", "mauza": "ARAMBAGH", "long": 90.39569, "lat": 23.73239, "serial": 535, "isUnique": 1 }, "geometry": { "type": "Point", "coordinates": [ 90.39569, 23.73239 ] } },
{ "type": "Feature", "properties": { "inst_name": "T & T COLLEGE", "eiin": 108585, "inst_type": "College", "district": "DHAKA", "thana": "MOTIJHEEL", "mauza": "UTTAR KAMALAPUR", "long": 90.42158, "lat": 23.73797, "serial": 536, "isUnique": 1 }, "geometry": { "type": "Point", "coordinates": [ 90.42158, 23.73797 ] } },
{ "type": "Feature", "properties": { "inst_name": "MIRZA ABBAS MOHILA  COLLEGE", "eiin": 108275, "inst_type": "College", "district": "DHAKA", "thana": "SHAHJAHANPUR", "mauza": "DAKSHIN SHAHJAHANPUR", "long": 90.42094, "lat": 23.73853, "serial": 537, "isUnique": 1 }, "geometry": { "type": "Point", "coordinates": [ 90.42094, 23.73853 ] } },
{ "type": "Feature", "properties": { "inst_name": "DHAKA CITY INTERNATIONAL COLLEGE", "eiin": 108586, "inst_type": "College", "district": "DHAKA", "thana": "SHAHJAHANPUR", "mauza": "SHAHIDBAGH", "long": 90.41378, "lat": 23.74836, "serial": 538, "isUnique": 1 }, "geometry": { "type": "Point", "coordinates": [ 90.41378, 23.74836 ] } },
{ "type": "Feature", "properties": { "inst_name": "ABUDHARR GHIFARI COLLEGE", "eiin": 108272, "inst_type": "College", "district": "DHAKA", "thana": "SHAHJAHANPUR", "mauza": "MALIBAGH", "long": 90.42006, "lat": 23.74431, "serial": 539, "isUnique": 1 }, "geometry": { "type": "Point", "coordinates": [ 90.42006, 23.74431 ] } },
{ "type": "Feature", "properties": { "inst_name": "SIDDHESWARI GIRLS' COLLEGE", "eiin": 108352, "inst_type": "College", "district": "DHAKA", "thana": "RAMNA", "mauza": "MALIBAGH BAGANBARI", "long": 90.39953, "lat": 23.74528, "serial": 540, "isUnique": 1 }, "geometry": { "type": "Point", "coordinates": [ 90.39953, 23.74528 ] } },
{ "type": "Feature", "properties": { "inst_name": "SIDDHESWARI DEGREE COLLEGE", "eiin": 108353, "inst_type": "College", "district": "DHAKA", "thana": "RAMNA", "mauza": "BARA MAGHBAZAR", "long": 90.40642, "lat": 23.74931, "serial": 541, "isUnique": 1 }, "geometry": { "type": "Point", "coordinates": [ 90.40642, 23.74931 ] } },
{ "type": "Feature", "properties": { "inst_name": "HABIBULLAH BAHAR COLLEGE", "eiin": 108351, "inst_type": "College", "district": "DHAKA", "thana": "RAMNA", "mauza": "BAJE KAKRAIL", "long": 90.39631, "lat": 23.74842, "serial": 542, "isUnique": 1 }, "geometry": { "type": "Point", "coordinates": [ 90.39631, 23.74842 ] } },
{ "type": "Feature", "properties": { "inst_name": "ICHAMOTI degree COLLEGE", "eiin": 108319, "inst_type": "College", "district": "DHAKA", "thana": "NAWABGANJ", "mauza": "GALIMPUR", "long": 90.22272, "lat": 23.60661, "serial": 543, "isUnique": 1 }, "geometry": { "type": "Point", "coordinates": [ 90.22272, 23.60661 ] } },
{ "type": "Feature", "properties": { "inst_name": "DOHAR NAWABGANJ COLLEGE", "eiin": 108318, "inst_type": "College", "district": "DHAKA", "thana": "NAWABGANJ", "mauza": "CHOTTA SAMSHABAD", "long": 90.15953, "lat": 23.65161, "serial": 544, "isUnique": 1 }, "geometry": { "type": "Point", "coordinates": [ 90.15953, 23.65161 ] } },
{ "type": "Feature", "properties": { "inst_name": "TOFAZZAL HOSSAIN CHOWDHURI COLLEGE", "eiin": 108317, "inst_type": "College", "district": "DHAKA", "thana": "NAWABGANJ", "mauza": "SHIKARI PARA", "long": 90.09897, "lat": 23.69219, "serial": 545, "isUnique": 1 }, "geometry": { "type": "Point", "coordinates": [ 90.09897, 23.69219 ] } },
{ "type": "Feature", "properties": { "inst_name": "NEW MODEL DEGREE COLLEGE", "eiin": 108250, "inst_type": "College", "district": "DHAKA", "thana": "SHER-E-BANGLA NAGAR", "mauza": "SUKRABAD (PART)", "long": 90.12822, "lat": 23.71817, "serial": 546, "isUnique": 1 }, "geometry": { "type": "Point", "coordinates": [ 90.12822, 23.71817 ] } },
{ "type": "Feature", "properties": { "inst_name": "DHAKA  STATE  COLLEGE", "eiin": 107981, "inst_type": "College", "district": "DHAKA", "thana": "MOHAMMADPUR", "mauza": "AZIZ MAHALLAH(JT.QTR.&JAH", "long": 90.36578, "lat": 23.77247, "serial": 547, "isUnique": 1 }, "geometry": { "type": "Point", "coordinates": [ 90.36578, 23.77247 ] } },
{ "type": "Feature", "properties": { "inst_name": "MOHAMMADPUR KENDRIYA  COLLEGE", "eiin": 108254, "inst_type": "College", "district": "DHAKA", "thana": "MOHAMMADPUR", "mauza": "NURJAHAN ROAD", "long": 90.36006, "lat": 23.75731, "serial": 548, "isUnique": 1 }, "geometry": { "type": "Point", "coordinates": [ 90.36006, 23.75731 ] } },
{ "type": "Feature", "properties": { "inst_name": "ALHAJ MOCKBUL HOSSAIN UNIVERSITY COLLEGE", "eiin": 108252, "inst_type": "College", "district": "DHAKA", "thana": "MOHAMMADPUR", "mauza": "PASCHIM KATASUR", "long": 90.36072, "lat": 23.76211, "serial": 549, "isUnique": 1 }, "geometry": { "type": "Point", "coordinates": [ 90.36072, 23.76211 ] } },
{ "type": "Feature", "properties": { "inst_name": "LALMATTA MOHILA COLLEGE", "eiin": 108251, "inst_type": "College", "district": "DHAKA", "thana": "MOHAMMADPUR", "mauza": "LALMATIA (BLOCK-B)", "long": 90.37508, "lat": 23.75769, "serial": 550, "isUnique": 1 }, "geometry": { "type": "Point", "coordinates": [ 90.37508, 23.75769 ] } },
{ "type": "Feature", "properties": { "inst_name": "MOHAMMADPUR MOHILA COLLEGE", "eiin": 108255, "inst_type": "College", "district": "DHAKA", "thana": "MOHAMMADPUR", "mauza": "NURJAHAN ROAD", "long": 90.36819, "lat": 23.77583, "serial": 551, "isUnique": 1 }, "geometry": { "type": "Point", "coordinates": [ 90.36819, 23.77583 ] } },
{ "type": "Feature", "properties": { "inst_name": "DHAKA  GOVT. COMMERCIAL  INSTITUTE", "eiin": 132162, "inst_type": "College", "district": "DHAKA", "thana": "MOHAMMADPUR", "mauza": "PURBA JAFRABAD", "long": 90.36317, "lat": 23.77156, "serial": 552, "isUnique": 1 }, "geometry": { "type": "Point", "coordinates": [ 90.36317, 23.77156 ] } },
{ "type": "Feature", "properties": { "inst_name": "AL - HERA COLLEGE", "eiin": 131919, "inst_type": "College", "district": "DHAKA", "thana": "MOHAMMADPUR", "mauza": "GAZNABI ROAD", "long": 90.36794, "lat": 23.75511, "serial": 553, "isUnique": 1 }, "geometry": { "type": "Point", "coordinates": [ 90.36794, 23.75511 ] } },
{ "type": "Feature", "properties": { "inst_name": "JAZIRA MOHAMMADIA ALIM MADRASHA", "eiin": 108107, "inst_type": "Madrasha", "district": "DHAKA", "thana": "KERANIGANJ", "mauza": "ASTADONA", "long": 91.34926, "lat": 24.00438, "serial": 4194, "isUnique": 1 }, "geometry": { "type": "Point", "coordinates": [ 91.34926, 24.00438 ] } },
{ "type": "Feature", "properties": { "inst_name": "BAROI KANDI BAHRUL ULUM  DAKHIL  MADRASAH", "eiin": 108104, "inst_type": "Madrasha", "district": "DHAKA", "thana": "KERANIGANJ", "mauza": "BARAIKANDI", "long": 90.46323, "lat": 23.63473, "serial": 4195, "isUnique": 1 }, "geometry": { "type": "Point", "coordinates": [ 90.46323, 23.63473 ] } },
{ "type": "Feature", "properties": { "inst_name": "HAZRATPUR AMMANIA DAKHIL MADRASAH", "eiin": 108110, "inst_type": "Madrasha", "district": "DHAKA", "thana": "KERANIGANJ", "mauza": "HAZRATPUR", "long": 90.34033, "lat": 23.71634, "serial": 4196, "isUnique": 1 }, "geometry": { "type": "Point", "coordinates": [ 90.34033, 23.71634 ] } },
{ "type": "Feature", "properties": { "inst_name": "EQURIA MOHAMMADIA ISLAMIA DAKIL MADRASHA", "eiin": 108103, "inst_type": "Madrasha", "district": "DHAKA", "thana": "KERANIGANJ", "mauza": "IKURIA", "long": 90.35553, "lat": 23.65276, "serial": 4197, "isUnique": 1 }, "geometry": { "type": "Point", "coordinates": [ 90.35553, 23.65276 ] } },
{ "type": "Feature", "properties": { "inst_name": "ABDUL QUAYUM DAKIL MADRASAH", "eiin": 108111, "inst_type": "Madrasha", "district": "DHAKA", "thana": "KERANIGANJ", "mauza": "MIRERBAGH", "long": 90.30921, "lat": 23.70515, "serial": 4198, "isUnique": 1 }, "geometry": { "type": "Point", "coordinates": [ 90.30921, 23.70515 ] } },
{ "type": "Feature", "properties": { "inst_name": "JOYPARA MAHMUDIA ALIM MADRASAH", "eiin": 108006, "inst_type": "Madrasha", "district": "DHAKA", "thana": "DOHAR", "mauza": "DAKSIN JOYPARA GANGPAR(PART-II", "long": 90.04075, "lat": 23.64691, "serial": 4199, "isUnique": 1 }, "geometry": { "type": "Point", "coordinates": [ 90.04075, 23.64691 ] } },
{ "type": "Feature", "properties": { "inst_name": "MOITPARA  DAKHIL  MADRASHA", "eiin": 108005, "inst_type": "Madrasha", "district": "DHAKA", "thana": "DOHAR", "mauza": "MAIT PARA", "long": 90.17728, "lat": 23.54627, "serial": 4200, "isUnique": 1 }, "geometry": { "type": "Point", "coordinates": [ 90.17728, 23.54627 ] } },
{ "type": "Feature", "properties": { "inst_name": "ROWJATUL ISLAM DAKIL MADRASHA", "eiin": 108008, "inst_type": "Madrasha", "district": "DHAKA", "thana": "DOHAR", "mauza": "MEGHULA", "long": 90.16605, "lat": 23.54191, "serial": 4201, "isUnique": 1 }, "geometry": { "type": "Point", "coordinates": [ 90.16605, 23.54191 ] } },
{ "type": "Feature", "properties": { "inst_name": "AMRAIL SIDDIKIA DAKHIL MADRASHA", "eiin": 107948, "inst_type": "Madrasha", "district": "DHAKA", "thana": "DHAMRAI", "mauza": "AMRAIL", "long": 90.09598, "lat": 23.60979, "serial": 4202, "isUnique": 1 }, "geometry": { "type": "Point", "coordinates": [ 90.09598, 23.60979 ] } },
{ "type": "Feature", "properties": { "inst_name": "KUSHURA ISLAMIA DAKHIL MADRASHA", "eiin": 107946, "inst_type": "Madrasha", "district": "DHAKA", "thana": "DHAMRAI", "mauza": "KUSHIRA", "long": 90.03186, "lat": 24.01398, "serial": 4203, "isUnique": 1 }, "geometry": { "type": "Point", "coordinates": [ 90.03186, 24.01398 ] } },
{ "type": "Feature", "properties": { "inst_name": "KAKRAN DAKHIL MADRASHA", "eiin": 107950, "inst_type": "Madrasha", "district": "DHAKA", "thana": "DHAMRAI", "mauza": "JANARDHAN PUR (SARNAKHALI)", "long": 90.11699, "lat": 23.96802, "serial": 4204, "isUnique": 1 }, "geometry": { "type": "Point", "coordinates": [ 90.11699, 23.96802 ] } },
{ "type": "Feature", "properties": { "inst_name": "SHARIFBAG ISLAMIA KAMIL MADRASAH", "eiin": 107943, "inst_type": "Madrasha", "district": "DHAKA", "thana": "DHAMRAI", "mauza": "SARIFBAG", "long": 90.11539, "lat": 23.96507, "serial": 4205, "isUnique": 1 }, "geometry": { "type": "Point", "coordinates": [ 90.11539, 23.96507 ] } },
{ "type": "Feature", "properties": { "inst_name": "ISHAN NAGAR DELDHA SHAH KARI ISLAMIA DAKHIL MADRASHA", "eiin": 107944, "inst_type": "Madrasha", "district": "DHAKA", "thana": "DHAMRAI", "mauza": "DELDHA", "long": 90.21423, "lat": 23.92693, "serial": 4206, "isUnique": 1 }, "geometry": { "type": "Point", "coordinates": [ 90.21423, 23.92693 ] } },
{ "type": "Feature", "properties": { "inst_name": "NANNAR NURUL HAQ DARUL ISLAM FAZIL MADRASHA", "eiin": 107945, "inst_type": "Madrasha", "district": "DHAKA", "thana": "DHAMRAI", "mauza": "NANNAR", "long": 90.21251, "lat": 23.92608, "serial": 4207, "isUnique": 1 }, "geometry": { "type": "Point", "coordinates": [ 90.21251, 23.92608 ] } },
{ "type": "Feature", "properties": { "inst_name": "SHOUL DHAN DARUL ISLAM DAKHIL MADRASHA", "eiin": 107947, "inst_type": "Madrasha", "district": "DHAKA", "thana": "DHAMRAI", "mauza": "SOLDHAN", "long": 90.18471, "lat": 23.88404, "serial": 4208, "isUnique": 1 }, "geometry": { "type": "Point", "coordinates": [ 90.18471, 23.88404 ] } },
{ "type": "Feature", "properties": { "inst_name": "DEONAI DAKHIL MADRASHA", "eiin": 107949, "inst_type": "Madrasha", "district": "DHAKA", "thana": "DHAMRAI", "mauza": "CHOURIMARA", "long": 90.16956, "lat": 23.85001, "serial": 4209, "isUnique": 1 }, "geometry": { "type": "Point", "coordinates": [ 90.16956, 23.85001 ] } },
{ "type": "Feature", "properties": { "inst_name": "ROWHA DARUL AMAN ISLAMIA DHAKHIL MADRASHA", "eiin": 107942, "inst_type": "Madrasha", "district": "DHAKA", "thana": "DHAMRAI", "mauza": "RAUHA", "long": 90.13701, "lat": 24.02294, "serial": 4210, "isUnique": 1 }, "geometry": { "type": "Point", "coordinates": [ 90.13701, 24.02294 ] } },
{ "type": "Feature", "properties": { "inst_name": "PAKHSHI DAKHIL MAKRASHA", "eiin": 107951, "inst_type": "Madrasha", "district": "DHAKA", "thana": "DHAMRAI", "mauza": "KHAGAIL", "long": 90.14358, "lat": 23.96075, "serial": 4211, "isUnique": 1 }, "geometry": { "type": "Point", "coordinates": [ 90.14358, 23.96075 ] } },
{ "type": "Feature", "properties": { "inst_name": "AL-AMIN ISLAMIA ALIM MADRASAH", "eiin": 108056, "inst_type": "Madrasha", "district": "DHAKA", "thana": "KAMRANGIR CHAR", "mauza": "DAKURIA", "long": 90.14938, "lat": 24.01251, "serial": 4212, "isUnique": 1 }, "geometry": { "type": "Point", "coordinates": [ 90.14938, 24.01251 ] } },
{ "type": "Feature", "properties": { "inst_name": "HAZRAT BAG ISLAMIA ALIM MADRSAH", "eiin": 108153, "inst_type": "Madrasha", "district": "DHAKA", "thana": "LALBAGH", "mauza": "LALBAGH FORT", "long": 90.37313, "lat": 23.71776, "serial": 4213, "isUnique": 1 }, "geometry": { "type": "Point", "coordinates": [ 90.37313, 23.71776 ] } },
{ "type": "Feature", "properties": { "inst_name": "GOVT MADRASAH - I - ALIA", "eiin": 108151, "inst_type": "Madrasha", "district": "DHAKA", "thana": "CHAK BAZAR", "mauza": "BAKSHI BAZAR ROAD", "long": 90.39138, "lat": 23.72269, "serial": 4214, "isUnique": 1 }, "geometry": { "type": "Point", "coordinates": [ 90.39138, 23.72269 ] } },
{ "type": "Feature", "properties": { "inst_name": "DHAKA MOHAMMADIA DAKHIL MADRASAH", "eiin": 108479, "inst_type": "Madrasha", "district": "DHAKA", "thana": "KADAMTALI", "mauza": "SHYAMPUR (PART)", "long": 90.38276, "lat": 23.72886, "serial": 4215, "isUnique": 1 }, "geometry": { "type": "Point", "coordinates": [ 90.38276, 23.72886 ] } },
{ "type": "Feature", "properties": { "inst_name": "DHAKA NESARIA KAMIL MADRASAH", "eiin": 108506, "inst_type": "Madrasha", "district": "DHAKA", "thana": "SHYAMPUR", "mauza": "DHALKA NAGAR (PART-II)S.NAGAR", "long": 90.44283, "lat": 23.697, "serial": 4216, "isUnique": 1 }, "geometry": { "type": "Point", "coordinates": [ 90.44283, 23.697 ] } },
{ "type": "Feature", "properties": { "inst_name": "DOGAIR DARUSSUNNAT FAZIL MADRASAh", "eiin": 107899, "inst_type": "Madrasha", "district": "DHAKA", "thana": "DEMRA", "mauza": "DAGAIR", "long": 90.43861, "lat": 23.70571, "serial": 4217, "isUnique": 1 }, "geometry": { "type": "Point", "coordinates": [ 90.43861, 23.70571 ] } },
{ "type": "Feature", "properties": { "inst_name": "SUNNA TENGRA SALEHIAH DAKHIL MADRASAH", "eiin": 107897, "inst_type": "Madrasha", "district": "DHAKA", "thana": "DEMRA", "mauza": "SUNNA", "long": 90.45949, "lat": 23.69396, "serial": 4218, "isUnique": 1 }, "geometry": { "type": "Point", "coordinates": [ 90.45949, 23.69396 ] } },
{ "type": "Feature", "properties": { "inst_name": "NABIABAD ISLAMIA DAKHIL MADRASA", "eiin": 108384, "inst_type": "Madrasha", "district": "DHAKA", "thana": "KHILGAON", "mauza": "NANDI PARA(PART)", "long": 90.48366, "lat": 23.71063, "serial": 4219, "isUnique": 1 }, "geometry": { "type": "Point", "coordinates": [ 90.48366, 23.71063 ] } },
{ "type": "Feature", "properties": { "inst_name": "MODINATUL ULUM MODEL IN BOYS KAMIL MADRASHA", "eiin": 108531, "inst_type": "Madrasha", "district": "DHAKA", "thana": "TEJGAON", "mauza": "TEJKUNI PARA", "long": 90.38628, "lat": 23.73845, "serial": 4220, "isUnique": 1 }, "geometry": { "type": "Point", "coordinates": [ 90.38628, 23.73845 ] } },
{ "type": "Feature", "properties": { "inst_name": "MADINATUL ULUM MODEL INSTI. WOMENS KAMIL MADRASAH", "eiin": 108532, "inst_type": "Madrasha", "district": "DHAKA", "thana": "TEJGAON", "mauza": "MONIPURI PARA", "long": 90.3948, "lat": 23.74514, "serial": 4221, "isUnique": 1 }, "geometry": { "type": "Point", "coordinates": [ 90.3948, 23.74514 ] } },
{ "type": "Feature", "properties": { "inst_name": "HAJEE MORON ALI ISLAMIA KAMIL MADRASAH", "eiin": 108530, "inst_type": "Madrasha", "district": "DHAKA", "thana": "TEJGAON", "mauza": "PASCHIM NAKHAL PARA", "long": 90.39719, "lat": 23.75728, "serial": 4222, "isUnique": 1 }, "geometry": { "type": "Point", "coordinates": [ 90.39719, 23.75728 ] } },
{ "type": "Feature", "properties": { "inst_name": "HAZRAT SHAH ALI BAGDADI RH KAMIL MADRASA", "eiin": 108202, "inst_type": "Madrasha", "district": "DHAKA", "thana": "MIRPUR", "mauza": "DAKSHIN BISHIL", "long": 90.37237, "lat": 23.77832, "serial": 4223, "isUnique": 1 }, "geometry": { "type": "Point", "coordinates": [ 90.37237, 23.77832 ] } },
{ "type": "Feature", "properties": { "inst_name": "MASZIDUL AKBER ISLAMIA DAKHIL MADRASHA", "eiin": 108200, "inst_type": "Madrasha", "district": "DHAKA", "thana": "SHAH ALI", "mauza": "MIRPUR SEC-1 (BLOCK-C)", "long": 90.3454, "lat": 23.78894, "serial": 4224, "isUnique": 1 }, "geometry": { "type": "Point", "coordinates": [ 90.3454, 23.78894 ] } },
{ "type": "Feature", "properties": { "inst_name": "MADRASHA E BAITUL MAMUR DHAKHIL MADRASHA", "eiin": 108199, "inst_type": "Madrasha", "district": "DHAKA", "thana": "MIRPUR", "mauza": "PASCHIM SENPARA PARBATHA(PART)", "long": 90.36458, "lat": 23.80084, "serial": 4225, "isUnique": 1 }, "geometry": { "type": "Point", "coordinates": [ 90.36458, 23.80084 ] } },
{ "type": "Feature", "properties": { "inst_name": "BATTUL MOHARRAF SENIOR MADRASAH", "eiin": 108204, "inst_type": "Madrasha", "district": "DHAKA", "thana": "MIRPUR", "mauza": "MIRPUR SEC-2 (BLOCK-B)", "long": 90.36939, "lat": 23.80405, "serial": 4226, "isUnique": 1 }, "geometry": { "type": "Point", "coordinates": [ 90.36939, 23.80405 ] } },
{ "type": "Feature", "properties": { "inst_name": "MOHAKHALI DARUL ULUM HOSSAINIAH KAMIL MADRASHA", "eiin": 108030, "inst_type": "Madrasha", "district": "DHAKA", "thana": "BANANI", "mauza": "MOHAKHALI WIRELESS", "long": 90.39163, "lat": 23.77623, "serial": 4227, "isUnique": 1 }, "geometry": { "type": "Point", "coordinates": [ 90.39163, 23.77623 ] } },
{ "type": "Feature", "properties": { "inst_name": "BARIDHARA NAJMUL ULUM DAKHIL MADRASH", "eiin": 107834, "inst_type": "Madrasha", "district": "DHAKA", "thana": "BADDA", "mauza": "MADHYA BADDA PASCHIM", "long": 90.40881, "lat": 23.77979, "serial": 4228, "isUnique": 1 }, "geometry": { "type": "Point", "coordinates": [ 90.40881, 23.77979 ] } },
{ "type": "Feature", "properties": { "inst_name": "UTTAR BADDA ISLAMIA KAMIL MADRASAH", "eiin": 107835, "inst_type": "Madrasha", "district": "DHAKA", "thana": "BADDA", "mauza": "BADDA", "long": 90.40926, "lat": 23.78084, "serial": 4229, "isUnique": 1 }, "geometry": { "type": "Point", "coordinates": [ 90.40926, 23.78084 ] } },
{ "type": "Feature", "properties": { "inst_name": "SATARKUL DIN MOHAMMAD GIRLS DAKHIL MADRASHA", "eiin": 108027, "inst_type": "Madrasha", "district": "DHAKA", "thana": "BADDA", "mauza": "SATARKUL", "long": 90.43383, "lat": 23.78202, "serial": 4230, "isUnique": 1 }, "geometry": { "type": "Point", "coordinates": [ 90.43383, 23.78202 ] } },
{ "type": "Feature", "properties": { "inst_name": "SATARKUL NOOR MOHAMMAD ALIM MADRASHA", "eiin": 108028, "inst_type": "Madrasha", "district": "DHAKA", "thana": "BADDA", "mauza": "SATARKUL", "long": 90.40276, "lat": 23.78914, "serial": 4231, "isUnique": 1 }, "geometry": { "type": "Point", "coordinates": [ 90.40276, 23.78914 ] } },
{ "type": "Feature", "properties": { "inst_name": "MANIKDI ISLAMIA SENIOR MADRASAH", "eiin": 107853, "inst_type": "Madrasha", "district": "DHAKA", "thana": "CANTONMENT", "mauza": "MANIKDI", "long": 90.39236, "lat": 23.81215, "serial": 4232, "isUnique": 1 }, "geometry": { "type": "Point", "coordinates": [ 90.39236, 23.81215 ] } },
{ "type": "Feature", "properties": { "inst_name": "BERAID MUHAMMADIA DAKHIL MADRASAH", "eiin": 107830, "inst_type": "Madrasha", "district": "DHAKA", "thana": "BADDA", "mauza": "BARA BERAID", "long": 90.41811, "lat": 23.81473, "serial": 4233, "isUnique": 1 }, "geometry": { "type": "Point", "coordinates": [ 90.41811, 23.81473 ] } },
{ "type": "Feature", "properties": { "inst_name": "KAWLAR ISLAMIA DAKHIL MADRASAH", "eiin": 108555, "inst_type": "Madrasha", "district": "DHAKA", "thana": "DAKSHINKHAN", "mauza": "DAKSHINKHAN (PART)", "long": 90.3995, "lat": 23.82717, "serial": 4234, "isUnique": 1 }, "geometry": { "type": "Point", "coordinates": [ 90.3995, 23.82717 ] } },
{ "type": "Feature", "properties": { "inst_name": "AMULIA MENDIPUR ISLAMIA ALIM MADRASA", "eiin": 107900, "inst_type": "Madrasha", "district": "DHAKA", "thana": "DEMRA", "mauza": "AMULIA", "long": 90.47128, "lat": 23.79962, "serial": 4235, "isUnique": 1 }, "geometry": { "type": "Point", "coordinates": [ 90.47128, 23.79962 ] } },
{ "type": "Feature", "properties": { "inst_name": "SAVAR ISLAMIA FAZIL MADRASAH", "eiin": 108440, "inst_type": "Madrasha", "district": "DHAKA", "thana": "SAVAR", "mauza": "SHAVAR BAZAR", "long": 90.25283, "lat": 23.84606, "serial": 4236, "isUnique": 1 }, "geometry": { "type": "Point", "coordinates": [ 90.25283, 23.84606 ] } },
{ "type": "Feature", "properties": { "inst_name": "ASHULIA HAZERA KHATUN DAKHIL MADRASAH", "eiin": 108441, "inst_type": "Madrasha", "district": "DHAKA", "thana": "SAVAR", "mauza": "BARA ASHULIA", "long": 90.2555, "lat": 23.83858, "serial": 4237, "isUnique": 1 }, "geometry": { "type": "Point", "coordinates": [ 90.2555, 23.83858 ] } },
{ "type": "Feature", "properties": { "inst_name": "DARUL ULUM AHSANIA DAKHIL MADRASHA", "eiin": 108442, "inst_type": "Madrasha", "district": "DHAKA", "thana": "SAVAR", "mauza": "MUSURIKHOLA", "long": 90.33758, "lat": 23.79875, "serial": 4238, "isUnique": 1 }, "geometry": { "type": "Point", "coordinates": [ 90.33758, 23.79875 ] } },
{ "type": "Feature", "properties": { "inst_name": "KALIAKAIR DARUL MOKARROM ALIM MADRASAH", "eiin": 108445, "inst_type": "Madrasha", "district": "DHAKA", "thana": "SAVAR", "mauza": "CHHOTA KALIAKAIR", "long": 90.32267, "lat": 23.74375, "serial": 4239, "isUnique": 1 }, "geometry": { "type": "Point", "coordinates": [ 90.32267, 23.74375 ] } },
{ "type": "Feature", "properties": { "inst_name": "UNAIL DARUL ULUM ISLAMIA ALIM MADRASAH", "eiin": 108439, "inst_type": "Madrasha", "district": "DHAKA", "thana": "SAVAR", "mauza": "UNAIL", "long": 90.28258, "lat": 23.92992, "serial": 4240, "isUnique": 1 }, "geometry": { "type": "Point", "coordinates": [ 90.28258, 23.92992 ] } },
{ "type": "Feature", "properties": { "inst_name": "GAZIRCHAT MADINATUL ULuM ISLAMIA ALIM MADRASHA", "eiin": 108437, "inst_type": "Madrasha", "district": "DHAKA", "thana": "SAVAR", "mauza": "BAIPAIL", "long": 90.28289, "lat": 23.9625, "serial": 4241, "isUnique": 1 }, "geometry": { "type": "Point", "coordinates": [ 90.28289, 23.9625 ] } },
{ "type": "Feature", "properties": { "inst_name": "DARUL ISLAM FAZIL MADRASAH", "eiin": 108436, "inst_type": "Madrasha", "district": "DHAKA", "thana": "SAVAR", "mauza": "DAKSHIN SINDURIA", "long": 90.27614, "lat": 23.87867, "serial": 4242, "isUnique": 1 }, "geometry": { "type": "Point", "coordinates": [ 90.27614, 23.87867 ] } },
{ "type": "Feature", "properties": { "inst_name": "BAIDGAON ISLAMIA DAKHIL MADRASAH", "eiin": 108446, "inst_type": "Madrasha", "district": "DHAKA", "thana": "SAVAR", "mauza": "BARA ASHULIA", "long": 90.22394, "lat": 24.00761, "serial": 4243, "isUnique": 1 }, "geometry": { "type": "Point", "coordinates": [ 90.22394, 24.00761 ] } },
{ "type": "Feature", "properties": { "inst_name": "KONAPARA DARUL ULUM ALIM MADRASAH", "eiin": 108444, "inst_type": "Madrasha", "district": "DHAKA", "thana": "SAVAR", "mauza": "TENGURI+BKSP", "long": 90.22464, "lat": 23.98744, "serial": 4244, "isUnique": 1 }, "geometry": { "type": "Point", "coordinates": [ 90.22464, 23.98744 ] } },
{ "type": "Feature", "properties": { "inst_name": "NALLA POLLA ADARSHA ISLAMIA SENIOR  MADRASAH", "eiin": 108438, "inst_type": "Madrasha", "district": "DHAKA", "thana": "SAVAR", "mauza": "NALLAPOLLA", "long": 90.25589, "lat": 23.99314, "serial": 4245, "isUnique": 1 }, "geometry": { "type": "Point", "coordinates": [ 90.25589, 23.99314 ] } },
{ "type": "Feature", "properties": { "inst_name": "SAMLASHIR KALATIA PARA DAKIL MADRASAH", "eiin": 108443, "inst_type": "Madrasha", "district": "DHAKA", "thana": "SAVAR", "mauza": "SHYAMALAPUR", "long": 90.31333, "lat": 23.93725, "serial": 4246, "isUnique": 1 }, "geometry": { "type": "Point", "coordinates": [ 90.31333, 23.93725 ] } },
{ "type": "Feature", "properties": { "inst_name": "BARATIA ALHAJ MAU YASIN PRE CADET DAKHIL MADRASHA", "eiin": 107952, "inst_type": "Madrasha", "district": "DHAKA", "thana": "DHAMRAI", "mauza": "BARATIA", "long": 90.32228, "lat": 23.91233, "serial": 4247, "isUnique": 1 }, "geometry": { "type": "Point", "coordinates": [ 90.32228, 23.91233 ] } },
{ "type": "Feature", "properties": { "inst_name": "ZAHIRUNNESSA MOHILA DHAKIL MADRASHA", "eiin": 107905, "inst_type": "Madrasha", "district": "DHAKA", "thana": "JATRABARI", "mauza": "DHANIA (PART)", "long": 90.37819, "lat": 23.74403, "serial": 4248, "isUnique": 1 }, "geometry": { "type": "Point", "coordinates": [ 90.37819, 23.74403 ] } },
{ "type": "Feature", "properties": { "inst_name": "MATUAIL ISLAMIA ALIM MADRASAH", "eiin": 107904, "inst_type": "Madrasha", "district": "DHAKA", "thana": "JATRABARI", "mauza": "MATUAIL (PART)", "long": 90.42528, "lat": 23.71417, "serial": 4249, "isUnique": 1 }, "geometry": { "type": "Point", "coordinates": [ 90.42528, 23.71417 ] } },
{ "type": "Feature", "properties": { "inst_name": "JANNATUL BANAT (MOHILA) MADRASAH", "eiin": 107903, "inst_type": "Madrasha", "district": "DHAKA", "thana": "JATRABARI", "mauza": "UTTAR JATRABARI (PART)", "long": 90.45981, "lat": 23.70944, "serial": 4250, "isUnique": 1 }, "geometry": { "type": "Point", "coordinates": [ 90.45981, 23.70944 ] } },
{ "type": "Feature", "properties": { "inst_name": "TAMIRUL MILLAT KAMIL MADRASHA", "eiin": 108478, "inst_type": "Madrasha", "district": "DHAKA", "thana": "JATRABARI", "mauza": "DAKSHIN JATRABARI", "long": 90.43597, "lat": 23.71294, "serial": 4251, "isUnique": 1 }, "geometry": { "type": "Point", "coordinates": [ 90.43597, 23.71294 ] } },
{ "type": "Feature", "properties": { "inst_name": "TAMIRUL MILLAT KAMIL MADRASAH (MOHILA)", "eiin": 107902, "inst_type": "Madrasha", "district": "DHAKA", "thana": "DEMRA", "mauza": "PARA DAGAR (PART)", "long": 90.43014, "lat": 23.71156, "serial": 4252, "isUnique": 1 }, "geometry": { "type": "Point", "coordinates": [ 90.43014, 23.71156 ] } },
{ "type": "Feature", "properties": { "inst_name": "DARUNNAZAT SIDDIKIA KAMIL MDARASAH", "eiin": 107906, "inst_type": "Madrasha", "district": "DHAKA", "thana": "DEMRA", "mauza": "JOKA", "long": 90.49139, "lat": 23.71644, "serial": 4253, "isUnique": 1 }, "geometry": { "type": "Point", "coordinates": [ 90.49139, 23.71644 ] } },
{ "type": "Feature", "properties": { "inst_name": "FULMOTI ISLMIA alim MADRASHA", "eiin": 107901, "inst_type": "Madrasha", "district": "DHAKA", "thana": "DEMRA", "mauza": "SARALIA", "long": 90.49844, "lat": 23.71747, "serial": 4254, "isUnique": 1 }, "geometry": { "type": "Point", "coordinates": [ 90.49844, 23.71747 ] } },
{ "type": "Feature", "properties": { "inst_name": "MISBAHUL ULUM KAMIL MADRASHA", "eiin": 108584, "inst_type": "Madrasha", "district": "DHAKA", "thana": "MOTIJHEEL", "mauza": "T & T COLONY", "long": 90.42161, "lat": 23.73794, "serial": 4255, "isUnique": 1 }, "geometry": { "type": "Point", "coordinates": [ 90.42161, 23.73794 ] } },
{ "type": "Feature", "properties": { "inst_name": "RAILWAY HAFIZA SUNNIA DAKHIL MADRASAH", "eiin": 108271, "inst_type": "Madrasha", "district": "DHAKA", "thana": "MOTIJHEEL", "mauza": "MOTIJHEEL COLONY", "long": 90.41983, "lat": 23.73378, "serial": 4256, "isUnique": 1 }, "geometry": { "type": "Point", "coordinates": [ 90.41983, 23.73378 ] } },
{ "type": "Feature", "properties": { "inst_name": "NAYATOLA AU.N MODEL KAMIL MADRASAH", "eiin": 108350, "inst_type": "Madrasha", "district": "DHAKA", "thana": "RAMNA", "mauza": "MADHUBAGH", "long": 90.40717, "lat": 23.74175, "serial": 4257, "isUnique": 1 }, "geometry": { "type": "Point", "coordinates": [ 90.40717, 23.74175 ] } },
{ "type": "Feature", "properties": { "inst_name": "NABI NAGAR UTTAR BARHA DAKHIL MADRASAH", "eiin": 131800, "inst_type": "Madrasha", "district": "DHAKA", "thana": "NAWABGANJ", "mauza": "UTTAR BARHA", "long": 90.408, "lat": 23.73186, "serial": 4258, "isUnique": 1 }, "geometry": { "type": "Point", "coordinates": [ 90.408, 23.73186 ] } },
{ "type": "Feature", "properties": { "inst_name": "MONIKANDA DAKHIL MADRASAH", "eiin": 108316, "inst_type": "Madrasha", "district": "DHAKA", "thana": "NAWABGANJ", "mauza": "MANIKANDA", "long": 90.18681, "lat": 23.65428, "serial": 4259, "isUnique": 1 }, "geometry": { "type": "Point", "coordinates": [ 90.18681, 23.65428 ] } },
{ "type": "Feature", "properties": { "inst_name": "SONA HAZRA MUFIZIA FAZIL MADRASAH", "eiin": 108313, "inst_type": "Madrasha", "district": "DHAKA", "thana": "NAWABGANJ", "mauza": "BARA GOBINDAPUR", "long": 90.20011, "lat": 23.64983, "serial": 4260, "isUnique": 1 }, "geometry": { "type": "Point", "coordinates": [ 90.20011, 23.64983 ] } },
{ "type": "Feature", "properties": { "inst_name": "KAILAIL HANAFIa DAKHIL MADRASAH", "eiin": 108314, "inst_type": "Madrasha", "district": "DHAKA", "thana": "NAWABGANJ", "mauza": "KALIAIL (KAILAIL)", "long": 90.04478, "lat": 23.67456, "serial": 4261, "isUnique": 1 }, "geometry": { "type": "Point", "coordinates": [ 90.04478, 23.67456 ] } },
{ "type": "Feature", "properties": { "inst_name": "NABABGONJ DAKHIL MADRASAH", "eiin": 108315, "inst_type": "Madrasha", "district": "DHAKA", "thana": "NAWABGANJ", "mauza": "KASIMPUR", "long": 90.23386, "lat": 23.68667, "serial": 4262, "isUnique": 1 }, "geometry": { "type": "Point", "coordinates": [ 90.23386, 23.68667 ] } },
{ "type": "Feature", "properties": { "inst_name": "QUADERIA Tayabia ALIA KAMIL MADRASAH", "eiin": 108244, "inst_type": "Madrasha", "district": "DHAKA", "thana": "MOHAMMADPUR", "mauza": "AZIZ MAHALLAH(JT.QTR.&JAH", "long": 90.36806, "lat": 23.77525, "serial": 4263, "isUnique": 1 }, "geometry": { "type": "Point", "coordinates": [ 90.36806, 23.77525 ] } },
{ "type": "Feature", "properties": { "inst_name": "MOHAMMADIA ALIM MADRASAH", "eiin": 108248, "inst_type": "Madrasha", "district": "DHAKA", "thana": "MOHAMMADPUR", "mauza": "PURBA JAFRABAD", "long": 90.36431, "lat": 23.74947, "serial": 4264, "isUnique": 1 }, "geometry": { "type": "Point", "coordinates": [ 90.36431, 23.74947 ] } },
{ "type": "Feature", "properties": { "inst_name": "GAWSIA ISLAMIA FAZIL MADRASAH", "eiin": 108247, "inst_type": "Madrasha", "district": "DHAKA", "thana": "MOHAMMADPUR", "mauza": "JOHURI MAHALLAH", "long": 90.36664, "lat": 23.74939, "serial": 4265, "isUnique": 1 }, "geometry": { "type": "Point", "coordinates": [ 90.36664, 23.74939 ] } },
{ "type": "Feature", "properties": { "inst_name": "ZAMIA E HAZRAT ABU BAKAR SIDDIQUE (R:) DAKHIL MADRASHA", "eiin": 108243, "inst_type": "Madrasha", "district": "DHAKA", "thana": "MOHAMMADPUR", "mauza": "BIJLEE MAHALLAH", "long": 90.36586, "lat": 23.74764, "serial": 4266, "isUnique": 1 }, "geometry": { "type": "Point", "coordinates": [ 90.36586, 23.74764 ] } },
{ "type": "Feature", "properties": { "inst_name": "BAITUL FAZAL ISLAMIA  MADRASHA", "eiin": 108245, "inst_type": "Madrasha", "district": "DHAKA", "thana": "MOHAMMADPUR", "mauza": "NURJAHAN ROAD", "long": 90.36539, "lat": 23.75383, "serial": 4267, "isUnique": 1 }, "geometry": { "type": "Point", "coordinates": [ 90.36539, 23.75383 ] } },
{ "type": "Feature", "properties": { "inst_name": "ADARSHA ISLAMI MISSION MOHILA KAMIL MADRASAH", "eiin": 108246, "inst_type": "Madrasha", "district": "DHAKA", "thana": "MOHAMMADPUR", "mauza": "LALMATIA (BLOCK-G)", "long": 90.36569, "lat": 23.75664, "serial": 4268, "isUnique": 1 }, "geometry": { "type": "Point", "coordinates": [ 90.36569, 23.75664 ] } },
{ "type": "Feature", "properties": { "inst_name": "SHER-E-BANGLA GIRL'S HIGH SCHOOL", "eiin": 123456, "inst_type": "School", "district": "DHAKA", "thana": "PALLABI", "mauza": "KHATTA SAHAPUR", "long": 88.88724, "lat": 24.80486, "serial": 13401, "isUnique": 1 }, "geometry": { "type": "Point", "coordinates": [ 88.88724, 24.80486 ] } },
{ "type": "Feature", "properties": { "inst_name": "PARJOWAR BRAHMANGOAN HIGH SCHOOL", "eiin": 108078, "inst_type": "School", "district": "DHAKA", "thana": "KERANIGANJ", "mauza": "BRAHMANGAON", "long": 91.31686, "lat": 24.19958, "serial": 13402, "isUnique": 1 }, "geometry": { "type": "Point", "coordinates": [ 91.31686, 24.19958 ] } },
{ "type": "Feature", "properties": { "inst_name": "NAYABAZZAR HIGH SCHOOL", "eiin": 108071, "inst_type": "School", "district": "DHAKA", "thana": "KERANIGANJ", "mauza": "ATI", "long": 91.35465, "lat": 23.99861, "serial": 13403, "isUnique": 1 }, "geometry": { "type": "Point", "coordinates": [ 91.35465, 23.99861 ] } },
{ "type": "Feature", "properties": { "inst_name": "ATI PANCHDONA HIGH SCHOOL", "eiin": 108067, "inst_type": "School", "district": "DHAKA", "thana": "KERANIGANJ", "mauza": "ATI", "long": 91.35169, "lat": 24.15526, "serial": 13404, "isUnique": 1 }, "geometry": { "type": "Point", "coordinates": [ 91.35169, 24.15526 ] } },
{ "type": "Feature", "properties": { "inst_name": "SHAKTA HIGH SCHOOL", "eiin": 108076, "inst_type": "School", "district": "DHAKA", "thana": "KERANIGANJ", "mauza": "SAKTA", "long": 90.45381, "lat": 23.63875, "serial": 13405, "isUnique": 1 }, "geometry": { "type": "Point", "coordinates": [ 90.45381, 23.63875 ] } },
{ "type": "Feature", "properties": { "inst_name": "BATTALI SARAJ UDDIN AHMED HIGH SCHOOL", "eiin": 108080, "inst_type": "School", "district": "DHAKA", "thana": "KERANIGANJ", "mauza": "BARAIKANDI", "long": 90.3423, "lat": 23.72861, "serial": 13406, "isUnique": 1 }, "geometry": { "type": "Point", "coordinates": [ 90.3423, 23.72861 ] } },
{ "type": "Feature", "properties": { "inst_name": "ATI BhaWAL HIGH SCHOOL", "eiin": 108085, "inst_type": "School", "district": "DHAKA", "thana": "KERANIGANJ", "mauza": "BARA MANOHARIA", "long": 90.3418, "lat": 23.72687, "serial": 13407, "isUnique": 1 }, "geometry": { "type": "Point", "coordinates": [ 90.3418, 23.72687 ] } },
{ "type": "Feature", "properties": { "inst_name": "BAGHASUR HIGH SCHOOL", "eiin": 108099, "inst_type": "School", "district": "DHAKA", "thana": "KERANIGANJ", "mauza": "BAGHASUR", "long": 90.34246, "lat": 23.72572, "serial": 13408, "isUnique": 1 }, "geometry": { "type": "Point", "coordinates": [ 90.34246, 23.72572 ] } },
{ "type": "Feature", "properties": { "inst_name": "ISPAHANI HIGH SCHOOL", "eiin": 108088, "inst_type": "School", "district": "DHAKA", "thana": "KERANIGANJ", "mauza": "SAKTA", "long": 90.30953, "lat": 23.76133, "serial": 13409, "isUnique": 1 }, "geometry": { "type": "Point", "coordinates": [ 90.30953, 23.76133 ] } },
{ "type": "Feature", "properties": { "inst_name": "GOALKHALI IDEAL HIGH SCHOOL", "eiin": 108081, "inst_type": "School", "district": "DHAKA", "thana": "KERANIGANJ", "mauza": "RUHITPUR", "long": 90.3001, "lat": 23.75766, "serial": 13410, "isUnique": 1 }, "geometry": { "type": "Point", "coordinates": [ 90.3001, 23.75766 ] } },
{ "type": "Feature", "properties": { "inst_name": "SHAHEED PRESIDENT ZIAUR RAHMAN IDEAL HIGH SCHOOL", "eiin": 108084, "inst_type": "School", "district": "DHAKA", "thana": "KERANIGANJ", "mauza": "KAKALIA", "long": 90.33859, "lat": 23.68004, "serial": 13411, "isUnique": 1 }, "geometry": { "type": "Point", "coordinates": [ 90.33859, 23.68004 ] } },
{ "type": "Feature", "properties": { "inst_name": "SHAHEED PRESIDENT ZIAUR RAHMAN ADRSHA SCHOOL", "eiin": 108083, "inst_type": "School", "district": "DHAKA", "thana": "KERANIGANJ", "mauza": "BELNA", "long": 90.32228, "lat": 23.68776, "serial": 13412, "isUnique": 1 }, "geometry": { "type": "Point", "coordinates": [ 90.32228, 23.68776 ] } },
{ "type": "Feature", "properties": { "inst_name": "ZAZIRA HIGH SCHOOL", "eiin": 108096, "inst_type": "School", "district": "DHAKA", "thana": "KERANIGANJ", "mauza": "ASTADONA", "long": 90.34142, "lat": 23.70693, "serial": 13413, "isUnique": 1 }, "geometry": { "type": "Point", "coordinates": [ 90.34142, 23.70693 ] } },
{ "type": "Feature", "properties": { "inst_name": "SONAKANDA SHAHEED PRESIDNT ZIAUR RAHMAN HIGH SCHOOL", "eiin": 108102, "inst_type": "School", "district": "DHAKA", "thana": "KERANIGANJ", "mauza": "SONAKANDA", "long": 90.40239, "lat": 23.69674, "serial": 13414, "isUnique": 1 }, "geometry": { "type": "Point", "coordinates": [ 90.40239, 23.69674 ] } },
{ "type": "Feature", "properties": { "inst_name": "NUR MOHAMMAD NURU MIA HIGH SCHOOL", "eiin": 108100, "inst_type": "School", "district": "DHAKA", "thana": "KERANIGANJ", "mauza": "MIRERBAGH", "long": 90.37541, "lat": 23.70432, "serial": 13415, "isUnique": 1 }, "geometry": { "type": "Point", "coordinates": [ 90.37541, 23.70432 ] } },
{ "type": "Feature", "properties": { "inst_name": "SHAHEED PRESIDENT ZIAUR RAHMAN HIGH SCHOOL", "eiin": 108101, "inst_type": "School", "district": "DHAKA", "thana": "KERANIGANJ", "mauza": "CHUNKUTIY MOUZA (PART)", "long": 90.45632, "lat": 23.64725, "serial": 13416, "isUnique": 1 }, "geometry": { "type": "Point", "coordinates": [ 90.45632, 23.64725 ] } },
{ "type": "Feature", "properties": { "inst_name": "BAGHAIR HIGH SCHOOL", "eiin": 108070, "inst_type": "School", "district": "DHAKA", "thana": "KERANIGANJ", "mauza": "BAGHAIR", "long": 90.35168, "lat": 23.66809, "serial": 13417, "isUnique": 1 }, "geometry": { "type": "Point", "coordinates": [ 90.35168, 23.66809 ] } },
{ "type": "Feature", "properties": { "inst_name": "BARRAH HABIL UDDIN HIGH SCHOOL", "eiin": 107998, "inst_type": "School", "district": "DHAKA", "thana": "DOHAR", "mauza": "DAKSHIN BAHRA", "long": 90.41292, "lat": 23.68996, "serial": 13418, "isUnique": 1 }, "geometry": { "type": "Point", "coordinates": [ 90.41292, 23.68996 ] } },
{ "type": "Feature", "properties": { "inst_name": "SHILAKOTHA HIGH SCHOOL", "eiin": 108003, "inst_type": "School", "district": "DHAKA", "thana": "DOHAR", "mauza": "SILAKOTA", "long": 90.41201, "lat": 23.69584, "serial": 13419, "isUnique": 1 }, "geometry": { "type": "Point", "coordinates": [ 90.41201, 23.69584 ] } },
{ "type": "Feature", "properties": { "inst_name": "KARTIKPUR HIGH SCHOOL", "eiin": 107997, "inst_type": "School", "district": "DHAKA", "thana": "DOHAR", "mauza": "KARTIKPUR", "long": 90.40455, "lat": 23.68391, "serial": 13420, "isUnique": 1 }, "geometry": { "type": "Point", "coordinates": [ 90.40455, 23.68391 ] } },
{ "type": "Feature", "properties": { "inst_name": "IKRASHI ADARSHA HIGH SCHOOL", "eiin": 107999, "inst_type": "School", "district": "DHAKA", "thana": "DOHAR", "mauza": "ROYPARA", "long": 90.37543, "lat": 23.6632, "serial": 13421, "isUnique": 1 }, "geometry": { "type": "Point", "coordinates": [ 90.37543, 23.6632 ] } },
{ "type": "Feature", "properties": { "inst_name": "JOYPARA PILOT HIGH SCHOOL", "eiin": 107993, "inst_type": "School", "district": "DHAKA", "thana": "DOHAR", "mauza": "DAKSHIN JOYPARA", "long": 90.06595, "lat": 23.64149, "serial": 13422, "isUnique": 1 }, "geometry": { "type": "Point", "coordinates": [ 90.06595, 23.64149 ] } },
{ "type": "Feature", "properties": { "inst_name": "SUTAR PARA ABDUL HAMED HIGH SCHOOL", "eiin": 107986, "inst_type": "School", "district": "DHAKA", "thana": "DOHAR", "mauza": "SUTAR PARA (PART)", "long": 90.11275, "lat": 23.64007, "serial": 13423, "isUnique": 1 }, "geometry": { "type": "Point", "coordinates": [ 90.11275, 23.64007 ] } },
{ "type": "Feature", "properties": { "inst_name": "ISLAMBAD HIGH SCHOOL", "eiin": 107995, "inst_type": "School", "district": "DHAKA", "thana": "DOHAR", "mauza": "MEGHULA", "long": 90.12291, "lat": 23.61897, "serial": 13424, "isUnique": 1 }, "geometry": { "type": "Point", "coordinates": [ 90.12291, 23.61897 ] } },
{ "type": "Feature", "properties": { "inst_name": "KABI NAZRUL GIRLS high SCHOOL", "eiin": 107990, "inst_type": "School", "district": "DHAKA", "thana": "DOHAR", "mauza": "MEGHULA", "long": 90.12008, "lat": 23.61697, "serial": 13425, "isUnique": 1 }, "geometry": { "type": "Point", "coordinates": [ 90.12008, 23.61697 ] } },
{ "type": "Feature", "properties": { "inst_name": "NARISHA HIGH SCHOOL", "eiin": 108000, "inst_type": "School", "district": "DHAKA", "thana": "DOHAR", "mauza": "NARISHA", "long": 90.12121, "lat": 23.61671, "serial": 13426, "isUnique": 1 }, "geometry": { "type": "Point", "coordinates": [ 90.12121, 23.61671 ] } },
{ "type": "Feature", "properties": { "inst_name": "NARISHA GIRL'S HIGH SCHOOL", "eiin": 107989, "inst_type": "School", "district": "DHAKA", "thana": "DOHAR", "mauza": "SATBHITA", "long": 90.12149, "lat": 23.6161, "serial": 13427, "isUnique": 1 }, "geometry": { "type": "Point", "coordinates": [ 90.12149, 23.6161 ] } },
{ "type": "Feature", "properties": { "inst_name": "EMDAD ALI HIGH SCHOOL", "eiin": 107991, "inst_type": "School", "district": "DHAKA", "thana": "DOHAR", "mauza": "PASCHIM MAURA", "long": 90.14857, "lat": 23.58616, "serial": 13428, "isUnique": 1 }, "geometry": { "type": "Point", "coordinates": [ 90.14857, 23.58616 ] } },
{ "type": "Feature", "properties": { "inst_name": "MODHURKHOLA HIGH SCHOOL", "eiin": 108002, "inst_type": "School", "district": "DHAKA", "thana": "DOHAR", "mauza": "MADHURKHOLA", "long": 90.14967, "lat": 23.57726, "serial": 13429, "isUnique": 1 }, "geometry": { "type": "Point", "coordinates": [ 90.14967, 23.57726 ] } },
{ "type": "Feature", "properties": { "inst_name": "MUKSUDPUR SHAMSUDDIN SIKDER HIGH SCHOOL", "eiin": 107996, "inst_type": "School", "district": "DHAKA", "thana": "DOHAR", "mauza": "MUKSUDPUR", "long": 90.1467, "lat": 23.56385, "serial": 13430, "isUnique": 1 }, "geometry": { "type": "Point", "coordinates": [ 90.1467, 23.56385 ] } },
{ "type": "Feature", "properties": { "inst_name": "MUKSUDPUR GIRLS HIGH SCHOOL", "eiin": 107987, "inst_type": "School", "district": "DHAKA", "thana": "DOHAR", "mauza": "MUKSUDPUR", "long": 90.15399, "lat": 23.55719, "serial": 13431, "isUnique": 1 }, "geometry": { "type": "Point", "coordinates": [ 90.15399, 23.55719 ] } },
{ "type": "Feature", "properties": { "inst_name": "SUNDORY PARA JUNIOR HIGH SCHOOL", "eiin": 107992, "inst_type": "School", "district": "DHAKA", "thana": "DOHAR", "mauza": "PURULIA", "long": 90.19554, "lat": 23.5671, "serial": 13432, "isUnique": 1 }, "geometry": { "type": "Point", "coordinates": [ 90.19554, 23.5671 ] } },
{ "type": "Feature", "properties": { "inst_name": "LoTAKHOLA AZaHAR ALI MEMORIAL HIGH SCHOOL", "eiin": 107988, "inst_type": "School", "district": "DHAKA", "thana": "DOHAR", "mauza": "PURBA LATAKHOLA", "long": 90.17274, "lat": 23.54184, "serial": 13433, "isUnique": 1 }, "geometry": { "type": "Point", "coordinates": [ 90.17274, 23.54184 ] } },
{ "type": "Feature", "properties": { "inst_name": "MAHMUDPUR JUNIOR HIGH SCHOOl", "eiin": 108004, "inst_type": "School", "district": "DHAKA", "thana": "DOHAR", "mauza": "MAHMUDPUR (RAGHURAMPUR)", "long": 90.17267, "lat": 23.53991, "serial": 13434, "isUnique": 1 }, "geometry": { "type": "Point", "coordinates": [ 90.17267, 23.53991 ] } },
{ "type": "Feature", "properties": { "inst_name": "RAJAPUR KOHELA BAhRAM MOLLICK HIGH SCHOOL", "eiin": 107958, "inst_type": "School", "district": "DHAKA", "thana": "DHAMRAI", "mauza": "RAJAPUR", "long": 90.07959, "lat": 23.63123, "serial": 13435, "isUnique": 1 }, "geometry": { "type": "Point", "coordinates": [ 90.07959, 23.63123 ] } },
{ "type": "Feature", "properties": { "inst_name": "NIKLA A J A HAQUE HIGH SCHOOL", "eiin": 107918, "inst_type": "School", "district": "DHAKA", "thana": "DHAMRAI", "mauza": "NIKLY", "long": 90.17948, "lat": 23.53864, "serial": 13436, "isUnique": 1 }, "geometry": { "type": "Point", "coordinates": [ 90.17948, 23.53864 ] } },
{ "type": "Feature", "properties": { "inst_name": "HARA LAL HIGH SCHOOL", "eiin": 107922, "inst_type": "School", "district": "DHAKA", "thana": "DHAMRAI", "mauza": "AMTA", "long": 90.15911, "lat": 23.56325, "serial": 13437, "isUnique": 1 }, "geometry": { "type": "Point", "coordinates": [ 90.15911, 23.56325 ] } },
{ "type": "Feature", "properties": { "inst_name": " WADUDUR RAHMAN HIGH SCHOOL", "eiin": 107928, "inst_type": "School", "district": "DHAKA", "thana": "DHAMRAI", "mauza": "BALIA", "long": 90.11284, "lat": 23.62735, "serial": 13438, "isUnique": 1 }, "geometry": { "type": "Point", "coordinates": [ 90.11284, 23.62735 ] } },
{ "type": "Feature", "properties": { "inst_name": "HAMIDA AFAZ GIRLS HIGH SCHOOL", "eiin": 107940, "inst_type": "School", "district": "DHAKA", "thana": "DHAMRAI", "mauza": "DALI PARA", "long": 90.06036, "lat": 23.9967, "serial": 13439, "isUnique": 1 }, "geometry": { "type": "Point", "coordinates": [ 90.06036, 23.9967 ] } },
{ "type": "Feature", "properties": { "inst_name": "KUSHURA ABBAS ALI HIGH SCHOOL", "eiin": 107925, "inst_type": "School", "district": "DHAKA", "thana": "DHAMRAI", "mauza": "KUSHIRA", "long": 90.08788, "lat": 24.0096, "serial": 13440, "isUnique": 1 }, "geometry": { "type": "Point", "coordinates": [ 90.08788, 24.0096 ] } },
{ "type": "Feature", "properties": { "inst_name": "ALHAJ JAMAL UDDIN ADARSHA HIGH SCHOOL", "eiin": 107941, "inst_type": "School", "district": "DHAKA", "thana": "DHAMRAI", "mauza": "HATI PARA", "long": 90.1173, "lat": 24.01637, "serial": 13441, "isUnique": 1 }, "geometry": { "type": "Point", "coordinates": [ 90.1173, 24.01637 ] } },
{ "type": "Feature", "properties": { "inst_name": "ABDUSH SOBHAN MODEL HIGH SCHOOL", "eiin": 107917, "inst_type": "School", "district": "DHAKA", "thana": "DHAMRAI", "mauza": "LAKARIA PARA", "long": 90.11378, "lat": 23.96586, "serial": 13442, "isUnique": 1 }, "geometry": { "type": "Point", "coordinates": [ 90.11378, 23.96586 ] } },
{ "type": "Feature", "properties": { "inst_name": "DHAMRAI GIRLS HIGH SCOOL", "eiin": 107920, "inst_type": "School", "district": "DHAKA", "thana": "DHAMRAI", "mauza": "JANARDHAN PUR (SARNAKHALI)", "long": 90.22967, "lat": 23.94071, "serial": 13443, "isUnique": 1 }, "geometry": { "type": "Point", "coordinates": [ 90.22967, 23.94071 ] } },
{ "type": "Feature", "properties": { "inst_name": "ELOKESHI HIGH SCHOOL JASMIN", "eiin": 107926, "inst_type": "School", "district": "DHAKA", "thana": "DHAMRAI", "mauza": "JALSIN", "long": 90.21671, "lat": 23.91433, "serial": 13444, "isUnique": 1 }, "geometry": { "type": "Point", "coordinates": [ 90.21671, 23.91433 ] } },
{ "type": "Feature", "properties": { "inst_name": "ROWILE HIGH SCHOOL", "eiin": 107921, "inst_type": "School", "district": "DHAKA", "thana": "DHAMRAI", "mauza": "ROAIL", "long": 90.22053, "lat": 23.91675, "serial": 13445, "isUnique": 1 }, "geometry": { "type": "Point", "coordinates": [ 90.22053, 23.91675 ] } },
{ "type": "Feature", "properties": { "inst_name": "SHAHEED ABUL HOSSIAN HIGH SCHOOL", "eiin": 107938, "inst_type": "School", "district": "DHAKA", "thana": "DHAMRAI", "mauza": "SENAIL", "long": 90.22053, "lat": 23.9159, "serial": 13446, "isUnique": 1 }, "geometry": { "type": "Point", "coordinates": [ 90.22053, 23.9159 ] } },
{ "type": "Feature", "properties": { "inst_name": "KALAMPUR AMATAN NESA GIRLS HIGH SCHOOL", "eiin": 107936, "inst_type": "School", "district": "DHAKA", "thana": "DHAMRAI", "mauza": "CHHOTA KALAMPUR", "long": 90.12259, "lat": 23.88557, "serial": 13447, "isUnique": 1 }, "geometry": { "type": "Point", "coordinates": [ 90.12259, 23.88557 ] } },
{ "type": "Feature", "properties": { "inst_name": "VALUM  ATAUR RAHMAN KHAN SCHOOL", "eiin": 107957, "inst_type": "School", "district": "DHAKA", "thana": "DHAMRAI", "mauza": "BHALUM", "long": 90.14803, "lat": 23.893, "serial": 13448, "isUnique": 1 }, "geometry": { "type": "Point", "coordinates": [ 90.14803, 23.893 ] } },
{ "type": "Feature", "properties": { "inst_name": "DHALKUNDA HIGH SCHOOL", "eiin": 107934, "inst_type": "School", "district": "DHAKA", "thana": "DHAMRAI", "mauza": "DHALKUNDA", "long": 90.17621, "lat": 23.85648, "serial": 13449, "isUnique": 1 }, "geometry": { "type": "Point", "coordinates": [ 90.17621, 23.85648 ] } },
{ "type": "Feature", "properties": { "inst_name": "KHAGAIL GIRLS HIGH SCHOOL", "eiin": 107932, "inst_type": "School", "district": "DHAKA", "thana": "DHAMRAI", "mauza": "KHAGAIL", "long": 90.15804, "lat": 23.92745, "serial": 13450, "isUnique": 1 }, "geometry": { "type": "Point", "coordinates": [ 90.15804, 23.92745 ] } },
{ "type": "Feature", "properties": { "inst_name": "BERASH SIVA NATH SIKSHA PRATISTAN", "eiin": 107923, "inst_type": "School", "district": "DHAKA", "thana": "DHAMRAI", "mauza": "BERAS", "long": 90.15335, "lat": 23.93306, "serial": 13451, "isUnique": 1 }, "geometry": { "type": "Point", "coordinates": [ 90.15335, 23.93306 ] } },
{ "type": "Feature", "properties": { "inst_name": "PRATTASHA ADARSHA HIGH SCHOOL", "eiin": 107937, "inst_type": "School", "district": "DHAKA", "thana": "DHAMRAI", "mauza": "RABRABAN", "long": 90.12264, "lat": 23.93665, "serial": 13452, "isUnique": 1 }, "geometry": { "type": "Point", "coordinates": [ 90.12264, 23.93665 ] } },
{ "type": "Feature", "properties": { "inst_name": "JALSHA HIGH SCHOOL", "eiin": 107933, "inst_type": "School", "district": "DHAKA", "thana": "DHAMRAI", "mauza": "JALSA", "long": 90.10776, "lat": 23.94869, "serial": 13453, "isUnique": 1 }, "geometry": { "type": "Point", "coordinates": [ 90.10776, 23.94869 ] } },
{ "type": "Feature", "properties": { "inst_name": "JADABPUR B.M.HIGH SCHOOL", "eiin": 107927, "inst_type": "School", "district": "DHAKA", "thana": "DHAMRAI", "mauza": "JADABPUR", "long": 90.15229, "lat": 23.95253, "serial": 13454, "isUnique": 1 }, "geometry": { "type": "Point", "coordinates": [ 90.15229, 23.95253 ] } },
{ "type": "Feature", "properties": { "inst_name": "KAILASH CHANDRA HIGH SCHOOL", "eiin": 107931, "inst_type": "School", "district": "DHAKA", "thana": "DHAMRAI", "mauza": "SASTAPUR", "long": 90.14846, "lat": 23.98276, "serial": 13455, "isUnique": 1 }, "geometry": { "type": "Point", "coordinates": [ 90.14846, 23.98276 ] } },
{ "type": "Feature", "properties": { "inst_name": "BANNAL LAKHU HAZI NIMNNA MADHAMIC SCHOOL", "eiin": 107930, "inst_type": "School", "district": "DHAKA", "thana": "DHAMRAI", "mauza": "HATERKANDA", "long": 90.15105, "lat": 23.98246, "serial": 13456, "isUnique": 1 }, "geometry": { "type": "Point", "coordinates": [ 90.15105, 23.98246 ] } },
{ "type": "Feature", "properties": { "inst_name": "SHAILAN SURMA HIGH SCHOOL", "eiin": 107935, "inst_type": "School", "district": "DHAKA", "thana": "DHAMRAI", "mauza": "SAILAIN", "long": 90.07462, "lat": 23.96586, "serial": 13457, "isUnique": 1 }, "geometry": { "type": "Point", "coordinates": [ 90.07462, 23.96586 ] } },
{ "type": "Feature", "properties": { "inst_name": "SUAPUR NANNAR HIGH SCHOOL", "eiin": 107924, "inst_type": "School", "district": "DHAKA", "thana": "DHAMRAI", "mauza": "SUAPUR", "long": 90.09128, "lat": 23.94562, "serial": 13458, "isUnique": 1 }, "geometry": { "type": "Point", "coordinates": [ 90.09128, 23.94562 ] } },
{ "type": "Feature", "properties": { "inst_name": "MOHINI MOHAN HIGH SCHOOL", "eiin": 107929, "inst_type": "School", "district": "DHAKA", "thana": "DHAMRAI", "mauza": "BELISHWAR", "long": 90.23198, "lat": 23.8809, "serial": 13459, "isUnique": 1 }, "geometry": { "type": "Point", "coordinates": [ 90.23198, 23.8809 ] } },
{ "type": "Feature", "properties": { "inst_name": "MANIKNAGAR MODEL HIGH SCHOOL", "eiin": 107882, "inst_type": "School", "district": "DHAKA", "thana": "MUGDA PARA", "mauza": "MANIKNAGAR UTTAR", "long": 90.11894, "lat": 23.90212, "serial": 13460, "isUnique": 1 }, "geometry": { "type": "Point", "coordinates": [ 90.11894, 23.90212 ] } },
{ "type": "Feature", "properties": { "inst_name": "JAMILA KHATUN LALBAGH GIRLS HIGH SCHOOL", "eiin": 108149, "inst_type": "School", "district": "DHAKA", "thana": "LALBAGH", "mauza": "SHEKH SAHEB BAZAR ROAD", "long": 90.51032, "lat": 23.7796, "serial": 13461, "isUnique": 1 }, "geometry": { "type": "Point", "coordinates": [ 90.51032, 23.7796 ] } },
{ "type": "Feature", "properties": { "inst_name": "RAHMATULLAH MODEL HIGH SCHOOL", "eiin": 108145, "inst_type": "School", "district": "DHAKA", "thana": "LALBAGH", "mauza": "LALBAGH FORT", "long": 90.5125, "lat": 23.73884, "serial": 13462, "isUnique": 1 }, "geometry": { "type": "Point", "coordinates": [ 90.5125, 23.73884 ] } },
{ "type": "Feature", "properties": { "inst_name": "FARID UDDIN SIDIQE HIGH SCHOOL", "eiin": 108147, "inst_type": "School", "district": "DHAKA", "thana": "LALBAGH", "mauza": "UTTAR LALBAGH ROAD", "long": 90.3741, "lat": 23.71737, "serial": 13463, "isUnique": 1 }, "geometry": { "type": "Point", "coordinates": [ 90.3741, 23.71737 ] } },
{ "type": "Feature", "properties": { "inst_name": "WEST END HIGH SCHOOL", "eiin": 108144, "inst_type": "School", "district": "DHAKA", "thana": "LALBAGH", "mauza": "LALBAGH FORT", "long": 90.38334, "lat": 23.72398, "serial": 13464, "isUnique": 1 }, "geometry": { "type": "Point", "coordinates": [ 90.38334, 23.72398 ] } },
{ "type": "Feature", "properties": { "inst_name": "ENGINEERING UNIVERSITY GIRLs  SCHOOL", "eiin": 108146, "inst_type": "School", "district": "DHAKA", "thana": "LALBAGH", "mauza": "ENGINEERING UNIVERSITY HOSTEL", "long": 90.38553, "lat": 23.72253, "serial": 13465, "isUnique": 1 }, "geometry": { "type": "Point", "coordinates": [ 90.38553, 23.72253 ] } },
{ "type": "Feature", "properties": { "inst_name": "ISLAMBAGH ASHRAF ALI HIGH SCHOOL", "eiin": 108142, "inst_type": "School", "district": "DHAKA", "thana": "CHAK BAZAR", "mauza": "PURBA ISLAMBAGH", "long": 90.3884, "lat": 23.72159, "serial": 13466, "isUnique": 1 }, "geometry": { "type": "Point", "coordinates": [ 90.3884, 23.72159 ] } },
{ "type": "Feature", "properties": { "inst_name": "SHAHEED MANIK ADARSHA GIRLS HIGH SCHOOL", "eiin": 108143, "inst_type": "School", "district": "DHAKA", "thana": "LALBAGH", "mauza": "AZIMPUR PILKHANA ROAD", "long": 90.39072, "lat": 23.72882, "serial": 13467, "isUnique": 1 }, "geometry": { "type": "Point", "coordinates": [ 90.39072, 23.72882 ] } },
{ "type": "Feature", "properties": { "inst_name": "BHASHA PRODEEP HIGH SCOOL", "eiin": 108470, "inst_type": "School", "district": "DHAKA", "thana": "KADAMTALI", "mauza": "ALI BAHAR", "long": 90.38681, "lat": 23.73038, "serial": 13468, "isUnique": 1 }, "geometry": { "type": "Point", "coordinates": [ 90.38681, 23.73038 ] } },
{ "type": "Feature", "properties": { "inst_name": "SHYAMPUR BOHUMUKHI HIGH SCHOOL", "eiin": 108473, "inst_type": "School", "district": "DHAKA", "thana": "KADAMTALI", "mauza": "SHYAMPUR (PART)", "long": 90.38652, "lat": 23.73016, "serial": 13469, "isUnique": 1 }, "geometry": { "type": "Point", "coordinates": [ 90.38652, 23.73016 ] } },
{ "type": "Feature", "properties": { "inst_name": "JURAIN ASHRAF MASTER ADARSA HIGH SCHOOL", "eiin": 108471, "inst_type": "School", "district": "DHAKA", "thana": "KADAMTALI", "mauza": "PURBA JURAIN", "long": 90.38257, "lat": 23.72946, "serial": 13470, "isUnique": 1 }, "geometry": { "type": "Point", "coordinates": [ 90.38257, 23.72946 ] } },
{ "type": "Feature", "properties": { "inst_name": "PURBA JURAIN ADARSHA HIGH SCHOOL", "eiin": 108474, "inst_type": "School", "district": "DHAKA", "thana": "KADAMTALI", "mauza": "PURBA JURAIN", "long": 90.43717, "lat": 23.68356, "serial": 13471, "isUnique": 1 }, "geometry": { "type": "Point", "coordinates": [ 90.43717, 23.68356 ] } },
{ "type": "Feature", "properties": { "inst_name": "MURADPUR SAMIRAN NESSA HIGH SCHOOL", "eiin": 108475, "inst_type": "School", "district": "DHAKA", "thana": "KADAMTALI", "mauza": "MURADPUR-2", "long": 90.43272, "lat": 23.68814, "serial": 13472, "isUnique": 1 }, "geometry": { "type": "Point", "coordinates": [ 90.43272, 23.68814 ] } },
{ "type": "Feature", "properties": { "inst_name": "NATUN JURAIN K.M. MAINUDDIN HIGH SCHOOL", "eiin": 108476, "inst_type": "School", "district": "DHAKA", "thana": "SHYAMPUR", "mauza": "ALAMBAGH", "long": 90.43846, "lat": 23.68979, "serial": 13473, "isUnique": 1 }, "geometry": { "type": "Point", "coordinates": [ 90.43846, 23.68979 ] } },
{ "type": "Feature", "properties": { "inst_name": "MURADPUR ADARSHA HIGH SCHOOL", "eiin": 108472, "inst_type": "School", "district": "DHAKA", "thana": "KADAMTALI", "mauza": "MURADPUR-2", "long": 90.4382, "lat": 23.69254, "serial": 13474, "isUnique": 1 }, "geometry": { "type": "Point", "coordinates": [ 90.4382, 23.69254 ] } },
{ "type": "Feature", "properties": { "inst_name": "DHAKA COTTON MILL ADARSHA HIGH SCHOOL", "eiin": 108466, "inst_type": "School", "district": "DHAKA", "thana": "SHYAMPUR", "mauza": "POSTAGOLA (PART)", "long": 90.43981, "lat": 23.69273, "serial": 13475, "isUnique": 1 }, "geometry": { "type": "Point", "coordinates": [ 90.43981, 23.69273 ] } },
{ "type": "Feature", "properties": { "inst_name": "BANGLADESH BANK ADARSHA HIGH SCHOOL", "eiin": 108467, "inst_type": "School", "district": "DHAKA", "thana": "SHYAMPUR", "mauza": "I.G.GATE (B.BANK COLONY)", "long": 90.44256, "lat": 23.69454, "serial": 13476, "isUnique": 1 }, "geometry": { "type": "Point", "coordinates": [ 90.44256, 23.69454 ] } },
{ "type": "Feature", "properties": { "inst_name": "FARDABAD HIGH SCHOOL", "eiin": 108499, "inst_type": "School", "district": "DHAKA", "thana": "SHYAMPUR", "mauza": "HARICHARAN ROY ROAD(P-II)", "long": 90.43552, "lat": 23.69527, "serial": 13477, "isUnique": 1 }, "geometry": { "type": "Point", "coordinates": [ 90.43552, 23.69527 ] } },
{ "type": "Feature", "properties": { "inst_name": "ANJUMAN JAMILUR RAHMAN ISLAMIA JUNIOR GIRLS HIGH SCHOOL", "eiin": 108500, "inst_type": "School", "district": "DHAKA", "thana": "GENDARIA", "mauza": "AKKHAY DAS ROAD", "long": 90.42722, "lat": 23.69248, "serial": 13478, "isUnique": 1 }, "geometry": { "type": "Point", "coordinates": [ 90.42722, 23.69248 ] } },
{ "type": "Feature", "properties": { "inst_name": "MIRHAZIRBAG ADARSHA HIGH SCHOOL", "eiin": 108469, "inst_type": "School", "district": "DHAKA", "thana": "JATRABARI", "mauza": "DAKSHIN JATRABARI", "long": 90.42474, "lat": 23.69594, "serial": 13479, "isUnique": 1 }, "geometry": { "type": "Point", "coordinates": [ 90.42474, 23.69594 ] } },
{ "type": "Feature", "properties": { "inst_name": "DOLAIRPAR HIGH SCHOOL", "eiin": 108468, "inst_type": "School", "district": "DHAKA", "thana": "SHYAMPUR", "mauza": "PASCHIM DHOLAIRPAR", "long": 90.42431, "lat": 23.69681, "serial": 13480, "isUnique": 1 }, "geometry": { "type": "Point", "coordinates": [ 90.42431, 23.69681 ] } },
{ "type": "Feature", "properties": { "inst_name": "JATRABARI PDB HIGH SCHOOL", "eiin": 107887, "inst_type": "School", "district": "DHAKA", "thana": "JATRABARI", "mauza": "DAKSHIN JATRABARI", "long": 90.42421, "lat": 23.7041, "serial": 13481, "isUnique": 1 }, "geometry": { "type": "Point", "coordinates": [ 90.42421, 23.7041 ] } },
{ "type": "Feature", "properties": { "inst_name": "ADARSHA BALIKA  UCHCHA  BIDDALYA", "eiin": 107878, "inst_type": "School", "district": "DHAKA", "thana": "NAWABGANJ", "mauza": "CHURAIN", "long": 90.42278, "lat": 23.70169, "serial": 13482, "isUnique": 1 }, "geometry": { "type": "Point", "coordinates": [ 90.42278, 23.70169 ] } },
{ "type": "Feature", "properties": { "inst_name": "SHEKHDI ABDULLAH MOLLAH HIGH SCHOOL", "eiin": 107873, "inst_type": "School", "district": "DHAKA", "thana": "JATRABARI", "mauza": "MATUAIL (PART)", "long": 90.4228, "lat": 23.70258, "serial": 13483, "isUnique": 1 }, "geometry": { "type": "Point", "coordinates": [ 90.4228, 23.70258 ] } },
{ "type": "Feature", "properties": { "inst_name": "HAJEE SHARIAT ULLAH ADARSHSA HIGH SCHOOL", "eiin": 107891, "inst_type": "School", "district": "DHAKA", "thana": "KADAMTALI", "mauza": "KADAMTALI", "long": 90.43125, "lat": 23.70301, "serial": 13484, "isUnique": 1 }, "geometry": { "type": "Point", "coordinates": [ 90.43125, 23.70301 ] } },
{ "type": "Feature", "properties": { "inst_name": "TAJ UDDIN ADARSHA HIGH SCHOOL", "eiin": 107893, "inst_type": "School", "district": "DHAKA", "thana": "SABUJBAGH", "mauza": "DAKSHINGAON", "long": 90.44314, "lat": 23.70439, "serial": 13485, "isUnique": 1 }, "geometry": { "type": "Point", "coordinates": [ 90.44314, 23.70439 ] } },
{ "type": "Feature", "properties": { "inst_name": "BAWANY ADARSHA UCHCH BIDDYALAYA", "eiin": 107865, "inst_type": "School", "district": "DHAKA", "thana": "DEMRA", "mauza": "GHOP DAKSHIN (PART)", "long": 90.46012, "lat": 23.69459, "serial": 13486, "isUnique": 1 }, "geometry": { "type": "Point", "coordinates": [ 90.46012, 23.69459 ] } },
{ "type": "Feature", "properties": { "inst_name": "ADDHAPAK ALI AHMED HIGH SCHOOL", "eiin": 107896, "inst_type": "School", "district": "DHAKA", "thana": "KHILGAON", "mauza": "NASIRABAD", "long": 90.47237, "lat": 23.70075, "serial": 13487, "isUnique": 1 }, "geometry": { "type": "Point", "coordinates": [ 90.47237, 23.70075 ] } },
{ "type": "Feature", "properties": { "inst_name": "BAGUN BARI  ADARSHA  HIGH  SCHOOL", "eiin": 108377, "inst_type": "School", "district": "DHAKA", "thana": "SABUJBAGH", "mauza": "MADHYA BASHABO", "long": 90.47427, "lat": 23.72602, "serial": 13489, "isUnique": 1 }, "geometry": { "type": "Point", "coordinates": [ 90.47427, 23.72602 ] } },
{ "type": "Feature", "properties": { "inst_name": "MUGDA PARA KAZI ZAFOR AHMED HIGH SCHOOL", "eiin": 108369, "inst_type": "School", "district": "DHAKA", "thana": "MUGDA PARA", "mauza": "DAKSHIN MUGDA PARA", "long": 90.44507, "lat": 23.7411, "serial": 13490, "isUnique": 1 }, "geometry": { "type": "Point", "coordinates": [ 90.44507, 23.7411 ] } },
{ "type": "Feature", "properties": { "inst_name": "MITALI BIDYAPITH HIGH SCHOOL", "eiin": 108502, "inst_type": "School", "district": "DHAKA", "thana": "WARI", "mauza": "JADUNATH BASAK LANE", "long": 90.44089, "lat": 23.73766, "serial": 13491, "isUnique": 1 }, "geometry": { "type": "Point", "coordinates": [ 90.44089, 23.73766 ] } },
{ "type": "Feature", "properties": { "inst_name": "GRADUATES HIGH SCHOOL", "eiin": 108484, "inst_type": "School", "district": "DHAKA", "thana": "SUTRAPUR", "mauza": "PEARI DAS ROAD", "long": 90.43287, "lat": 23.73402, "serial": 13492, "isUnique": 1 }, "geometry": { "type": "Point", "coordinates": [ 90.43287, 23.73402 ] } },
{ "type": "Feature", "properties": { "inst_name": "SHAHEED SMRITI HIGH SCHOOL", "eiin": 108483, "inst_type": "School", "district": "DHAKA", "thana": "WARI", "mauza": "WARI (PART-I)", "long": 90.42536, "lat": 23.71563, "serial": 13493, "isUnique": 1 }, "geometry": { "type": "Point", "coordinates": [ 90.42536, 23.71563 ] } },
{ "type": "Feature", "properties": { "inst_name": "NAWABPUR GOVT HIGH SCHOOL", "eiin": 108487, "inst_type": "School", "district": "DHAKA", "thana": "WARI", "mauza": "KAPTAN BAZAR", "long": 90.42482, "lat": 23.71864, "serial": 13494, "isUnique": 1 }, "geometry": { "type": "Point", "coordinates": [ 90.42482, 23.71864 ] } },
{ "type": "Feature", "properties": { "inst_name": "BEGUM RAHIMA ADARSHA UCHCHA BALIKA BIDYALAYA", "eiin": 108348, "inst_type": "School", "district": "DHAKA", "thana": "RAMNA", "mauza": "KAKRAIL (PART)", "long": 90.42024, "lat": 23.72, "serial": 13495, "isUnique": 1 }, "geometry": { "type": "Point", "coordinates": [ 90.42024, 23.72 ] } },
{ "type": "Feature", "properties": { "inst_name": "DHAKA BADHIR HIGH SCHOOL", "eiin": 108268, "inst_type": "School", "district": "DHAKA", "thana": "PALTAN", "mauza": "BIJOYNAGAR (PART)", "long": 90.41788, "lat": 23.71509, "serial": 13496, "isUnique": 1 }, "geometry": { "type": "Point", "coordinates": [ 90.41788, 23.71509 ] } },
{ "type": "Feature", "properties": { "inst_name": "TRINTY HIGH SCHOOL", "eiin": 108266, "inst_type": "School", "district": "DHAKA", "thana": "BADDA", "mauza": "SATARKUL", "long": 90.41389, "lat": 23.73348, "serial": 13497, "isUnique": 1 }, "geometry": { "type": "Point", "coordinates": [ 90.41389, 23.73348 ] } },
{ "type": "Feature", "properties": { "inst_name": "LUTFA ACADEMY HIGH SCHOOL", "eiin": 108270, "inst_type": "School", "district": "DHAKA", "thana": "PALTAN", "mauza": "RAJARBAGH", "long": 90.41688, "lat": 23.73311, "serial": 13498, "isUnique": 1 }, "geometry": { "type": "Point", "coordinates": [ 90.41688, 23.73311 ] } },
{ "type": "Feature", "properties": { "inst_name": "SIDDHESWARI GIRLS HIGH SCHOOL", "eiin": 108342, "inst_type": "School", "district": "DHAKA", "thana": "RAMNA", "mauza": "SIDDESWARY (PART-2)", "long": 90.42121, "lat": 23.73357, "serial": 13499, "isUnique": 1 }, "geometry": { "type": "Point", "coordinates": [ 90.42121, 23.73357 ] } },
{ "type": "Feature", "properties": { "inst_name": "ESKATON GARDEN HIGH SCHOOL", "eiin": 108346, "inst_type": "School", "district": "DHAKA", "thana": "RAMNA", "mauza": "ESKATON", "long": 90.42715, "lat": 23.73954, "serial": 13500, "isUnique": 1 }, "geometry": { "type": "Point", "coordinates": [ 90.42715, 23.73954 ] } },
{ "type": "Feature", "properties": { "inst_name": "TEJGAON GOVT. GIRL'S HIGH SCHOOL", "eiin": 108520, "inst_type": "School", "district": "DHAKA", "thana": "TEJGAON", "mauza": "PURBA TEJTURI BAZAR", "long": 90.38699, "lat": 23.73609, "serial": 13501, "isUnique": 1 }, "geometry": { "type": "Point", "coordinates": [ 90.38699, 23.73609 ] } },
{ "type": "Feature", "properties": { "inst_name": "TEJGAON GOVT. HIGH SCHOOL", "eiin": 108522, "inst_type": "School", "district": "DHAKA", "thana": "TEJGAON", "mauza": "PURBA TEJTURI BAZAR", "long": 90.38775, "lat": 23.74033, "serial": 13502, "isUnique": 1 }, "geometry": { "type": "Point", "coordinates": [ 90.38775, 23.74033 ] } },
{ "type": "Feature", "properties": { "inst_name": "BOTTOMLEY HOME GIRLS HIGH SCHOOL", "eiin": 108515, "inst_type": "School", "district": "DHAKA", "thana": "TEJGAON", "mauza": "TEJKUNI PARA", "long": 90.39807, "lat": 23.75513, "serial": 13503, "isUnique": 1 }, "geometry": { "type": "Point", "coordinates": [ 90.39807, 23.75513 ] } },
{ "type": "Feature", "properties": { "inst_name": "B G PRESS HIGH SCHOOL", "eiin": 108525, "inst_type": "School", "district": "DHAKA", "thana": "TEJGAON IND. AREA", "mauza": "CENTRAL TEJGAON IND.ELAKA", "long": 90.39796, "lat": 23.7559, "serial": 13504, "isUnique": 1 }, "geometry": { "type": "Point", "coordinates": [ 90.39796, 23.7559 ] } },
{ "type": "Feature", "properties": { "inst_name": "RAMPURA EKRAMUNNESSA HIGH SCHOOL", "eiin": 108012, "inst_type": "School", "district": "DHAKA", "thana": "RAMPURA", "mauza": "PASCHIM RAMPURA", "long": 90.40085, "lat": 23.75955, "serial": 13505, "isUnique": 1 }, "geometry": { "type": "Point", "coordinates": [ 90.40085, 23.75955 ] } },
{ "type": "Feature", "properties": { "inst_name": "KHALED HAIDER MEMORIAL HIGH SCHOOL", "eiin": 108024, "inst_type": "School", "district": "DHAKA", "thana": "KHILGAON", "mauza": "GAZARIA", "long": 90.40817, "lat": 23.76141, "serial": 13506, "isUnique": 1 }, "geometry": { "type": "Point", "coordinates": [ 90.40817, 23.76141 ] } },
{ "type": "Feature", "properties": { "inst_name": "KHLED HAIDER MEMORIAL JUNIOR GIRLS HIGH SCHOOL", "eiin": 108025, "inst_type": "School", "district": "DHAKA", "thana": "RAMPURA", "mauza": "PASCHIM RAMPURA", "long": 90.40547, "lat": 23.76931, "serial": 13507, "isUnique": 1 }, "geometry": { "type": "Point", "coordinates": [ 90.40547, 23.76931 ] } },
{ "type": "Feature", "properties": { "inst_name": "GANOBHABAN GOVT. HIGH SCHOOL", "eiin": 108519, "inst_type": "School", "district": "DHAKA", "thana": "SHER-E-BANGLA NAGAR", "mauza": "PURBA AGARGAON", "long": 90.41347, "lat": 23.75283, "serial": 13508, "isUnique": 1 }, "geometry": { "type": "Point", "coordinates": [ 90.41347, 23.75283 ] } },
{ "type": "Feature", "properties": { "inst_name": "HALIM FOUNDATION MODEL HIGH SCHOOL", "eiin": 108044, "inst_type": "School", "district": "DHAKA", "thana": "SHER-E-BANGLA NAGAR", "mauza": "PASCHIM KAFRUL", "long": 90.3645, "lat": 23.76458, "serial": 13509, "isUnique": 1 }, "geometry": { "type": "Point", "coordinates": [ 90.3645, 23.76458 ] } },
{ "type": "Feature", "properties": { "inst_name": "ALIM UDDIN HIGH SCHOOL", "eiin": 108177, "inst_type": "School", "district": "DHAKA", "thana": "MIRPUR", "mauza": "PIRERBAGH (PART-1)", "long": 90.38033, "lat": 23.77693, "serial": 13510, "isUnique": 1 }, "geometry": { "type": "Point", "coordinates": [ 90.38033, 23.77693 ] } },
{ "type": "Feature", "properties": { "inst_name": "BADC HIGH SCHOOL", "eiin": 108171, "inst_type": "School", "district": "DHAKA", "thana": "DARUS SALAM", "mauza": "DARUS SALAM", "long": 90.37905, "lat": 23.78275, "serial": 13511, "isUnique": 1 }, "geometry": { "type": "Point", "coordinates": [ 90.37905, 23.78275 ] } },
{ "type": "Feature", "properties": { "inst_name": "HAZRAT SHAH ALI MODEL HIGH SCHOOL", "eiin": 108184, "inst_type": "School", "district": "DHAKA", "thana": "DARUS SALAM", "mauza": "FIRST COLONY", "long": 90.37783, "lat": 23.78327, "serial": 13512, "isUnique": 1 }, "geometry": { "type": "Point", "coordinates": [ 90.37783, 23.78327 ] } },
{ "type": "Feature", "properties": { "inst_name": "MIRPUR GOVT. HIGH SCHOOL", "eiin": 108185, "inst_type": "School", "district": "DHAKA", "thana": "SHAH ALI", "mauza": "MIRPUR SEC-1 (BLOCK-F)", "long": 90.36842, "lat": 23.78787, "serial": 13513, "isUnique": 1 }, "geometry": { "type": "Point", "coordinates": [ 90.36842, 23.78787 ] } },
{ "type": "Feature", "properties": { "inst_name": "MODEL ACADEMY", "eiin": 108173, "inst_type": "School", "district": "DHAKA", "thana": "MIRPUR", "mauza": "PAIKPARA", "long": 90.35255, "lat": 23.78657, "serial": 13514, "isUnique": 1 }, "geometry": { "type": "Point", "coordinates": [ 90.35255, 23.78657 ] } },
{ "type": "Feature", "properties": { "inst_name": "MONI KANAN HIGH SCHOOL", "eiin": 108192, "inst_type": "School", "district": "DHAKA", "thana": "SHAH ALI", "mauza": "MIRPUR SEC-1 (BLOCK-G)", "long": 90.34435, "lat": 23.7923, "serial": 13515, "isUnique": 1 }, "geometry": { "type": "Point", "coordinates": [ 90.34435, 23.7923 ] } },
{ "type": "Feature", "properties": { "inst_name": "CHAMPA PARUL HIGH SCHOOL", "eiin": 108194, "inst_type": "School", "district": "DHAKA", "thana": "MIRPUR", "mauza": "MIRPUR SEC-2(BLOCK-F)", "long": 90.3568, "lat": 23.79497, "serial": 13516, "isUnique": 1 }, "geometry": { "type": "Point", "coordinates": [ 90.3568, 23.79497 ] } },
{ "type": "Feature", "properties": { "inst_name": "NATIONAL BANGLA HIGH SCHOOL", "eiin": 108187, "inst_type": "School", "district": "DHAKA", "thana": "MIRPUR", "mauza": "MIRPUR SEC-2 (BLOCK-H)", "long": 90.35117, "lat": 23.80769, "serial": 13517, "isUnique": 1 }, "geometry": { "type": "Point", "coordinates": [ 90.35117, 23.80769 ] } },
{ "type": "Feature", "properties": { "inst_name": "ISLAMEE ADARSHA UCHCH BIDYALAY", "eiin": 108190, "inst_type": "School", "district": "DHAKA", "thana": "MIRPUR", "mauza": "MIRPUR SEC-6 (BLOCK-B)", "long": 90.35064, "lat": 23.80719, "serial": 13518, "isUnique": 1 }, "geometry": { "type": "Point", "coordinates": [ 90.35064, 23.80719 ] } },
{ "type": "Feature", "properties": { "inst_name": "ADARSHA HIGH SCHOOL MIRPUr", "eiin": 108182, "inst_type": "School", "district": "DHAKA", "thana": "KAFRUL", "mauza": "PURBA SENPARA PARBATA", "long": 90.3619, "lat": 23.80327, "serial": 13519, "isUnique": 1 }, "geometry": { "type": "Point", "coordinates": [ 90.3619, 23.80327 ] } },
{ "type": "Feature", "properties": { "inst_name": "ALHAJ ABBAS UDDIN HIGH SCHOOL", "eiin": 108197, "inst_type": "School", "district": "DHAKA", "thana": "PALLABI", "mauza": "MIRPUR SEC-11(BLOCK-C)(PART-2)", "long": 90.36687, "lat": 23.80409, "serial": 13520, "isUnique": 1 }, "geometry": { "type": "Point", "coordinates": [ 90.36687, 23.80409 ] } },
{ "type": "Feature", "properties": { "inst_name": "AL- HAZ MODHU BAPARY HIGH SCHOOL", "eiin": 108170, "inst_type": "School", "district": "DHAKA", "thana": "PALLABI", "mauza": "MIRPUR SEC-10 (BLOCK-A)", "long": 90.36805, "lat": 23.80319, "serial": 13521, "isUnique": 1 }, "geometry": { "type": "Point", "coordinates": [ 90.36805, 23.80319 ] } },
{ "type": "Feature", "properties": { "inst_name": "SULTAN MOLLA ADARSHA HIGH SCHOOL", "eiin": 108195, "inst_type": "School", "district": "DHAKA", "thana": "PALLABI", "mauza": "MIRPUR SEC-12 (BLOCK-DHA)", "long": 90.37017, "lat": 23.80607, "serial": 13522, "isUnique": 1 }, "geometry": { "type": "Point", "coordinates": [ 90.37017, 23.80607 ] } },
{ "type": "Feature", "properties": { "inst_name": "MIRPUR SHAHID SMIRITI HIGH SCHOOL", "eiin": 108172, "inst_type": "School", "district": "DHAKA", "thana": "PALLABI", "mauza": "MIRPUR SEC-6 (BLOCK-C)", "long": 90.36908, "lat": 23.80873, "serial": 13523, "isUnique": 1 }, "geometry": { "type": "Point", "coordinates": [ 90.36908, 23.80873 ] } },
{ "type": "Feature", "properties": { "inst_name": "JANNAT ACADEMY HIGH SCHOOL", "eiin": 108179, "inst_type": "School", "district": "DHAKA", "thana": "PALLABI", "mauza": "MIRPUR SEC-11 (BLOCK-A)", "long": 90.36926, "lat": 23.80963, "serial": 13524, "isUnique": 1 }, "geometry": { "type": "Point", "coordinates": [ 90.36926, 23.80963 ] } },
{ "type": "Feature", "properties": { "inst_name": "RUPNAGAR ADARSHO HIGH SCHOOL", "eiin": 108331, "inst_type": "School", "district": "DHAKA", "thana": "RUPNAGAR", "mauza": "RUPNAGAR TINSHEED", "long": 90.36429, "lat": 23.80827, "serial": 13525, "isUnique": 1 }, "geometry": { "type": "Point", "coordinates": [ 90.36429, 23.80827 ] } },
{ "type": "Feature", "properties": { "inst_name": "KAMAL AHMED MAJUMDAR SCHOOL AND COLLEGE", "eiin": 108323, "inst_type": "School", "district": "DHAKA", "thana": "PALLABI", "mauza": "PALLABI (PART-1)", "long": 90.36132, "lat": 23.81018, "serial": 13526, "isUnique": 1 }, "geometry": { "type": "Point", "coordinates": [ 90.36132, 23.81018 ] } },
{ "type": "Feature", "properties": { "inst_name": "PALLABI MAZEDUL ISLAM MODEL HIGH SCHOOL", "eiin": 108183, "inst_type": "School", "district": "DHAKA", "thana": "PALLABI", "mauza": "PALLABI (PART-1)", "long": 90.36564, "lat": 23.8146, "serial": 13527, "isUnique": 1 },