inst name,eiin,inst_type,district,thana,mauza,long,lat,serial,isUnique
GOVT P.C COLLEGE,114830,College,BAGERHAT,BAGERHAT SADAR,PASCHIM HARINKHANA,88.97317,23.75419,1,1
BAGERHAT GOVT. MOHILA COLLEGE,114831,College,BAGERHAT,BAGERHAT SADAR,DAKSHIN SORUI (PASCHIM),89.00453,23.73556,2,1
KHAN JAHAN ALI DEGREE COLLEGE,114832,College,BAGERHAT,BAGERHAT SADAR,PASCHIM SONATALA,89.78703,22.66592,3,1
BELAYET HOSSAIN DEGREE COLLEGE,114833,College,BAGERHAT,BAGERHAT SADAR,DEBPARA,89.82228,22.68456,4,1
KALIDAS BARAL SMRITI MAHABIDALAYA,114877,College,BAGERHAT,CHITALMARI,DARI UMAJURI,89.84539,22.72281,5,1
BANGA BANDHU MOHILA COLLEGE,115023,College,BAGERHAT,CHITALMARI,ARUABANNI,89.87939,22.83108,6,1
SHERA BANGLA COLLEGE,114876,College,BAGERHAT,CHITALMARI,KHARAMKHALI,89.87228,22.85756,7,1
FAKIRHAT FAZILATUNNESA MUJIB MOHILA DEGREE COLLEGE,114921,College,BAGERHAT,FAKIRHAT,BAHIRDIA,89.64764,22.68958,8,1
KAZI AZHAR ALI COLLEGE,114922,College,BAGERHAT,FAKIRHAT,ATTAKI,89.73103,22.76397,9,1
SHAHEED SMRITI DEGREE COLLEGE,114923,College,BAGERHAT,FAKIRHAT,NOAPARA,89.69003,22.814,10,1
KACHUA DEGREE COLLEGE,114953,College,BAGERHAT,KACHUA,KACHUA,89.87597,22.63056,11,1
SHOHID SHAIKH ABU NASSER MOHILA DEGREE COLLEGE,114952,College,BAGERHAT,KACHUA,KHALISHAKHALI,89.87803,22.65183,12,1
LAILA  AZAD  COLLEGE,114981,College,BAGERHAT,MOLLAHAT,KULIA,89.76933,22.90014,13,1
" KHALILUR RAHMAN COLLEGE,MOLLAHAT",114983,College,BAGERHAT,MOLLAHAT,UDAYPUR BARABAGH BOALIA,89.75819,22.89317,14,1
JATIR JANAK BANGABANDHU WOMAN COLLAGE,114984,College,BAGERHAT,MOLLAHAT,KAHALPUR,89.82319,22.92519,15,1
BANGABANDHU MOHILA  COLLEGE,114875,College,BAGERHAT,MONGLA,PURBA SELABUNIA,89.62144,22.47881,16,1
MONGLA COLLEGE,115021,College,BAGERHAT,MONGLA,PURBA SELABUNIA,89.6065,22.47411,17,1
DIGRAJ DEGREE MAHAVIDYALAYA,115022,College,BAGERHAT,MONGLA,BIDYARBAHAN DIGRAJ,89.60536,22.52472,18,1
MA  BABAR RAIN COLLEGE,115159,College,BAGERHAT,MORRELGANJ,BAHARBUNIA,89.85308,22.36711,19,1
"DR.KHALILUR  RAHMAN  COLLEGE,MORRELGANJ",115157,College,BAGERHAT,MORRELGANJ,BALAIBUNIA,89.87972,22.50042,20,1
RAWSHANARA MEMORIAL WOMEN DEGREE COLLEGE,115155,College,BAGERHAT,MORRELGANJ,PURBA FAKIRER TAKIA,89.8475,22.47169,21,1
SINGJORE  GOPALPUR  COLLEGE,131992,College,BAGERHAT,MORRELGANJ,SINGJOR,89.94906,22.50075,22,1
SALIMABAD DEGREE COLLEGE,115154,College,BAGERHAT,MORRELGANJ,DAIBAGNYAHATI,89.91536,22.50761,23,1
DAKSHIN BANGLA COLLAGE,115158,College,BAGERHAT,MORRELGANJ,DAKSHIN PHULHATA,89.72167,22.49431,24,1
A R KHAN COLLEGE,115156,College,BAGERHAT,MORRELGANJ,CHALITABUNIA,89.86381,22.39606,25,1
SIRAJUDDIN MEMORIAL COLLEGE,115153,College,BAGERHAT,MORRELGANJ,BHAIZORA,89.85925,22.45403,26,1
GILATALA  ABUL KALAM COLLEGE,115225,College,BAGERHAT,RAMPAL,GILATALA,89.69761,22.58989,27,1
SUNDARBAN  MOHILA  COLLEGE,115227,College,BAGERHAT,RAMPAL,BHAGA,89.61406,22.61453,28,1
RAMPAL COLLEGE,115226,College,BAGERHAT,RAMPAL,RAMPAL,89.65333,22.55336,29,1
SHEIKH HELAL UDDIN COLLEGE,114924,College,BAGERHAT,FAKIRHAT,SUBHADIA,89.77733,22.57986,30,1
MATREE BHASHA COLLEGE,115264,College,BAGERHAT,SARANKHOLA,DHANSAGAR,89.7795,22.33678,31,1
SARANKHOLA degree COLLEGE,115263,College,BAGERHAT,SARANKHOLA,BANIAKHALI,89.86286,22.34053,32,1
HARIKHALI PURBO PARA DAKHIL MADRASHA,114822,Madrasha,BAGERHAT,BAGERHAT SADAR,HARINKHALI,88.99094,23.77669,2343,1
AMENA SAMAD SAMAD MOHILA DHAKHIL MADRASAH,114826,Madrasha,BAGERHAT,BAGERHAT SADAR,DAKSHIN MUNIGANJ,88.95572,23.65672,2344,1
MADINATUL ULUM ADARSHA DAKHIL  MADRASHA,114825,Madrasha,BAGERHAT,BAGERHAT SADAR,DAKSHIN SORUI (PASCHIM),89.78392,22.66511,2345,1
ARPARA NASARIA SIDDIQUIA DHKHIL MADRASHA,114828,Madrasha,BAGERHAT,BAGERHAT SADAR,ARPARA KURSAIL,89.79403,22.65847,2346,1
BAGDIA ALIM MADRASHA,114821,Madrasha,BAGERHAT,BAGERHAT SADAR,BAGHDIA,89.80131,22.65125,2347,1
KAFURPURA DAKHIL MADRASHA,114818,Madrasha,BAGERHAT,BAGERHAT SADAR,KODLA,89.75358,22.77172,2348,1
RAHMATPUR DAKHIL MADRASAH,114823,Madrasha,BAGERHAT,BAGERHAT SADAR,RAMCHANDRAPUR,89.78217,22.65822,2349,1
BAITPUR BHADRAPARA JAMALIA DAKHIL MADRASHA,114817,Madrasha,BAGERHAT,BAGERHAT SADAR,BAITPUR,89.81231,22.62878,2350,1
PANIGAHAT ISLAMIA NESARIA DAKHIL MADRASHA,114816,Madrasha,BAGERHAT,BAGERHAT SADAR,BISHNUPUR,89.82653,22.64261,2351,1
B.K.MANDRa  DAKHIL MADRASHA,114805,Madrasha,BAGERHAT,BAGERHAT SADAR,MANDRA,89.80586,22.65422,2352,1
PARKORA MARA DAKHIL MADRASAH,114820,Madrasha,BAGERHAT,BAGERHAT SADAR,KORAMARA,89.83708,22.73406,2353,1
BAGERHAT KAMIL MADRASHA,114809,Madrasha,BAGERHAT,BAGERHAT SADAR,DAKSHIN SORUI,89.81319,22.75339,2354,1
DEPARA NESARIA ALIM MADRASHA,114819,Madrasha,BAGERHAT,BAGERHAT SADAR,DEBPARA,89.80047,22.68806,2355,1
KHANPUR ALIM MADRASHA,114814,Madrasha,BAGERHAT,BAGERHAT SADAR,DAKSHIN KHANPUR,89.81589,22.70828,2356,1
PASCHIMBHAG BELAET HOSSAIN DAKHIL MADRASAH,114824,Madrasha,BAGERHAT,BAGERHAT SADAR,PASCHIMBHAG,89.85758,22.67678,2357,1
U P R DAKHIL MADRASAH,114807,Madrasha,BAGERHAT,BAGERHAT SADAR,UDKUL,89.79986,22.70381,2358,1
KHANJAHAN ALI ADARSHA  ALIM MADRASA,114810,Madrasha,BAGERHAT,BAGERHAT SADAR,BADE KARA PARA,89.76644,22.68261,2359,1
HABELEE SALEHIA DAKHIL MASRASA,114815,Madrasha,BAGERHAT,BAGERHAT SADAR,SABEKDANGA,89.79036,22.64683,2360,1
CHULKATHI MUSLIMA DAKHIL MADRASHA,114829,Madrasha,BAGERHAT,BAGERHAT SADAR,BHATTA BALIAGHATA,89.77369,22.64828,2361,1
RAKHAL GASI DARUS SUNNAH DAKHIL MADRASAH,114827,Madrasha,BAGERHAT,BAGERHAT SADAR,DARI RASULPUR,89.65056,22.695,2362,1
RANOBHUMI MIRERDANGA DAKHIL MADRASHAH,114808,Madrasha,BAGERHAT,BAGERHAT SADAR,RANBHUM,89.75819,22.66069,2363,1
SHATGUMBAJ BITUSH SHARAF ADARSHA ALIM  MADRASHA,114806,Madrasha,BAGERHAT,BAGERHAT SADAR,SUNDAR GHONA BAJE AFTI,89.76306,22.66872,2364,1
HAZRAT AMIR HAMZA (R:) DAKHIL MADRASHA,114917,Madrasha,BAGERHAT,FAKIRHAT,PAGLA DIAPARA,89.74967,22.67139,2365,1
RAHMATPUR FAZIL MADRASHA,114870,Madrasha,BAGERHAT,CHITALMARI,GANGA CHANNA,89.82311,22.75172,2366,1
SHAILDAH BAKPUR KARAMATIA FAZIL MADRASAH,114869,Madrasha,BAGERHAT,CHITALMARI,SAILDAHA,89.68125,22.68031,2367,1
CHAAR KACURIA DAKHIL MADRASHA,114873,Madrasha,BAGERHAT,CHITALMARI,SANTOSHPUR,89.89986,22.87692,2368,1
HIZLA ALIM MADRASA,114868,Madrasha,BAGERHAT,CHITALMARI,HIZLA,89.89006,22.75906,2369,1
CHITALMARI DAKHIL MADRASAH,114874,Madrasha,BAGERHAT,CHITALMARI,ARUABANNI,89.90817,22.81117,2370,1
BARABARIA RAHMANIA FAZIL MADRASA,114871,Madrasha,BAGERHAT,CHITALMARI,BARA BARIA,89.87683,22.79003,2371,1
CHARBANIARY NACHARIA DAKHIL MADRASHA,114872,Madrasha,BAGERHAT,CHITALMARI,CHAR BANIARI,89.78867,22.78264,2372,1
BARUI PARA SL. FAZIL MADRASAH,114812,Madrasha,BAGERHAT,BAGERHAT SADAR,BARAI PARA,89.85786,22.77025,2373,1
BARABARIA LALCHANDRAPUR DHAKHIL MADRASHA,114918,Madrasha,BAGERHAT,FAKIRHAT,BARA BARIA,89.64764,22.69136,2374,1
FAKIRHAT KARAMATIA FAZIL MADRASA,114912,Madrasha,BAGERHAT,FAKIRHAT,ATTAKI,89.62936,22.72194,2375,1
KHANJAHANPUR MOHAMMADIA SENIOR MADRASAH,114914,Madrasha,BAGERHAT,FAKIRHAT,BRAHMAN RAKDIA,89.70897,22.77303,2376,1
BHABNA ISLAMIA DAKHIL MADRASHA,114915,Madrasha,BAGERHAT,FAKIRHAT,BHABNA,89.71078,22.77278,2377,1
JARIA ISLAMIA SIDDIKIA DAKHIL MADRASHA,114913,Madrasha,BAGERHAT,FAKIRHAT,JARIA MAITKUMRA,89.62994,22.76481,2378,1
SHEIKH ABU BAKAR SIDDIQUE AMINIA MOHILA DAKHIL MAFRASHA,114920,Madrasha,BAGERHAT,FAKIRHAT,KAHARDANGA,89.60961,22.74361,2379,1
AL-HERA ALIM MADRASHA,114919,Madrasha,BAGERHAT,FAKIRHAT,NOAPARA,89.71703,22.80383,2380,1
TEKATIA DEAPARA DAKHIL MADRASA,114916,Madrasha,BAGERHAT,FAKIRHAT,TEKATIA,89.64294,22.73758,2381,1
MADHABKATHI AHMADIA FAZIL MADRASHA,114947,Madrasha,BAGERHAT,KACHUA,MADHABKATI,89.86058,22.56086,2382,1
GAZALIA RAHMANIA DAKHIL MADRASAH,114944,Madrasha,BAGERHAT,KACHUA,GAZALIA,89.88325,22.58653,2383,1
KACHUA DAKHIL MADRASAH,114950,Madrasha,BAGERHAT,KACHUA,KACHUA,89.88942,22.62544,2384,1
TENGRAKHALI HOSSAINiA ALIM MADRASAH,114946,Madrasha,BAGERHAT,KACHUA,TENGRAKHALI,89.90267,22.62339,2385,1
CHAR SONAKUR ALIM MADRASAH,114949,Madrasha,BAGERHAT,KACHUA,CHAR SONAKUR,89.88208,22.64908,2386,1
MAGHIA SALEHIA ALIM MADRASAH,114948,Madrasha,BAGERHAT,KACHUA,MAGHIA,89.90372,22.67969,2387,1
SHONAKUR GIRLS DAKHIL MADRASHA,114943,Madrasha,BAGERHAT,KACHUA,CHAR SONAKUR,89.90089,22.67939,2388,1
SONMANKATI DARUL QURAN HAFIZIA DAKHIL MADRASHA,114951,Madrasha,BAGERHAT,KACHUA,SANMANKATHI,89.87547,22.66433,2389,1
DOBARIA DAKHIL MADRASHA,131517,Madrasha,BAGERHAT,KACHUA,RARI PARA,89.88661,22.66906,2390,1
NURJAHANPUR DAKHIL MADRASAH,114945,Madrasha,BAGERHAT,KACHUA,CHAR NARENDRAPUR,89.87644,22.65469,2391,1
KAHALPUR ALIM MADRASHA,114977,Madrasha,BAGERHAT,MOLLAHAT,KAHALPUR,89.84383,22.61017,2392,1
KAMARGRAM JATIR JANAK BANGA BAN DHU S K MADRASah,114980,Madrasha,BAGERHAT,MOLLAHAT,KAHALPUR,89.85944,22.61517,2393,1
CHARKULIA MOHELA DAKHIL MADRASHA,114979,Madrasha,BAGERHAT,MOLLAHAT,KULIA,89.815,22.85508,2394,1
NUTAN GHOSHGATI SENIOR MADRASHA,114976,Madrasha,BAGERHAT,MOLLAHAT,KULIA,89.80139,22.85236,2395,1
RAJPAT SHARULIA AKBARIA DAKHIL MADRASAH,114978,Madrasha,BAGERHAT,MOLLAHAT,GAOLA,89.80933,22.92872,2396,1
MOHSINA ALIM MADRASAH,115018,Madrasha,BAGERHAT,MONGLA,MADHYA SELABUNIA,89.60197,22.46653,2397,1
SHAIKH FAZILATUNNESA MOHILA DAKHIL MADRASAH,115019,Madrasha,BAGERHAT,MONGLA,MALGAZI,89.61139,22.47469,2398,1
CHALNA BANDAR FAZIL MADRASAH,115011,Madrasha,BAGERHAT,MONGLA,MAKORDONE SELABUNIA DAKSHIN,89.61122,22.46772,2399,1
ARAZEE MAKORDHON ISLAMIA DAKHIL MADRASAH,115020,Madrasha,BAGERHAT,MONGLA,ARAJI MAKORDONE,89.61103,22.47022,2400,1
CHANDPAI PIR MESER SHAH DAKHIL MADRASAH,115016,Madrasha,BAGERHAT,MONGLA,CHANDPI,89.59892,22.45953,2401,1
CHOWRI DANGA AHMADIA DAKHIL MADRASAH,115013,Madrasha,BAGERHAT,MONGLA,CHANDPI,89.59533,22.49917,2402,1
AL-HAZ  KORBAN ALI ALIM  MADRASHA,115010,Madrasha,BAGERHAT,MONGLA,MALGAZI,89.64031,22.48672,2403,1
DIGRAJ ISLAMIA DAKHIL MADRASAH,115014,Madrasha,BAGERHAT,MONGLA,BIDYARBAHAN DIGRAJ,89.62331,22.47531,2404,1
DAKHIN CHILA SIDDIKIA AHMADIA DAKHIL MADRASAH,115015,Madrasha,BAGERHAT,MONGLA,CHILA,89.58997,22.5355,2405,1
SONAIL TALA  A B S DAKHIL MADRASAH,115012,Madrasha,BAGERHAT,MONGLA,SUNILTALA,89.65392,22.46975,2406,1
KOCHUBUNIA DARUS SUNNAT DAKHIL MADRASAH,131635,Madrasha,BAGERHAT,MONGLA,BAJIKARKHANDA,89.69828,22.453,2407,1
MADUR PALTA NEAZ MAKHDUM ALIM MADRASAH,115017,Madrasha,BAGERHAT,MONGLA,BAJIKARKHANDA,89.66461,22.50692,2408,1
BAHAR BUNIA DAKHEL MADRASAH,115141,Madrasha,BAGERHAT,MORRELGANJ,BAHARBUNIA,89.61619,22.48447,2410,1
SURJYA MUKHI HALDER BARI GIRLS DAKHIL MADRASAH,115152,Madrasha,BAGERHAT,MORRELGANJ,BAHARBUNIA,89.60583,22.46842,2411,2
KHANIRKHANDA S-I DAKHIL MADRASHA,115121,Madrasha,BAGERHAT,MORRELGANJ,DEUATALA,89.80889,22.391,2412,1
SUPRAKHALI GAZIR GHAT DAKHIL MADRASHA,115116,Madrasha,BAGERHAT,MORRELGANJ,BAHARBUNIA,89.79306,22.47856,2413,1
NEHALPUR KUHARDHA DHAKIL MADRASHA,115128,Madrasha,BAGERHAT,MORRELGANJ,KUHARDAHA NEHALKHALI,89.78369,22.50397,2414,1
RAJOIR NESARIA FAZIL MADRASAH,115111,Madrasha,BAGERHAT,MORRELGANJ,RAJAIR,89.76692,22.47681,2415,1
SREENI  KHALI  ISHAQ ALI SMRITTI  DAKHIL MADRASHA,115137,Madrasha,BAGERHAT,MORRELGANJ,BALAIBUNIA,89.84525,22.48825,2416,1
B.S.S.DAKHIL MADRASHA,115140,Madrasha,BAGERHAT,MORRELGANJ,UTTAR SUTALARI,89.91003,22.59675,2417,1
MANIK MIA GIRLS DAKHIL MADRASHA,115096,Madrasha,BAGERHAT,MORRELGANJ,FAKIRERTAKIA,89.8535,22.45689,2418,1
HAZI IBRAHIM S. R. RAHMANIA DHAKHIL MADRASHA,115144,Madrasha,BAGERHAT,MORRELGANJ,FAKIRERTAKIA,89.85258,22.45639,2419,1
DAKHIN SUTALORI MONIR UDDIN DHAKHIL MADRASHA,115123,Madrasha,BAGERHAT,MORRELGANJ,DAKSHIN SUTALARI,89.80367,22.44206,2420,1
GOALBARIA A.K. SMRITI DAKHIL MDRASHA,115095,Madrasha,BAGERHAT,MORRELGANJ,DAKSHIN SUTALARI,89.82086,22.47336,2421,1
B S WAHEZIA DAKHIL MADRASHA,115146,Madrasha,BAGERHAT,MORRELGANJ,UTTAR SUTALARI,89.82931,22.46617,2422,1
SUTTALORY SOFIZUDDIN DAKHIL MADRASHA,115122,Madrasha,BAGERHAT,MORRELGANJ,UTTAR SUTALARI,89.84506,22.46472,2423,1
S  CHANDIPUR DAKHIL MADRASA,115143,Madrasha,BAGERHAT,MORRELGANJ,CHANDIPUR,89.92156,22.53339,2424,1
SALIMGOR CHINRAKHALI SENIOR MADRASA,115118,Madrasha,BAGERHAT,MORRELGANJ,PATHURIA,89.92903,22.50531,2425,1
J.S PATJURIA H.A. BALIKA DAKHIL MADRASHA,115133,Madrasha,BAGERHAT,MORRELGANJ,PATHURIA,89.89586,22.51928,2426,1
POLERHAT ALHAZ AZHARIA DAKHIL MADRASA,115134,Madrasha,BAGERHAT,MORRELGANJ,ALTI BURUJBARIA,89.93714,22.50386,2427,2
HAMCAPUR DAKHIL MADRASHA,115102,Madrasha,BAGERHAT,MORRELGANJ,HAMCHAPUR,89.91431,22.51125,2428,1
B S RAHMATIA DAKHIL MADRASAH,115151,Madrasha,BAGERHAT,MORRELGANJ,BADNIBHANGA,89.84906,22.56172,2429,1
TOFAEL UDDIN SRITI DAKHIL MADRASA,115120,Madrasha,BAGERHAT,MORRELGANJ,BARA BADURIA,89.85925,22.55908,2430,1
CHAR HOGLABUNIA  AZIZIA DAKHIL MADRASA,115125,Madrasha,BAGERHAT,MORRELGANJ,CHAR HOGLABUNIA,89.88264,22.44014,2431,1
G B AMENA KHATUN BALIKA DAKHIL MADRASA,115145,Madrasha,BAGERHAT,MORRELGANJ,GODARA,89.92825,22.46106,2432,1
HOGLABUNIA LEHAZUDDIN ERFANIA DAKHIL MADRASA,115126,Madrasha,BAGERHAT,MORRELGANJ,HOGLABUNIA,89.897,22.47336,2433,1
DARUL QURAN SENIOR MADRASAH,115113,Madrasha,BAGERHAT,MORRELGANJ,PATHAMARA,89.87789,22.44683,2434,1
TALIMUNNESA MOHILA DAKHIL MADRASAH,115099,Madrasha,BAGERHAT,MORRELGANJ,DAKSHIN JIUDHARA,89.89906,22.44089,2435,1
PANCHAGRAM SAMMILITHAD YEESUFIA ALIM MADRASAH,115100,Madrasha,BAGERHAT,MORRELGANJ,UTTAR JIUDHARA,89.74403,22.42603,2436,1
JEWDHARA MOULAVIBAZAR NESARIA DAKHIL MADRASHA,115139,Madrasha,BAGERHAT,MORRELGANJ,JIUDHARA,89.74547,22.45569,2437,1
SOMADAR KHALI ISLAMIA DAKHIL MADRASHA,115119,Madrasha,BAGERHAT,MORRELGANJ,UTTAR JIUDHARA,89.91939,22.58022,2439,1
OLAGONJ N.U. ALIM ADRASHA,115110,Madrasha,BAGERHAT,MORRELGANJ,CHALITABUNIA,89.75308,22.46897,2440,1
SANNAYSI BARISAL LATIFA DAKHIL MADERASHA,115147,Madrasha,BAGERHAT,MORRELGANJ,KUMARKHALI,89.82933,22.37811,2441,1
AMTOLI ISLAMIA KAMIL MADRASHA,115090,Madrasha,BAGERHAT,MORRELGANJ,KUMARKHALI,89.83994,22.39847,2442,1
NISHANBARIA DAKHIL MADRASA,115098,Madrasha,BAGERHAT,MORRELGANJ,CHALITABUNIA,89.86458,22.39392,2443,1
MORRELGONJ LATIFIA FAZIL MADRASAH,115107,Madrasha,BAGERHAT,MORRELGANJ,BHAIZORA,89.85881,22.45325,2444,1
ABUHURAIRAH ADARSHA DAKHIL MADRASAH,115106,Madrasha,BAGERHAT,MORRELGANJ,MORRELGANJ BAZAR,89.83753,22.44497,2445,1
BADURTALA CHOWDUGOR FAKIRBARI DHAKIL MADRASAH,115150,Madrasha,BAGERHAT,MORRELGANJ,BADURTALA,89.84439,22.42761,2446,1
MONOARA BEGUM ISLAMIA MOHELA DAKHIL MADRASAH,115101,Madrasha,BAGERHAT,MORRELGANJ,PURBA SARALIA,89.84969,22.45086,2447,1
KATHALTALA GIASHIA DAKHIL MADRASA,115117,Madrasha,BAGERHAT,MORRELGANJ,KATHALTALA,89.85786,22.45136,2448,1
HAMEJIA DAKHIL MADRASHA,115148,Madrasha,BAGERHAT,MORRELGANJ,BHASHANDAL,89.83689,22.44469,2449,1
GULISHA KHALI FAZIL MADRASAH,115104,Madrasha,BAGERHAT,MORRELGANJ,GULISAKHALI,89.76139,22.409,2450,1
BAGE JANNAT ISLAMIA DAKHIL MADRASHA,115149,Madrasha,BAGERHAT,MORRELGANJ,GUATALA,89.76336,22.42614,2451,1
SOUTH JAMIRTALA G. H. NURUL ISLAM DAKHIL MADRASHA,115132,Madrasha,BAGERHAT,MORRELGANJ,GUATALA,89.82006,22.43789,2452,1
ENAYTIA DAKHIL MADRASHA,115135,Madrasha,BAGERHAT,MORRELGANJ,PASCHIM CHIPA BARAIKHALI,89.78072,22.37625,2453,1
GULZIA ISLAMIA ALIM MADRASAH,115129,Madrasha,BAGERHAT,MORRELGANJ,GULISAKHALI,89.82,22.41189,2454,1
A.G. MAKBUL HOSSHEN B.D. DAKHIL MADRASHA,115131,Madrasha,BAGERHAT,MORRELGANJ,BAULTALI NAZIRDIA,89.79506,22.38811,2455,1
DK M ISLAMIA DAKHIL MADRASA,115115,Madrasha,BAGERHAT,MORRELGANJ,DEBRAJ,89.75008,22.40756,2456,1
KHARIKHALI AHAMADIA DAKHIL MADRASHA,115091,Madrasha,BAGERHAT,MORRELGANJ,CHAK KHARAIKHALI,89.79756,22.53925,2457,1
DARUL QURAN FAZLUL KARIM DAKHIL MADRASA,115127,Madrasha,BAGERHAT,MORRELGANJ,CHAK PANCHAKARAN,89.80289,22.55739,2458,1
PANCHOKARON SIRAJ SMRITI DAKHIL MADRASHA,115105,Madrasha,BAGERHAT,MORRELGANJ,CHAK PANCHAKARAN,89.81414,22.50778,2459,1
SONAKHALI AZIZIA SENIOR MADRASAH,115114,Madrasha,BAGERHAT,MORRELGANJ,CHAK BHATKHALI,89.81486,22.50786,2460,1
A.B. GOZALIA HAZI MAHIR UDDIN SMRITI DAKHIL MADRASAH,115093,Madrasha,BAGERHAT,MORRELGANJ,GAZALIA,89.78428,22.52317,2461,1
PUTIKHALI ISLAMIA SENIOR MADRASHA,115109,Madrasha,BAGERHAT,MORRELGANJ,PUTIKHALI,89.81897,22.49522,2462,1
UTTER PUTIKHALI DAKHIL MADRASHA,115138,Madrasha,BAGERHAT,MORRELGANJ,CHAK PUTIKHALI,89.84,22.52364,2463,1
PUTIKHALI MOHILA DAKHIL MADRASHA,115092,Madrasha,BAGERHAT,MORRELGANJ,PUTIKHALI,89.82067,22.49306,2464,1
SONAKHALI  P.K MOHSENIA S.ALIM MADRASHA,115103,Madrasha,BAGERHAT,MORRELGANJ,PUTIKHALI,89.83639,22.50458,2465,1
BK GILBUNIA AHMADIA DAKHIL MADRASA,115142,Madrasha,BAGERHAT,MORRELGANJ,JHILBUNIA,89.84583,22.50611,2466,1
HABIBULLAH  ABAD ISLAMIA SIDDIKIA N.S.KAMIL MADRASA,115124,Madrasha,BAGERHAT,MORRELGANJ,JHILBUNIA,89.85403,22.52719,2467,1
KADAM RASULARPAR LEHAZUDDIN DAKHIL MADRASA,115094,Madrasha,BAGERHAT,MORRELGANJ,KADAM RASULER PAHAR,89.86594,22.50947,2468,1
SOUTH TALIGATI DARULHUDA SAHEIA ALIM MADRASA,115108,Madrasha,BAGERHAT,MORRELGANJ,CHAK TELIGATI,89.90206,22.54122,2469,1
BARUEPARA ZULFIKARIA SIDDIKIA DAKHIL MADRASHA,115208,Madrasha,BAGERHAT,RAMPAL,BARAI PARA,89.66472,22.60642,2470,1
BAINTALA CHASREE NESAREA DAKHIL MADRASHA,115219,Madrasha,BAGERHAT,RAMPAL,BAINTALA,89.67244,22.60947,2471,1
KHEJUR MAHAL T.R. ALIM MADRASHA,115214,Madrasha,BAGERHAT,RAMPAL,KHEJUR MAHAL,89.68186,22.62064,2472,1
KUMLAI SALEHIA DAKHIL MADRASHA,115220,Madrasha,BAGERHAT,RAMPAL,KUMLAI,89.65781,22.62303,2473,1
SHARAFPUR KSRAMTIA SINIOR MADRASHA,115216,Madrasha,BAGERHAT,RAMPAL,SARAPPUR,89.67828,22.63108,2474,1
ISLAMABAD SIDDIQUA FAZIL MADRASHA,115217,Madrasha,BAGERHAT,RAMPAL,KISMAT CHANDITALA,89.69017,22.56017,2475,1
ZIOLMARI DAKHIL MADRASHA,115222,Madrasha,BAGERHAT,RAMPAL,CHAK BETKANTA,89.71231,22.59208,2476,1
ABUBAKAR SIDDIKIA DAKHIL MADRASHA,115218,Madrasha,BAGERHAT,RAMPAL,UTTAR GAURAMBHA,89.72425,22.53911,2477,1
MALLIKER BER SENIOR FAZIL AMDERASHA,115213,Madrasha,BAGERHAT,RAMPAL,MALLIKER BER,89.60367,22.57117,2478,1
PERIKHALI DAKHIL MADRASHA,115212,Madrasha,BAGERHAT,RAMPAL,PERIKHALI,89.76536,22.55492,2479,1
JHANJHANIA SIDDIQIA DHAKHIL MADRASHA,115221,Madrasha,BAGERHAT,RAMPAL,MALIDANGA,89.64869,22.5895,2480,1
HAZI   ENAYET  ULLAH  DAKHAIL MADRASAH,115223,Madrasha,BAGERHAT,RAMPAL,RAMPAL,89.61692,22.59536,2481,1
GOBINDAPUR A.J.S. FAZIL MADRASHA,115211,Madrasha,BAGERHAT,RAMPAL,GOBINDAPUR,89.64306,22.66786,2482,1
AL HAZ SUFIA BRGUM MOHILA DHAKIL MADRASHA,115209,Madrasha,BAGERHAT,RAMPAL,SANTOSHPUR,89.63333,22.63519,2483,1
SONATUNIA AZIZIA FAZIL (DEGREE) MADRASA,115215,Madrasha,BAGERHAT,RAMPAL,SONATUNIA,89.63611,22.66625,2484,1
FOYLA HAT ASIA KARMATIA ALIM MADRASAH,115207,Madrasha,BAGERHAT,RAMPAL,SANTOSHPUR,89.63106,22.64164,2485,1
GHASIAKHALI ISLAMIA ALIM MADRASHA,115097,Madrasha,BAGERHAT,MORRELGANJ,GHASIAKHALI,89.66844,22.64797,2486,1
DEMA KARAMOTIA FAZIL MADRASHA,114811,Madrasha,BAGERHAT,BAGERHAT SADAR,DEMA,89.74617,22.51822,2487,1
K. HEDAYETPUR AHMEDIA ALIM MADRASHA,114813,Madrasha,BAGERHAT,BAGERHAT SADAR,HEDAYETPUR,89.75814,22.60022,2488,1
BARA RAJAPUR SALEHIA DAKHIL MADRASAH,115250,Madrasha,BAGERHAT,SARANKHOLA,RAJAPUR,89.73575,22.59467,2489,1
KHAJUR BARIA MOHILA DAKHIL MADRASHA,115257,Madrasha,BAGERHAT,SARANKHOLA,NALBUNIA,89.5765,22.65911,2490,1
DHANSAGAR NALBUNIA  ALIM MADRASAH,115245,Madrasha,BAGERHAT,SARANKHOLA,NALBUNIA,89.80217,22.38761,2491,1
MADINATUL ULUM LATIFIA DAKHIL MADRASHA,115253,Madrasha,BAGERHAT,SARANKHOLA,AMRAGACHHIA,89.81739,22.36089,2492,1
KHONTAKATA MOFIDIA MOHILA DAKHIL MADRASHA,115260,Madrasha,BAGERHAT,SARANKHOLA,MORELLABAD,89.83064,22.31317,2493,1
AKANDAPARA  DAKHIL MADRASHA,115248,Madrasha,BAGERHAT,SARANKHOLA,MORELLABAD,89.85308,22.36575,2494,1
ASHRAFUL KALAM MOHILA DAKHIL MADRASHA,115261,Madrasha,BAGERHAT,SARANKHOLA,MORELLABAD,89.86519,22.34586,2495,1
RAYENDA RAJOIR ALIM MADRASHA,115251,Madrasha,BAGERHAT,SARANKHOLA,AMRAGACHHIA,89.84778,22.31858,2496,1
RAYENDA DARUL HEDAYET NESARUL ULUM FAZIL MADRASHA,115247,Madrasha,BAGERHAT,SARANKHOLA,RAYENDA,89.85528,22.318,2497,1
DAKKHIN RAJAPUR DAKHIL MADRASAH,115258,Madrasha,BAGERHAT,SARANKHOLA,DAKSHIN RAJAPUR,89.78261,22.29942,2498,1
KADAMTALA MOHSINIA C. H. K. DAKHIL MADRASHA,115255,Madrasha,BAGERHAT,SARANKHOLA,RAYENDA,89.81253,22.30339,2499,1
KHADA ALHAZ GAGON MAMOREAL DAKHIL MADRASA,115246,Madrasha,BAGERHAT,SARANKHOLA,KHADA,89.85317,22.31458,2500,1
SHAROKHOLA MOHILA DAKHIL MADRASHA,115256,Madrasha,BAGERHAT,SARANKHOLA,KHADA,89.85367,22.31264,2501,1
RAYENDA BAZAR ISLAMIA DAKHIL MADRASHA,115252,Madrasha,BAGERHAT,SARANKHOLA,RAYENDA,89.82986,22.26517,2502,1
SONATALA ISLAMIA ALIM MADRASA,115254,Madrasha,BAGERHAT,SARANKHOLA,SARANKHOLA,89.82506,22.29869,2503,1
SUNDARBAN ISLAMIA DAKHIL MADRASHA,115259,Madrasha,BAGERHAT,SARANKHOLA,SARANKHOLA,89.85503,22.31006,2504,1
BAGERHAT   SAMMILANI  SECONDARY   SCHOOL,114764,School,BAGERHAT,BAGERHAT SADAR,UTTAR SORUI,88.96975,23.68847,10333,1
DAShANI ADARSHA SECONDARY GIRLS  SCHOOL,114763,School,BAGERHAT,BAGERHAT SADAR,PASCHIM DASH ANI,89.79178,22.65883,10334,1
ADARSHA SECONDARY SCHOOL,114758,School,BAGERHAT,BAGERHAT SADAR,PURBA DAKSHIN BAZAR,89.78178,22.67178,10335,1
BAGERHAT ML HIGH SCHOOL,114757,School,BAGERHAT,BAGERHAT SADAR,PURBA DAKSHIN BAZAR,89.77506,22.66208,10336,1
BAGERHAT  GOVT.  GIRLS  HIGH  SCHOOL,114766,School,BAGERHAT,BAGERHAT SADAR,DAKSHIN AMLA PARA,89.78244,22.65317,10337,1
BAGERHAT AMLAPARA HIGH SCHOOL,114768,School,BAGERHAT,BAGERHAT SADAR,DAKSHIN SORUI,89.77828,22.65753,10338,1
JAHANABAD GIRLS HIGH SCHOOL,114765,School,BAGERHAT,BAGERHAT SADAR,DAKSHIN SORUI,89.78819,22.66847,10339,1
BASHABATI RAHMANIA HIGH SCHOOL,114799,School,BAGERHAT,BAGERHAT SADAR,DAKSHIN NAGER BAZAR,89.79383,22.66128,10340,1
ARPARA KURSHAIL HIGH SCHOOL,131288,School,BAGERHAT,BAGERHAT SADAR,ARPARA KURSAIL,89.79369,22.66069,10341,1
KARTICDIA HIGH SCHOOL,114786,School,BAGERHAT,BAGERHAT SADAR,KARTIKDIA,89.79603,22.64911,10342,1
KODHLA SECONDARY SCHOOL,114756,School,BAGERHAT,BAGERHAT SADAR,KODLA,89.79322,22.65839,10343,1
BAITPUR M U HIGH SCHOOL,114789,School,BAGERHAT,BAGERHAT SADAR,BAITPUR,89.7765,22.74147,10344,1
BEMORTA GIRLS HIGH SCHOOL,114796,School,BAGERHAT,BAGERHAT SADAR,BEMARTA,89.75342,22.77367,10345,1
UDDIPAN BADAR- SHAMSU BIDYANIKETAN,131436,School,BAGERHAT,BAGERHAT SADAR,CHAITALI,89.76269,22.72772,10346,1
SHAHID NAyek  ABDUL ZABBaR secondary SCHOOL,114793,School,BAGERHAT,BAGERHAT SADAR,CHARGRAM,89.79128,22.75572,10347,1
K.B FATEPUR secondary SCHOOL,114751,School,BAGERHAT,BAGERHAT SADAR,CHHOTA BISHNUPUR,89.81397,22.64253,10348,1
BEMORTA UNION HIGH SCHOOL,114777,School,BAGERHAT,BAGERHAT SADAR,JOYGACHHI,89.81014,22.64014,10350,1
KHARASAMBAL N.S. HIGH SCHOOL,114785,School,BAGERHAT,BAGERHAT SADAR,KHARA SAMBAL,89.79122,22.67058,10351,1
K.M BADOKHALI SECONDARY SCHOOL,114801,School,BAGERHAT,BAGERHAT SADAR,MANDRA,89.81456,22.62767,10352,1
CHIRULIA HIGH SCHOOL,114773,School,BAGERHAT,BAGERHAT SADAR,BISHNUPUR,89.82719,22.66253,10353,1
S.S NIKETAN KHALISHPUR HIGH SCHOOL,114782,School,BAGERHAT,BAGERHAT SADAR,KHALISHPUR,89.81058,22.60017,10354,1
GAON KHALI GIRLS HIGH SCHOOL,114803,School,BAGERHAT,BAGERHAT SADAR,GAOKHALI,89.82964,22.70244,10355,1
GOTAPARA HIGH SCHOOL,114755,School,BAGERHAT,BAGERHAT SADAR,ALAKDIA,89.83789,22.73647,10356,1
KANDAPARA N N ML HIGH SCHOOL,114778,School,BAGERHAT,BAGERHAT SADAR,KANDA PARA,89.79053,22.75142,10357,1
S.B. NATOI KHALI SECONDARY SCHOOL,114783,School,BAGERHAT,BAGERHAT SADAR,NATAIKHALI,89.79497,22.65919,10358,1
NOWAPARA YAKUB ALI ADARSHA HIGH SCHOOL,114754,School,BAGERHAT,BAGERHAT SADAR,NOAPARA,89.79211,22.65636,10359,1
PATILAKHALI   HIGH SCHOOL,114781,School,BAGERHAT,BAGERHAT SADAR,PATILAKHALI,89.84936,22.66244,10360,1
KOMORPUR SECONDARY GIRLS  SCHOOL,114798,School,BAGERHAT,BAGERHAT SADAR,KAMARPUR,89.84222,22.67947,10361,1
RAHIMA BAD SECONDARY SCHOOL,114797,School,BAGERHAT,BAGERHAT SADAR,RAHIMABAD,89.83442,22.71578,10362,1
MADHUDIA ICHCA MAYEE SECONDARY,114772,School,BAGERHAT,BAGERHAT SADAR,UDKUL,89.68869,22.65808,10363,1
BAGMARA SECONDARY SCHOOL,114776,School,BAGERHAT,BAGERHAT SADAR,MALO PARA,89.74172,22.73956,10364,1
MAFUJA KHANAM GIRLS HIGH SCHOOL,114770,School,BAGERHAT,BAGERHAT SADAR,SABEKDANGA,89.76039,22.69683,10365,1
BASABATI  SECONDARY SCHOOL,114769,School,BAGERHAT,BAGERHAT SADAR,GOBARDIA,89.69483,22.708,10366,1
KARAPAR SART CHANDRA HIGH SCHOOL,114759,School,BAGERHAT,BAGERHAT SADAR,KARA PARA,89.7135,22.72039,10367,1
KARAPARA SECONDARY GIRLS SCHOOL,114788,School,BAGERHAT,BAGERHAT SADAR,KARA PARA,89.74953,22.72164,10368,1
K J S P U RAJARPUR HIGH SCHOOL,114753,School,BAGERHAT,BAGERHAT SADAR,RAJAPUR,89.74917,22.6795,10369,1
HAKIMPUR JR GIRLS HIGH SCHOOL,114787,School,BAGERHAT,BAGERHAT SADAR,HAKIMPUR,89.76481,22.64211,10370,1
HAKIMPUR SHAMSUL HUDA HIGH SCHOOL,114792,School,BAGERHAT,BAGERHAT SADAR,HAKIMPUR,89.76333,22.63717,10371,1
RANJITPUR  HIGH SCHOOL,114784,School,BAGERHAT,BAGERHAT SADAR,UTTAR PURATAN BAZAR,89.74783,22.68575,10372,1
PALLY UNNAYAN GIRLS HIGH SCHOOL,114795,School,BAGERHAT,BAGERHAT SADAR,KHUDRA CHAKSREE,89.66931,22.67644,10373,1
SUGANDHI GIRLS HIGH SCHOOL,114775,School,BAGERHAT,BAGERHAT SADAR,SUGANDHI,89.66461,22.68242,10374,1
SYEDPUR HIGH SCHOOL,114791,School,BAGERHAT,BAGERHAT SADAR,SAIDPUR,89.67106,22.65864,10375,1
AL ISLAH ACADEMY BAGERHAT,114762,School,BAGERHAT,BAGERHAT SADAR,UTTAR SORUI,89.70206,22.66569,10376,1
BSC HIGH SCHOOL,114800,School,BAGERHAT,BAGERHAT SADAR,BARAKPUR,89.67178,22.70936,10377,1
KHANJAHANIA HIGH SCHOOL,114774,School,BAGERHAT,BAGERHAT SADAR,RAN BIJOYPUR,89.69056,22.67839,10378,1
RONOBIJOYPUR HIGH SCHOOL,114804,School,BAGERHAT,BAGERHAT SADAR,RAN BIJOYPUR,89.66739,22.69553,10379,1
SAIRA LAKSHMI KHALI SECONDARY SCHOOL,131395,School,BAGERHAT,BAGERHAT SADAR,SAYERA,89.67461,22.70956,10380,1
BAGERHAT GOVT.HIGH SCHOOL,114761,School,BAGERHAT,BAGERHAT SADAR,UTTAR SORUI,89.79022,22.65878,10381,1
SUNDARGHONA  HIGH SCHOOL,114760,School,BAGERHAT,BAGERHAT SADAR,SUNDAR GHONA,89.71919,22.67094,10382,1
NABA PALLI IDEAL HIGH SCHOOL,114866,School,BAGERHAT,CHITALMARI,ROYGRAM,89.72494,22.67319,10383,1
DHOPAKHALI SECONDARY SCHOOL,114929,School,BAGERHAT,KACHUA,DHOPAKHALI,89.79272,22.66178,10384,1
S M RAKBUJJAMAN HIGH SCHOOL,114860,School,BAGERHAT,CHITALMARI,CHINGARI,89.91819,22.78839,10387,2
S. M. ISHAQuE HIGH SCHOOL,114851,School,BAGERHAT,CHITALMARI,KALATALA,89.89289,22.76103,10388,2
RAHMATPUR HIGH SCHOOL,114854,School,BAGERHAT,CHITALMARI,GANGA CHANNA,89.88714,22.85978,10389,1
BAHIRDASH MAHAL GIRLS HIGH SCHOOL,114864,School,BAGERHAT,CHITALMARI,DARI UMAJURI,89.93772,22.84375,10390,1
SANTOSHPUR HIGH SCHOOL,114853,School,BAGERHAT,CHITALMARI,SANTOSHPUR,89.89372,22.75897,10391,1
SANTIKHALI SABUJ SANGA HIGH SCHOOL,114857,School,BAGERHAT,CHITALMARI,BOALIA,89.91706,22.84347,10392,1
BOALIA SANTIPUR GIRLS HIGH SCHOOL,114849,School,BAGERHAT,CHITALMARI,BOALIA,89.88794,22.86153,10393,1
KALSHIRA RAJENDRA SMRITI SECONDERY SCHOOL,114858,School,BAGERHAT,CHITALMARI,SURSAIL,89.92289,22.72944,10394,1
SAMMILANY HIGH SCHOOL,114863,School,BAGERHAT,CHITALMARI,KALSIRA,89.8745,22.81817,10395,1
BOALIA SECONDARY SCHOOL,114840,School,BAGERHAT,CHITALMARI,BOALIA,89.86542,22.84781,10396,1
HIZLA  HIGH SCHOOL,114846,School,BAGERHAT,CHITALMARI,HIZLA,89.81975,22.80289,10397,1
MUKTABANGALA CHARI PaLLI HIGH SCHOOL,114855,School,BAGERHAT,CHITALMARI,BOALIA,89.84686,22.80758,10398,1
CHITALMARI S. M. HIGH SCHOOL,114842,School,BAGERHAT,CHITALMARI,KURMANI,89.86783,22.79581,10399,1
CHITALMARI HASINA BEGUM HIGH SCHOOL,114841,School,BAGERHAT,CHITALMARI,KURMANI,89.87319,22.79161,10400,1
DUMURIA secondary SCHOOL,114839,School,BAGERHAT,CHITALMARI,DUMURIA,89.90128,22.80283,10401,1
BARABARIA M. HIGH SCHOOL,114838,School,BAGERHAT,CHITALMARI,HARIAR GHOP,89.88133,22.838,10402,1
BARABARIA JONAB ALI FAKIR GIRLS SCHOOL,114861,School,BAGERHAT,CHITALMARI,BARA BARIA,89.91061,22.81736,10403,1
CHAR BARA BARIA HIGH SCHOOL,114845,School,BAGERHAT,CHITALMARI,BARA BARIA,89.87747,22.78522,10404,1
BARAGUNI MEHERUNNESA HIGH SCHOOL,114847,School,BAGERHAT,CHITALMARI,BARA GUNI,89.86575,22.84994,10405,1
G.B.D. HGIH SCHOOL,114852,School,BAGERHAT,CHITALMARI,BARA GUNI,89.89764,22.83706,10406,1
CHARBANIARY UNION GIRLS HIGH SCHOOL,114862,School,BAGERHAT,CHITALMARI,CHAR BANIARI,89.86728,22.84956,10407,1
GARIBPUR JUNIOR HIGH SCHOOL,114867,School,BAGERHAT,CHITALMARI,GARIBPUR,89.92689,22.74631,10408,1
SABOKHALI  HIGH  SCHOOL,114850,School,BAGERHAT,CHITALMARI,PANCH PARA,89.88644,22.78717,10409,1
NOBOPALLI JUNIOR GIRLS SCHOOL,114848,School,BAGERHAT,CHITALMARI,PANCH PARA,89.84033,22.88111,10410,1
CHAR DAKATIA SECONDRY SCHOOL,114844,School,BAGERHAT,CHITALMARI,CHAR DAKATIA,89.85486,22.86367,10411,1
CHAR BANIARY SECONDARY SCHOOL,114843,School,BAGERHAT,CHITALMARI,CHAR BANIARI,89.91422,22.78025,10412,1
BARUIPARA   P C  HIGH SCHOOL,114771,School,BAGERHAT,BAGERHAT SADAR,BARAI PARA,89.84742,22.77842,10414,1
CHUL KATI GHANASHYAMPUR HIGH SCHOOL,114780,School,BAGERHAT,BAGERHAT SADAR,SONADANGA,89.91819,22.78839,10415,2
CHULKATI GHANASHYAMPUR GIRL'S HIGH SCHOOL,114790,School,BAGERHAT,BAGERHAT SADAR,CHULKATI,89.89289,22.76103,10416,2
KHARIA ARULIA HIGH SCHOOL,114859,School,BAGERHAT,CHITALMARI,ARULIA,89.77669,22.79878,10417,1
BAHIRDIA HIGH SCHOOL,114883,School,BAGERHAT,FAKIRHAT,MANSA,89.74572,22.75253,10418,1
GABKHALI SECONDARY SCHOOL,114895,School,BAGERHAT,FAKIRHAT,SATBARIA,89.74547,22.75333,10419,1
BETAGA UNITED M.L.HIGH SCHOOL,114889,School,BAGERHAT,FAKIRHAT,SREEKRISHNAPUR,89.67358,22.79411,10420,1
BETAGA ADARSHA GIRLS HIGH SCHOOL,114898,School,BAGERHAT,FAKIRHAT,BETAGA,89.65972,22.7555,10421,1
B.K.SK.ALI AHMED JUNIOR HIGH SCHOOL,114899,School,BAGERHAT,FAKIRHAT,BIGHI,89.6685,22.75603,10422,1
CHATAK PUR S S JR HIGH SCHOOL,114901,School,BAGERHAT,FAKIRHAT,BETAGA,89.69767,22.77986,10423,1
DHANPOTA MASKAT UNITED HIGH SCHOOL,114909,School,BAGERHAT,FAKIRHAT,MASKATA,89.69344,22.78142,10424,1
MASKATA SECONDARY SCHOOL,114908,School,BAGERHAT,FAKIRHAT,MASKATA,89.62422,22.70814,10425,1
SHIRIN HAQUE PILOT GIRLS SECONDARY SCHOOL,114890,School,BAGERHAT,FAKIRHAT,ATTAKI,89.62483,22.70322,10426,1
QUAZIA AZHER ALI SECODARY SCHOOL,114905,School,BAGERHAT,FAKIRHAT,KANTHALTALA,89.59989,22.68733,10427,1
BANAFUL SECONDARY SCHOOL,114907,School,BAGERHAT,FAKIRHAT,PAGLA SHYAMNAGAR,89.62692,22.696,10428,1
HAZI A.HAMID SECONDARY SCHOOL,114882,School,BAGERHAT,FAKIRHAT,SATSIKKA,89.61358,22.71783,10429,1
BAUIDANGA ( B.L.) SECODNARY SCHOOL,114885,School,BAGERHAT,FAKIRHAT,LAKHPUR,89.70244,22.76378,10430,1
JARIA BHATTAKHAMAR SECONDARY SCHOOL,114897,School,BAGERHAT,FAKIRHAT,BHATTA KHAMAR,89.71569,22.75292,10431,1
BHABNA SECONDRY SCHOOL,114893,School,BAGERHAT,FAKIRHAT,JARIA MAITKUMRA,89.71058,22.77392,10432,1
LAKHPUR ALHAZ AMBIA ISHAK SECONDARY GIRLS SCHOOL,114902,School,BAGERHAT,FAKIRHAT,LAKHPUR,89.72181,22.73639,10433,1
FALTITA SHASHDHAR SAMAJ KALYAN HIGH SCHOOL,114900,School,BAGERHAT,FAKIRHAT,FALTITA BANIAKHALI,89.61869,22.73758,10434,1
DWADASH PALLI SECONDARY GIRLS SCHOOL,114903,School,BAGERHAT,FAKIRHAT,KALKALIA,89.63164,22.75092,10435,1
KAL KALIA G.C. SECONDARY SCHOOL,114888,School,BAGERHAT,FAKIRHAT,KALKALIA,89.60331,22.72508,10436,1
MULGHAR  GOVT.  HIGH SCHOOL,114879,School,BAGERHAT,FAKIRHAT,MULGHAR,89.62914,22.737,10437,1
MULGHAR GIRLS' HIGH SCHOOL,114886,School,BAGERHAT,FAKIRHAT,MULGHAR,89.6285,22.74769,10438,1
SAMMILONI JUNIOR HIGH SCHOOL,114906,School,BAGERHAT,FAKIRHAT,MULGHAR,89.73983,22.80011,10439,1
SYED MOHALLA K K GOVT GIRLS HIGH SCHOOL,114881,School,BAGERHAT,FAKIRHAT,KHARARIA,89.76261,22.80269,10440,1
KATHALI JUNIOR HIGH SCHOOL,114878,School,BAGERHAT,FAKIRHAT,KATHALI,89.71897,22.77636,10441,1
DAHAR MOUBHOG SEONDARY SCHOOL,114910,School,BAGERHAT,FAKIRHAT,MAUBHOG,89.72372,22.78003,10442,1
SHAH AULIABAG M M SECONDARY SCHOOL,114896,School,BAGERHAT,FAKIRHAT,BALIADANGA,89.72381,22.77633,10443,1
PILJANGA SECONDERY SCHOOL,114887,School,BAGERHAT,FAKIRHAT,PILJANGA,89.71664,22.78603,10444,1
BANGABANDHU SECONDARY GIRLS SCHOOL,114904,School,BAGERHAT,FAKIRHAT,PILJANGA,89.71583,22.77769,10445,1
DEAPARA SECONDARY SCHOOL,114894,School,BAGERHAT,FAKIRHAT,TEKATIA,89.70258,22.72844,10446,1
SHUBHADIA K.B. SECONDARY SCHOOL,114892,School,BAGERHAT,FAKIRHAT,CHHOTA SUBHADIA,89.66375,22.73211,10447,1
TEKATIA SECONDARY SCHOOL,114891,School,BAGERHAT,FAKIRHAT,TEKATIA,89.64975,22.73803,10448,1
ATTAKA KERAMAT ALI PILOT HIGH SCHOOL,114880,School,BAGERHAT,FAKIRHAT,ATTAKA,89.63914,22.73883,10449,1
B.K HIGH SCHOOL,115074,School,BAGERHAT,MORRELGANJ,BALABHADRAPUR,89.61019,22.66422,10450,1
DAIBAJNA HATI B.M. HIGH SCHOOL,115040,School,BAGERHAT,MORRELGANJ,DAIBAGNYAHATI,89.58397,22.67722,10451,1
DAIBAJNAHATI ADARSHA GIRLS HIGH SCHOOL,115076,School,BAGERHAT,MORRELGANJ,DAIBAGNYAHATI,89.61808,22.67208,10452,1
KACHURIA ADARSHA HIGH SCHOOL,114865,School,BAGERHAT,CHITALMARI,SANTOSHPUR,89.61664,22.66317,10453,1
MASNI SECONDARY SCHOOL,114927,School,BAGERHAT,KACHUA,RAGHU DATTAKATI,89.70142,22.77944,10454,1
B. C. VASHA HIGH SCHOOL,114941,School,BAGERHAT,KACHUA,BHASA,89.88933,22.60139,10455,1
GAZALIA IDEAL HIGH SCHOOL,114933,School,BAGERHAT,KACHUA,GAZALIA,89.86014,22.56067,10456,1
JOBAI ADARSHA HIGH SCHOOL,114932,School,BAGERHAT,KACHUA,GAZALIA,89.91122,22.73331,10457,1
SAHEED ASAD SMRITI HIGH SCHOOL,114934,School,BAGERHAT,KACHUA,GOPALPUR,89.86075,22.69447,10458,1
AKHTERUDDIN MEMORIAL HIGH SCHOOL,131245,School,BAGERHAT,KACHUA,MALIPATAN,89.86428,22.71075,10459,1
PADMA NAGAR JUNIOR HIGH SCHOOL,114931,School,BAGERHAT,KACHUA,GOPALPUR,89.89031,22.724,10460,1
"C.S.PILOT HIGH SCHOOL,KACHUA",114926,School,BAGERHAT,KACHUA,TENGRAKHALI,89.87189,22.73081,10461,1
KACHUA PILOT GIRLS SCHOOL,114925,School,BAGERHAT,KACHUA,KACHUA,89.88914,22.72892,10462,1
ANDHAR MANIK HIGH SCHOOL,114930,School,BAGERHAT,KACHUA,CHHOTA ANDHAR MANIK,89.88506,22.65256,10463,1
ANDHARMANIK GIRLS HIGH SCHOOL,114936,School,BAGERHAT,KACHUA,CHHOTA ANDHAR MANIK,89.88075,22.64719,10464,1
SHAHID ABDUL JALIL HIGH SCHOOL,114937,School,BAGERHAT,KACHUA,MAGHIA,89.88506,22.6435,10465,1
MOBAIDUL ISLAM SECONDARY SCHOOL,114942,School,BAGERHAT,KACHUA,KHALISHAKHALI,89.90697,22.63675,10466,1
BARUIKHALI HIGH SCHOOL,114938,School,BAGERHAT,KACHUA,CHARKATI,89.92194,22.67456,10467,1
GOALMATH RASHIKLAL SECONDARY SCHOOL,114928,School,BAGERHAT,KACHUA,RARI PARA,89.87428,22.66517,10468,1
GOALMATH SECONDARY GIRL'S SCHOOL,114939,School,BAGERHAT,KACHUA,BHANDARKOLA,89.91597,22.67117,10469,1
DR. MONSUR AHMaD HIGH SCHOOL,114966,School,BAGERHAT,MOLLAHAT,KAHALPUR,89.84419,22.60728,10470,1
KAMAR GRAM SECONDARY SCHOOL,114963,School,BAGERHAT,MOLLAHAT,KAMARGRAM,89.84572,22.60661,10471,1
KODALIA M.H.B. JUNIOR GIRLS HIGH SCHOOL,114971,School,BAGERHAT,MOLLAHAT,RANGAMATIA,89.84297,22.60758,10472,1
KODALIA JUNIOR HIGH SCHOOL,114975,School,BAGERHAT,MOLLAHAT,RANGAMATIA,89.79689,22.91214,10473,1
CHARKULIA HIGH SCHOOL,114964,School,BAGERHAT,MOLLAHAT,KULIA,89.81075,22.89781,10474,1
CHARKULIA GIRLS HIGH SCHOOL,114974,School,BAGERHAT,MOLLAHAT,KULIA,89.79603,22.91197,10475,1
NASHUKHALI SOCIAL WELFARE HIGH SCHOOL,114962,School,BAGERHAT,MOLLAHAT,NASUKHALI,89.81483,22.88492,10476,1
SHAHEED HEMAYET UDDIN GIRKS HIGH SCHOOL,114968,School,BAGERHAT,MOLLAHAT,GARFA,89.77114,22.89808,10477,1
GIRISHNAGAR GARFA SECONDARY HIGH SCHOOL,114973,School,BAGERHAT,MOLLAHAT,GIRISHNAGAR,89.7465,22.86894,10478,1
WAZED MEMORIAL MODEL HIGH SCHOOL,114954,School,BAGERHAT,MOLLAHAT,UDAYPUR DAIBAKANDI,89.76514,22.89792,10479,1
A.S.S.M.HIGH SCHOOL(SINGATI),114967,School,BAGERHAT,MOLLAHAT,SHASAN,89.80347,22.93142,10480,1
GANGNI HIGH SCHOOL,114961,School,BAGERHAT,MOLLAHAT,GANGNI,89.79953,22.93294,10481,1
CHANDER HAT GIRLS HIGH SCHOOL,114972,School,BAGERHAT,MOLLAHAT,GAOLA,89.80331,22.92594,10482,1
CHAULTURY HIGH SCHOOL,114970,School,BAGERHAT,MOLLAHAT,MUNI ZILA,89.78064,22.96519,10483,1
K.N.A.S.A HAMID HIGH SCHOOL,114965,School,BAGERHAT,MOLLAHAT,RANGAMATIA,89.79839,22.91181,10484,1
KACHURIA BAZAR H S M M SECONDARY SCHOOL,114959,School,BAGERHAT,MOLLAHAT,RANGAMATIA,89.71497,22.87689,10485,1
BARAKATALI ML.HIGH SCHOOL,115163,School,BAGERHAT,RAMPAL,BARA KANTHALI,89.751,22.82397,10486,1
CHALNA BANDAR SECONDARY SCHOOL,114986,School,BAGERHAT,MONGLA,PASCHIM SELABUNIA,89.75622,22.85661,10487,1
ISLAMI ADARSHA  ACADEMY SECONDARY SCHOOL,115006,School,BAGERHAT,MONGLA,SELABUNIA,89.79375,22.87825,10488,1
ST PAULS HIGH SCHOOL,114989,School,BAGERHAT,MONGLA,PURBA SELABUNIA,89.83994,22.84078,10489,1
MONGLA GIRLS HIGH SCHOOL,115005,School,BAGERHAT,MONGLA,PURBA SELABUNIA,89.82947,22.85303,10490,1
MD ISMAIL HIGH SCHOOL,115004,School,BAGERHAT,MONGLA,PASCHIM SELABUNIA,89.68508,22.52531,10491,1
DOCK SRAMIC  HIGH SCHOOL,114985,School,BAGERHAT,MONGLA,"BAZAR AREA,PH,PSV MAHALLA",89.60864,22.46633,10492,1
MONGLA BANDAR SECONDARY SCHOOL,115025,School,BAGERHAT,MONGLA,KAMARDANGA,89.61172,22.47992,10493,1
CHANDPAI MESERSHAH SECONDARY SCHOOL,114998,School,BAGERHAT,MONGLA,CHANDPI,89.60583,22.46842,10494,2
JOYMONI SECONDARY SCHOOL,114999,School,BAGERHAT,MONGLA,JOYMANIRGOL,89.61169,22.47031,10495,1
MALGAZI GIRLS  HIGH SCHOOL,114996,School,BAGERHAT,MONGLA,MALGAZI,89.61572,22.47372,10496,1
BURIR DANGA   SECONDARY  GIRLS  SCHOOL,115008,School,BAGERHAT,MONGLA,BIDYARBAHAN DIGRAJ,89.64339,22.37058,10497,1
BURIRDANGA  SECONDARY SCHOOL,114993,School,BAGERHAT,MONGLA,BHATERABAD BURIRDANGA,89.63086,22.46489,10498,1
DIGRAJ HIGH  SCHOOL,114991,School,BAGERHAT,MONGLA,BIDYARBAHAN DIGRAJ,89.64331,22.49358,10499,1
G M S HIGH SCHOOL,115001,School,BAGERHAT,MONGLA,BIDYARBAHAN,89.66736,22.49053,10500,1
CHILA MANU MIA HIGH SCHOOL,115002,School,BAGERHAT,MONGLA,CHILA,89.60747,22.50719,10501,1
SABED KAHN SECONDARY SCHOOL,115009,School,BAGERHAT,MONGLA,CHILA,89.59217,22.53239,10502,1
HALDIBUNIA HIGH SCHOOL,114997,School,BAGERHAT,MONGLA,HALDIBUNIA,89.57289,22.56228,10503,1
KHASERDANGA A B S SECONDARY SCHOOL,114992,School,BAGERHAT,MONGLA,KHONKARER BER,89.59217,22.53208,10504,1
TATIBUNIA   SECONDARY  SCHOOL,114988,School,BAGERHAT,MONGLA,DATTERMET,89.62269,22.41544,10505,1
SANTIMAYEE  JUNIOR  GIRLS   HIGH SCHOOL,115000,School,BAGERHAT,MONGLA,KHONKARER BER,89.63728,22.39689,10506,1
SHERIA  BEGUM SECONDARY GIRLS  SCHOOL,115007,School,BAGERHAT,MONGLA,MITHAKHALI,89.63811,22.43828,10507,1
ISMAIL MEMORIAL HIGH SCHOOL,114994,School,BAGERHAT,MONGLA,SAHEBERMET,89.64294,22.40531,10508,1
AMRATALA CHAPRA SECONDARY SCHOOL,115003,School,BAGERHAT,MONGLA,AMRATALA,89.69892,22.48647,10509,1
AZIZ BHATTI HIGH SCHOOL,114995,School,BAGERHAT,MONGLA,BANSHTALA,89.70403,22.48567,10510,1
BURBURIA HIGH SCHOOL,114990,School,BAGERHAT,MONGLA,KHARMA,89.64603,22.48636,10511,1
EUNUS ALI SECONDARY SCHOOL,115024,School,BAGERHAT,MONGLA,KHARMA,89.66708,22.52175,10512,1
KHONTA  KATA  SECDAARY  SCHOOL,115231,School,BAGERHAT,SARANKHOLA,MORELLABAD,89.69619,22.41472,10514,1
"DHANSAGAR UNITED HIGH SCHOOL,",115233,School,BAGERHAT,SARANKHOLA,DHANSAGAR,89.68703,22.44697,10515,1
BAHARBUNIA HIGH SCHOOL,115039,School,BAGERHAT,MORRELGANJ,BAHARBUNIA,89.67789,22.45558,10516,1
SABERA FERDOSI JUNIOR GIRLS SCHOOL,115087,School,BAGERHAT,MORRELGANJ,BALAIBUNIA,89.77342,22.49006,10517,1
BALAIBUNIA SECONDARY SCHOOL,115072,School,BAGERHAT,MORRELGANJ,BALAIBUNIA,89.79414,22.46622,10518,1
A.C. LAHA PILOT HIGH SCHOOL,115033,School,BAGERHAT,MORRELGANJ,KATHALTALA,89.79231,22.48103,10519,1
S.B. ADARSHA MULTILATERAL HIGH SCHOOL,115058,School,BAGERHAT,MORRELGANJ,BAHARBUNIA,89.79272,22.47944,10520,1
BIPIN KAMAL JUNIOR GIRLS SCHOOL,115027,School,BAGERHAT,MORRELGANJ,BAHARBUNIA,89.8635,22.40336,10521,1
CHHAPRAKHALI SECONDARY SCHOOL,115066,School,BAGERHAT,MORRELGANJ,BAHARBUNIA,89.86192,22.48692,10522,1
FULHATA HIGH SCHOOL,115030,School,BAGERHAT,MORRELGANJ,UTTAR PHULHATA,89.77256,22.48258,10523,1
GOLBUNIA SECONDARY SCHOOL,115071,School,BAGERHAT,MORRELGANJ,UTTAR PHULHATA,89.86133,22.44931,10524,1
KUHARDAh R.A.M. multi secondary SCHOOL,115046,School,BAGERHAT,MORRELGANJ,KUHARDAHA NEHALKHALI,89.7935,22.48136,10526,1
NEHAL KHALI GIRLS HIGH SCHOOL,131464,School,BAGERHAT,MORRELGANJ,KUHARDAHA NEHALKHALI,89.78267,22.47389,10527,1
BANAGRAM CENTURY INSTITUTION,115038,School,BAGERHAT,MORRELGANJ,BANAGRAM,89.87289,22.50761,10528,1
PUTIA ADARSHA BALIKA MADHYAMIK VIDYALAYA,115083,School,BAGERHAT,MORRELGANJ,PUTIA,89.87578,22.5095,10529,1
RAWSHAN ARA GIRLS HIGH SCHOOL,115036,School,BAGERHAT,MORRELGANJ,PURBA FAKIRER TAKIA,89.86742,22.48283,10530,1
ABDUL AZIZ MEMORIAL HIGH SCHOOL,115062,School,BAGERHAT,MORRELGANJ,FAKIRERTAKIA,89.84564,22.48575,10531,1
DAKSHIN SUTALARI H.M.J.K.M. SECONDARY SCHOOL,115065,School,BAGERHAT,MORRELGANJ,DAKSHIN SUTALARI,89.86369,22.48719,10532,1
UTTAR SUTALARI HIGH SCHOOL,115084,School,BAGERHAT,MORRELGANJ,UTTAR SUTALARI,89.91583,22.59981,10533,1
CHINGRA KHALI SECONDRY SCHOOL,115041,School,BAGERHAT,MORRELGANJ,CHINGRAKHALI,89.80689,22.45094,10534,1
SINGJORE  CHANDIPUR  SECONDARY  SCHOOL,115043,School,BAGERHAT,MORRELGANJ,SINGJOR,89.82439,22.44164,10535,1
DHARADOA MULTILATERAL HIGH SCHOOL,115053,School,BAGERHAT,MORRELGANJ,DHARADOHA,89.80906,22.48136,10536,1
PURBA CHANDIPUR GIRLS HIGH SCHOOL,115057,School,BAGERHAT,MORRELGANJ,CHANDIPUR,89.80692,22.46094,10537,1
SINGJOR GOPALPUR S. GIRL'S HIGH SCHOOL,115080,School,BAGERHAT,MORRELGANJ,SINGJOR,89.85361,22.45672,10538,1
BATHKASHE HIGH SCHOOL,115086,School,BAGERHAT,MORRELGANJ,BETKHASI,89.93714,22.50386,10539,2
BADNI VANGA ADARSHA SECONDARY,115034,School,BAGERHAT,MORRELGANJ,BADNIBHANGA,89.92336,22.52011,10540,1
CHARHOGLA BUNIA MOMIN SRITY HIGH SCHOOL,115063,School,BAGERHAT,MORRELGANJ,CHAR HOGLABUNIA,89.85617,22.52808,10541,1
FAKIRBARI ADARSHA HIGH SCHOOL,115056,School,BAGERHAT,MORRELGANJ,KALIKABARI,89.88019,22.52328,10542,1
SAMMILANI UCHHA BILIKA VIDYALAYA,115026,School,BAGERHAT,MORRELGANJ,BAULPUR,89.90294,22.46956,10543,1
SREE SREE GOPAL CHAND HIGH SCHOOL,115070,School,BAGERHAT,MORRELGANJ,MANIK KHOLA,89.92,22.45486,10544,1
HAZI RAJAULLAH SMRITY HIGH SCHOOL,115028,School,BAGERHAT,MORRELGANJ,DAKSHIN PHULHATA,89.903,22.46208,10545,1
JIUDHARA SERJAN SMRITI SECONDARY  SCHOOL,115032,School,BAGERHAT,MORRELGANJ,DAKSHIN JIUDHARA,89.92683,22.46494,10546,1
SAMMILANI SECONDARY SHIKHA NIKETAN,115060,School,BAGERHAT,MORRELGANJ,GOBINDAPUR,89.93967,22.56494,10547,1
SUHASINI HIGH SCHOOL,115073,School,BAGERHAT,MORRELGANJ,BARA HARIPUR,89.72033,22.44447,10548,1
DEUATALA  K C SECONDARY SCHOOL,115055,School,BAGERHAT,MORRELGANJ,DEUATALA,89.75194,22.46575,10549,1
BOROPARI JUNIOR SECONDARY SCHOOL,115089,School,BAGERHAT,MORRELGANJ,CHALITABUNIA,89.73117,22.42047,10550,1
CHIPA BARAIKHALI HIGH SCHOOL,115069,School,BAGERHAT,MORRELGANJ,PURBA CHIPA BARAIKHALI,89.72192,22.48264,10551,1
SANNYASI SECONDARY GIRL'S SCHOOL,115077,School,BAGERHAT,MORRELGANJ,CHALITABUNIA,89.75356,22.46722,10552,1
S. P  RASHIDA  HIGH SCHOOL,115029,School,BAGERHAT,MORRELGANJ,CHALITABUNIA,89.75206,22.46519,10553,1
MORREL GONJ GOVT.GIRLS HIGH SCHOOL,115035,School,BAGERHAT,MORRELGANJ,MORREL GANJ,89.84997,22.40378,10554,1
B.B AFSAR ALI HIGH SCHOOL,115052,School,BAGERHAT,MORRELGANJ,BADURTALA,89.87097,22.37108,10555,1
MORRELGANJ TOWN HIGH SCHOOL,115031,School,BAGERHAT,MORRELGANJ,UTTAR MORRELGANJ,89.83956,22.41539,10556,1
MORREL  GONG  K.G  HOGH SCHOOL,115037,School,BAGERHAT,MORRELGANJ,BHAIZORA,89.86275,22.39669,10557,1
GULISHAKHALI R M HIGH SCHOOL,115044,School,BAGERHAT,MORRELGANJ,GULISAKHALI,89.84767,22.44939,10558,1
HARTAKITALA URFUL SMRITI HIGH SCHOOL,115082,School,BAGERHAT,MORRELGANJ,GUATALA,89.87069,22.44108,10559,1
HOGALPATI HIGH SCHOOL,115054,School,BAGERHAT,MORRELGANJ,BHASHANDAL,89.85886,22.45025,10560,1
TUZAMBER ALI HIGH SCHOOL,115079,School,BAGERHAT,MORRELGANJ,PASCHIM CHIPA BARAIKHALI,89.83764,22.44492,10561,1
PANCH GAON M.M..SECONDARY SCHOOL,115045,School,BAGERHAT,MORRELGANJ,CHAK MAHISH CHARANI,89.78456,22.40333,10562,1
JANASHAKTI SECONDARY GIRLS  SCHOOL,115067,School,BAGERHAT,MORRELGANJ,CHAK MAHISH CHARANI,89.79753,22.43558,10563,1
KHARAIKHALI  JAHURA JR.  GIRLS  SCHOOL,115078,School,BAGERHAT,MORRELGANJ,CHAK KHARAIKHALI,89.79297,22.41939,10564,1
B.P.G.M. RAHMANIA HIGH SCHOOL,115064,School,BAGERHAT,MORRELGANJ,PUTIKHALI,89.81733,22.51772,10565,1
SONAKHALI MAHABBAT ALI SECONDERY SCHOOL,115047,School,BAGERHAT,MORRELGANJ,CHAK PUTIKHALI,89.78425,22.53922,10566,1
PARKUMAR KHALI HIGH SCHOOL,115042,School,BAGERHAT,MORRELGANJ,KADAM RASULER PAHAR,89.82447,22.53397,10567,1
DHULIGATI M.T.HIGH SCHOOL,115049,School,BAGERHAT,MORRELGANJ,CHAK DHULIGANTI,89.81417,22.50211,10568,1
SURENDRA NATH SMRITI GIRLS HIGH SCHOOOL,115068,School,BAGERHAT,MORRELGANJ,CHAK MISTRIDANGA,89.92925,22.54314,10569,1
SHAHID SMRITI UCHCHA BIDHALAYA,115061,School,BAGERHAT,MORRELGANJ,CHAK TELIGATI,89.92253,22.55831,10570,1
KACHU BANIA HASHEM ALI GIRLS HIGH SCHOOL,115075,School,BAGERHAT,MORRELGANJ,KACHUBUNIA,89.81344,22.56356,10571,1
KACHUBUNIA  RAHMATIA   HIGH   SCHOOL,115048,School,BAGERHAT,MORRELGANJ,KACHUBUNIA,89.78722,22.56036,10572,1
K K POLER HAT HIGH SCHOOL,115059,School,BAGERHAT,MORRELGANJ,KANTABUNIA,89.83678,22.57136,10573,1
BAINTALA KASHIPUR HIGH SCHOOL,115173,School,BAGERHAT,RAMPAL,ALIPUR,89.81983,22.54997,10574,1
CHAKSREE A.B.C. HIGH SCHOOL,115186,School,BAGERHAT,RAMPAL,CHAKSREE,89.82067,22.49347,10575,1
AMTALA JUNIOR HIGH SCHOOL,115182,School,BAGERHAT,RAMPAL,KHEJUR MAHAL,89.89622,22.5435,10576,1
KUMALAI SECONDARY SCHOOL,115175,School,BAGERHAT,RAMPAL,KUMLAI,89.89214,22.54314,10577,1
PABANTALA GIRLS HIGH SCHOOL,115160,School,BAGERHAT,RAMPAL,KUMLAI,89.88208,22.52553,10578,1
SAGUNA SECOUNDARY SCHOOL,115199,School,BAGERHAT,RAMPAL,SAGUNA,89.69478,22.61311,10579,1
BAINTALA UNION SECONDARY SCHOOL,115171,School,BAGERHAT,RAMPAL,TELIKHALI,89.70156,22.63778,10580,1
BASTALI HIGH SCHOOL,115189,School,BAGERHAT,RAMPAL,BANSHTALI,89.69414,22.63969,10581,1
BASTALI PALLY UNNAYAN JUNIOR HIGH SCHOOL,115193,School,BAGERHAT,RAMPAL,BANSHTALI,89.69425,22.62144,10582,1
HAZI ARIF GIRLS HIGH SCHOOL,115204,School,BAGERHAT,RAMPAL,GILATALA,89.6655,22.60964,10583,1
CHANDITALA UNITED HIGH SCHOOL,115183,School,BAGERHAT,RAMPAL,CHANDITALA,89.67594,22.61161,10584,1
GILATALA ML. HIGH SCHOOL,115168,School,BAGERHAT,RAMPAL,GILATALA,89.69681,22.59483,10585,1
SUNDARPUR JUNIOR HIGH SCHOOL,115174,School,BAGERHAT,RAMPAL,SUNDARPUR,89.69564,22.55192,10586,1
BETkATA UNION SECONDARY SCHOOL,115181,School,BAGERHAT,RAMPAL,BHOJPATIA,89.67633,22.58636,10587,1
CHHOTA SANNYASHI JUNIOR HIGH SCHOOL,115201,School,BAGERHAT,RAMPAL,BANSHBARIA,89.698,22.59086,10588,1
ADAGHAT HIGH SCHOOL,115184,School,BAGERHAT,RAMPAL,ADAGHAT,89.67367,22.58106,10589,1
BORNI SAIRABAD QUINTON GIRLS HIGH SCHOOL,115172,School,BAGERHAT,RAMPAL,BARNI,89.69842,22.58803,10590,1
BORNI SAIRABAD ML.HIGH SCHOOL,115170,School,BAGERHAT,RAMPAL,BARNI,89.72028,22.51617,10591,1
KHANJAHAN   ALI  HIGH SCHOOL,115205,School,BAGERHAT,RAMPAL,GAURAMBHA,89.71975,22.55894,10592,1
HURKA SITANATH SECONDARY SCHOOL,115165,School,BAGERHAT,RAMPAL,CHARAKHALI,89.5945,22.63839,10593,1
HURKA  JHALMALIA  SHEALIKA  JUNIOR  GIRLS  HIGH SCHOOL,115202,School,BAGERHAT,RAMPAL,HUKRA,89.575,22.63744,10594,1
VEKATMARY BELAI HIGH SCHOOL,115162,School,BAGERHAT,RAMPAL,HUKRA,89.57533,22.63767,10595,1
SANNYASI SECONDARY SCHOOL,115185,School,BAGERHAT,RAMPAL,SANNYASI,89.57697,22.65492,10596,1
GAFUR MEMORIAL JUNIOR HIGH SCHOOL,115203,School,BAGERHAT,RAMPAL,SANNYASI,89.57842,22.64947,10597,1
MADARDIA ADARSHA JUNIOR HIGH SCHOOL,115194,School,BAGERHAT,RAMPAL,MANDRADIA,89.62844,22.54161,10598,1
MALLIKERBER MODEL HIGH SCHOOL,115198,School,BAGERHAT,RAMPAL,MALLIKER BER,89.62661,22.54411,10599,1
DAKRA MULTILA TERAL HIGH SCHOOL,115169,School,BAGERHAT,RAMPAL,KUMARKHALI,89.74969,22.55792,10600,1
PERIKHALI P.U. HIGH SCHOOL,115161,School,BAGERHAT,RAMPAL,PERIKHALI,89.73383,22.54322,10601,1
KALEKHARBER SECONDARY SCHOOL,115180,School,BAGERHAT,RAMPAL,KALEKHAR BER,89.76214,22.53561,10602,1
RAJNAGAR UNION JUNIOR GIRLS SCHOOL,115179,School,BAGERHAT,RAMPAL,BARA DURGAPUR,89.76536,22.53564,10603,1
BETKATA HIGH SCHOOL,115190,School,BAGERHAT,RAMPAL,BETKATA,89.69692,22.54625,10604,1
JHANJHANIA HIGH SCHOOL,115197,School,BAGERHAT,RAMPAL,JHANJHANIA,89.64964,22.53994,10605,1
JOYNAGAR PIPUL BUNIA SECONDARY SCHOOL,115176,School,BAGERHAT,RAMPAL,JOYNAGAR,89.64947,22.53461,10606,1
KADIR KHOLA HIGH SCHOOL,115187,School,BAGERHAT,RAMPAL,KADIRKHOLA,89.58878,22.60211,10607,1
RAMPAL PILOT GIRLS HIGH SCHOOL,115166,School,BAGERHAT,RAMPAL,RAMPAL,89.58414,22.59514,10608,1
SREEFALTALA PILOT HIGH SCHOOL,115167,School,BAGERHAT,RAMPAL,SREEFALTALA,89.64658,22.61278,10609,1
CHANDPUR SHANKAR NAGAR JR.HIGH SCHOOL,115195,School,BAGERHAT,RAMPAL,CHANDPUR,89.65797,22.57464,10610,1
TATERHAT JUNIOR SCHOOL,115206,School,BAGERHAT,RAMPAL,GOBINDAPUR,89.64483,22.59828,10611,1
BHUIAR KANDAR HIGH SCHOOL,115191,School,BAGERHAT,RAMPAL,MANIKNAGAR,89.65228,22.55931,10612,1
SONATUNIA A.K. JUNIOR GIRLS HIGH SCHOOL,115196,School,BAGERHAT,RAMPAL,SONATUNIA,89.64397,22.61067,10613,1
FOYLAHAT KAMAL UDDIN MADHYAMIK SCHOOL,115164,School,BAGERHAT,RAMPAL,SANTOSHPUR,89.64978,22.55564,10614,1
TULSHIRABAD K.U.M. HIGH SCHOOL,115192,School,BAGERHAT,RAMPAL,TULSIRABAD,89.61692,22.6415,10615,1
UJALKUR GIRLS JR HIGH SCHOOL,115177,School,BAGERHAT,RAMPAL,JHALBARI,89.67306,22.65231,10616,1
UJALKUR HIGH SCHOOL,115178,School,BAGERHAT,RAMPAL,UJALKUR,89.62292,22.62736,10617,1
TORAB MEMORIAL HIGH SCHOOL,115050,School,BAGERHAT,MORRELGANJ,GHASIAKHALI,89.62794,22.65728,10618,1
DEMA UNION KASHIMPUR HIGH SCHOOL,114779,School,BAGERHAT,BAGERHAT SADAR,KASHIMPUR,89.64172,22.63308,10619,1
BARA BASH BARIA secondary HIGH SCHOOL,114794,School,BAGERHAT,BAGERHAT SADAR,BARA BANSHBARIA,89.64381,22.66711,10620,1
KASHIMPUR GIRLS HIGH SCHOOL,114802,School,BAGERHAT,BAGERHAT SADAR,KASHIMPUR,89.64253,22.63739,10621,1
KHEGRAGHAT HIGH SCHOOL,115188,School,BAGERHAT,BAGERHAT SADAR,KHEGRAGHAT,89.74778,22.51947,10622,1
DHANSAGAR RADHALAXMI JUNIOR GIRLS HIGH SCHOOL,115235,School,BAGERHAT,SARANKHOLA,DHANSAGAR,89.73867,22.60097,10623,1
RAJAPUR  GIRLS HIGH SCHOOL,115242,School,BAGERHAT,SARANKHOLA,RAJAPUR,89.72594,22.59756,10624,1
RAJAPUR HIGH SCHOOL,115232,School,BAGERHAT,SARANKHOLA,RAJAPUR,89.76461,22.61719,10625,1
AMENA MEMORIAL GIRLS JUNIOR HIGH SCHOOL,115228,School,BAGERHAT,SARANKHOLA,AMRAGACHHIA,89.79453,22.35003,10626,1
B. K. JUNIOR SECONDARY GIRLS SCHOOL,115244,School,BAGERHAT,SARANKHOLA,MORELLABAD,89.792,22.37208,10627,1
KHONTAKATA UNION SECONDARY SCHOOL,115238,School,BAGERHAT,SARANKHOLA,MORELLABAD,89.81442,22.36811,10628,1
ANOWAR HOSSAIN SECONDARY SCHOOL,115243,School,BAGERHAT,SARANKHOLA,AMRAGACHHIA,89.81278,22.38689,10629,1
RASULPUR JUNIOR HIGH SCHOOL,115239,School,BAGERHAT,SARANKHOLA,DAKSHIN RAJAPUR,89.866,22.34906,10630,1
JANATA HIGH SCHOOL,115236,School,BAGERHAT,SARANKHOLA,DAKSHIN RAJAPUR,89.8545,22.33272,10631,1
RAYENDA PILOT HIGH SCHOOL,115229,School,BAGERHAT,SARANKHOLA,RAYENDA,89.84414,22.35097,10632,1
R. K. D. S. PILOT GIRLS HIGH SCHOOL,115234,School,BAGERHAT,SARANKHOLA,RAYENDA,89.85436,22.31639,10633,1
SOUTH KHALI JUNIOR sceondary GIRLS  SCHOOL,131422,School,BAGERHAT,SARANKHOLA,SONATALA,89.783,22.29536,10634,1
SUNDARBON HIGH SCHOOL,115237,School,BAGERHAT,SARANKHOLA,SARANKHOLA,89.84222,22.29183,10635,1
BADHAL IDEL SECONDARY SCHOOL,115240,School,BAGERHAT,SARANKHOLA,NALBUNIA,89.82617,22.26347,10636,1
DHANSAGAR PALLIMGAL SECODNAR SCHOOL,115051,School,BAGERHAT,MORRELGANJ,PURBA CHIPA BARAIKHALI,89.82783,22.22436,10637,1
S.P.C KAFURPURA HIGH SCHOOL AND COLLEGE,114837,School and College,BAGERHAT,BAGERHAT SADAR,KODLA,89.7795,22.72819,25717,1
JADU NATH SCHOOL AND COLLEGE,114767,School and College,BAGERHAT,BAGERHAT SADAR,PURBA DASH ANI,89.79094,22.74878,25718,1
RANGDIA SCHOOL AND COLLEGE,114834,School and College,BAGERHAT,BAGERHAT SADAR,AFRA,89.84225,22.71192,25719,1
SAIRA MADHUDIA COLLEGIATE SCHOOL,114835,School and College,BAGERHAT,BAGERHAT SADAR,UTTAR KHANPUR,89.76183,22.68342,25720,1
TAFAL BARI SCHOOL AND COLLEGE,115265,School and College,BAGERHAT,SARANKHOLA,SONATALA,89.84114,22.32708,25721,1
HAZI M.A. KALAM DEGREE COLLEGE,103136,College,BANDARBAN,NAIKHONGCHHARI,NAIKHONGCHHARI,92.31722,21.64959,33,1
MATAMUHURI COLLEGE,103125,College,BANDARBAN,LAMA,COLLEGE GATE PARA,92.17003,21.72143,34,1
GOVT.BANDARBAN COLLEGE,103107,College,BANDARBAN,BANDARBAN SADAR,COLLEGE ROAD AREA,92.27985,22.20626,35,1
ALI KADAM ISLAMIA DAKIL MADMASHA,103090,Madrasha,BANDARBAN,ALIKADAM,ALIKADAM,90.34192,22.36308,2505,1
Cakdala Mahiussunnah Dakhil Madrasah,103133,Madrasha,BANDARBAN,NAIKHONGCHHARI,NAIKHONGCHHARI,92.31395,21.65011,2506,1
MADINATUL ULUM MODEL INSTITUTE DAKHIL MADRASAH.,103132,Madrasha,BANDARBAN,NAIKHONGCHHARI,NAIKHONGCHHARI,92.26344,21.64238,2507,1
BAIShARI SHAH NURUDDIN DAKHIL MADRASAh,103134,Madrasha,BANDARBAN,NAIKHONGCHHARI,BAISHARI,92.1826,21.41962,2508,1
DAKHIN  GHUMDHUM  MISKA TUL  NABI(S;)  DAKHIL  MADRASHA,103135,Madrasha,BANDARBAN,NAIKHONGCHHARI,GHUMDUM,92.18679,21.41703,2509,1
TAMIRE MILLAT ISLAMIA MADRASAH,103123,Madrasha,BANDARBAN,LAMA,CHAMBI,92.18506,21.2273,2510,1
LAMA ISLAMIA FHAZIL  (DEGREE) MADRASA,103121,Madrasha,BANDARBAN,LAMA,POPA,92.18762,21.79204,2511,1
LAINZIRY MOHAMMADIA ISLAMIA DAKHIL MADRASHA,103122,Madrasha,BANDARBAN,LAMA,CHHAGALKHAYA HEADMAN PARA,92.1996,21.78219,2512,1
HAIDAR NASHI MOHAMMADIA SUNNIA DAKHIL MADRASA,103124,Madrasha,BANDARBAN,LAMA,FASYAKHALI,92.20289,21.77281,2513,1
BANDARBAN ISLAMIA SENIOR MADRASHA,103105,Madrasha,BANDARBAN,BANDARBAN SADAR,BANDARBAN (PART),92.18392,22.28186,2514,1
ALIKADAM RESIDENTIAL SCHOOL,103087,School,BANDARBAN,ALIKADAM,TAIN,90.29817,22.26733,10638,1
ALIKADM GIRLS HIGH SCHOOL,103088,School,BANDARBAN,ALIKADAM,ALIKADAM,90.34561,22.35881,10639,1
ALIKADAM GOVT HIGH SCHOOL,103086,School,BANDARBAN,ALIKADAM,ALIKADAM,90.3185,22.35317,10640,1
CHAYKONG MODEL HIGH SCHOOL,103089,School,BANDARBAN,ALIKADAM,TAIN,90.34383,22.35353,10641,1
BAISHARI HIGH  SCHOOL,103129,School,BANDARBAN,NAIKHONGCHHARI,BAISHARI,92.26256,21.68242,10642,1
NAIKHONG CHARI GIRLS HIGH SCHOOL,103126,School,BANDARBAN,NAIKHONGCHHARI,NAIKHONGCHHARI,92.31193,21.64819,10643,1
GUMDHUM HIGH SCHOOL,103127,School,BANDARBAN,NAIKHONGCHHARI,GHUMDUM,92.18615,21.52031,10644,1
SONAICHARI JUNIOR HIGH SCHOOL,103131,School,BANDARBAN,NAIKHONGCHHARI,REJO,92.20279,21.36592,10645,1
CHAMBI HIGH SCHOOL,103109,School,BANDARBAN,LAMA,CHAMBI,92.19613,21.38151,10646,1
FAITONG  HIGH SCHOOL,103116,School,BANDARBAN,LAMA,FAITANG,92.17116,21.52516,10647,1
HAIDERNASHI HIGH SCHOOL,103115,School,BANDARBAN,LAMA,FASYAKHALI,92.19609,21.2316,10648,1
FASHIAKHALI HIGH SCHOOL,103110,School,BANDARBAN,LAMA,FASYAKHALI,92.17585,21.41979,10649,1
YEANGCHA JUNIOR HIGH SCHOOL,103118,School,BANDARBAN,LAMA,YANCHHA,92.07384,21.9048,10650,1
GAZALIA HIGH SCHOOL,103111,School,BANDARBAN,LAMA,GAJALIA,92.08829,21.89705,10651,1
LAMA ADARSHa GIRL'S HIGH SCHOOL,103113,School,BANDARBAN,LAMA,LAMA BAZAR PARA (PART),92.1064,21.81556,10652,1
LAMA GOVT. HIGH SCHOOL,103108,School,BANDARBAN,LAMA,NOA PARA,92.11563,21.68708,10653,1
LAMA MUKH HIGH SCHOOL,103117,School,BANDARBAN,LAMA,LAMAR MUKH PARA (PART),92.13845,21.66702,10654,1
RUPSIPARA JUNIOR HIGH SCHOOL,103114,School,BANDARBAN,LAMA,DARDARI,92.20447,21.78008,10655,1
HARGAZA JUNIOR HIGH SCHOOL,103120,School,BANDARBAN,LAMA,FASYAKHALI,92.20033,21.77183,10656,1
SARAI JONIOR HIGH SCHOOL,103112,School,BANDARBAN,LAMA,SARAI,92.22538,21.77178,10657,1
BALIPARA BAZAR JUNIOR HIGH SCHOOL,103147,School,BANDARBAN,THANCHI,THAINKHONG,92.21904,21.77239,10658,1
GOVT. THANCHI HIGH SCHOOL,103148,School,BANDARBAN,THANCHI,KHOWAKHYONG,92.21555,21.75057,10659,1
BEKHYONG JU HIGH SCHOOL,103138,School,BANDARBAN,ROWANGCHHARI,ALIKHONG,92.13627,21.68209,10660,1
ROWANGCHARI GOVT. HIGH SCHOOL,103137,School,BANDARBAN,ROWANGCHHARI,ROWANGCHHARI,92.2275,21.90179,10661,1
RUMA JUNIOR HIGH SCHOOL,103144,School,BANDARBAN,RUMA,POLI,92.21346,21.90048,10662,1
RUMA  GOVT HIGH  SCHOOL,103141,School,BANDARBAN,RUMA,POLI,92.38738,21.87742,10663,1
RUMA UPAJATIYO RESIDENCIAL HIGH SCHOOL,103143,School,BANDARBAN,RUMA,POLI,92.44691,21.81051,10664,1
BAGMARA JUNIOR HIGH SCHOOL,103095,School,BANDARBAN,BANDARBAN SADAR,MRUNG KHYONG,92.33772,22.16491,10666,1
CHEMEE DALU PARA HIGH SCHOOL,103102,School,BANDARBAN,BANDARBAN SADAR,CHEMI,92.40873,22.03685,10667,1
RAICHA HIGH SCHOOL,103101,School,BANDARBAN,BANDARBAN SADAR,BANDARBAN (PART),92.41148,22.046,10668,1
DONBOSCO HIGH SCHOOL,103091,School,BANDARBAN,BANDARBAN SADAR,JADHI PARA,92.40222,22.05726,10669,1
BANDARBAN GOVERMENT HIGH SCHOOL,103092,School,BANDARBAN,BANDARBAN SADAR,BANDARBAN (PART),92.19055,22.31799,10670,1
SANGu HIGH SCHOOL,103103,School,BANDARBAN,BANDARBAN SADAR,BUS STAND,92.28523,22.23591,10671,1
BANDARBAN GOVT.GIRLS HIGH SCHOOL,103093,School,BANDARBAN,BANDARBAN SADAR,RAJBARI AREA,92.2237,22.19686,10672,1
AL FARUK INSTITUTE,103099,School,BANDARBAN,BANDARBAN SADAR,ARMY PARA,92.22521,22.19735,10673,1
CHIMBUK JUNIOR HIGH SCHOOL,103100,School,BANDARBAN,BANDARBAN SADAR,BANDARBAN (PART),92.2264,22.19904,10674,1
BALAGHATA BILKIcH BEGUM HIGH SCHOOL,103097,School,BANDARBAN,BANDARBAN SADAR,BALAGHATA (PART),92.22552,22.19569,10675,1
SUALOK HIGH SCHOOL,103098,School,BANDARBAN,BANDARBAN SADAR,SUWALAK,92.23019,22.18984,10676,1
MRO RESIDENTIAL HIGH SCHOOL;,103096,School,BANDARBAN,BANDARBAN SADAR,SUWALAK,92.21992,22.19521,10677,1
SYED FAZLUL HOQUE DEGREE COLLEGE,100344,College,BARGUNA,PATHARGHATA,LEMUA (PART),89.990158,22.184103,36,1
TALTALI  DEGREE  COLLEGE,100110,College,BARGUNA,TALTALI,CHAR PARA,90.27464,22.10694,37,1
EUNUS ALI KHAN DEGREE COLLEGE,100111,College,BARGUNA,AMTALI,KALIBARI,90.27908,22.23294,38,1
AMTALI  DEGREE  COLLEGE,100112,College,BARGUNA,AMTALI,PURBA AMTALI,90.23567,22.05717,39,1
BAKUL NESSA MOHILA COLLEGE,100113,College,BARGUNA,AMTALI,CHOWRA,90.09094,22.02486,40,1
TIAKHALI COLLEGE,100115,College,BARGUNA,AMTALI,UTTAR TIAKHALI,90.11908,22.05889,41,1
HALTA DAWATALA WAZED ALI KHAN COLLEGE,100141,College,BARGUNA,BAMNA,DAUATALA,90.06214,22.28717,42,1
"BEGUM  FAIZUNNESA  MOILA  DEGREE COLLEGE,  BAMNA",100142,College,BARGUNA,BAMNA,KALAGACHHIA,90.02886,22.21939,43,1
BAMNA DEGREE COLLEGE,100143,College,BARGUNA,BAMNA,SHAFIPUR,90.09578,22.31508,44,1
BARGUNA GOVT. COLLEGE,100241,College,BARGUNA,BARGUNA SADAR,BANSHBANIA,90.02717,22.25939,45,1
BARGUNA GOVT. MOHILA COLLEGE,100242,College,BARGUNA,BARGUNA SADAR,PASCHIM CHAR COLONY,90.09547,22.31647,46,1
M. BALIATALI D.N. COLLEGE,100239,College,BARGUNA,BARGUNA SADAR,ROKSHACHANDI,90.02664,22.02678,47,1
AILA  COLLEGE,100243,College,BARGUNA,BARGUNA SADAR,ADABARIA,90.11883,22.09606,48,1
GHATBARIA ADARSHA COLLEGE,132006,College,BARGUNA,BARGUNA SADAR,TULSIBARIA,90.064,22.06192,49,1
KAUNIA COLLEGE,100294,College,BARGUNA,BETAGI,KAUNIA,90.12908,22.35203,50,1
CHANDKHALI MOSHARRAF HOSSAIN COLLEGE,100295,College,BARGUNA,BETAGI,CHANDKHALI,90.15331,22.37203,51,1
BETAGI DEGREE COLLEGE,100296,College,BARGUNA,BETAGI,BETAGI,90.14125,22.36458,52,1
DR. ASMAT ALI COLLEGE,100298,College,BARGUNA,BETAGI,DAKSHIN BETAGI,90.17025,22.41031,53,1
HAZI JALAL UDDIN MOHILA COLLEGE,100345,College,BARGUNA,PATHARGHATA,BARAITOLA (PART),90.14661,22.25731,54,1
PATHRGHATA COLLEGE,100346,College,BARGUNA,PATHARGHATA,GOTABACHA (PART),90.94983,22.10764,55,1
PANCHAKORALIA BAZAR BABU ALI DAKHIL MADRASHA,100087,Madrasha,BARGUNA,TALTALI,CHANDUKHALI,90.61847,23.54453,2515,1
WEST CHILA AMINIA FAZIL MADRASAH,100065,Madrasha,BARGUNA,AMTALI,PASCHIM CHILA,90.15325,22.08139,2516,1
HARIN KHOLA C.N.A DAKHIL MADRASAH,100066,Madrasha,BARGUNA,TALTALI,BARABAGI,90.28686,22.178,2517,1
MOHAMMADPUR MAHMUDIA DAKHIL MADRASAH,100067,Madrasha,BARGUNA,AMTALI,AMTALI,90.2935,22.14981,2518,1
TALTALI CHOTOVIZORA SHALEHIA ALIM MADRASAh,100068,Madrasha,BARGUNA,TALTALI,BARABAGI,90.09953,21.94292,2519,1
AMTALI BONDER HOSAINIA FAZIL MADRASHA,100069,Madrasha,BARGUNA,AMTALI,SADARPARA,90.35731,22.18461,2520,1
GAZIPUR SENIOR FAZIL (B.A)  MADRASHA,100070,Madrasha,BARGUNA,AMTALI,GAZIPUR,90.25592,22.09564,2521,1
KUTUBPUR FAZIL MADRASHA,100071,Madrasha,BARGUNA,AMTALI,KUKUA,90.22714,22.10267,2523,1
UTTAR KALAMPUR HATEMMIA DAKHIL MADRASA,100072,Madrasha,BARGUNA,AMTALI,KALIBARI,90.08142,21.96906,2524,1
ISLAMPUR  HASHANIA  DAKHIL  MADRASHA,100073,Madrasha,BARGUNA,AMTALI,PUJAKHOLA,90.22894,22.13983,2525,1
MOHISHKATA NESARIA DAKHIL MADRASA,100074,Madrasha,BARGUNA,AMTALI,ROYBALA,90.33394,22.16892,2526,1
MADHYA TARIKATA DAKHIL MADRASA,100075,Madrasha,BARGUNA,AMTALI,TARIKATA,90.31761,22.16797,2528,1
DAKKHIN  TAKTA BUNIA RAHMIA DAKHIL MADRASA,100076,Madrasha,BARGUNA,AMTALI,DAKSHIN TAKTABUNIA,90.28397,22.25603,2529,1
GULISHAKHALI DAKHIL MDRASHA,100077,Madrasha,BARGUNA,AMTALI,GULISAKHALI,90.27567,22.03894,2530,1
BALIATALI CHARAKGACHHIA DAKHIL MADRASHA,100078,Madrasha,BARGUNA,AMTALI,GHOPKHALI,90.30525,22.21483,2531,2
ZAKIR TABAK SALEHIA DAKHIL MADRASHA,100079,Madrasha,BARGUNA,TALTALI,BETHI PARA,90.30525,22.21483,2532,2
UTTAR KATHALIA DAKHIL MADRASAH,100080,Madrasha,BARGUNA,AMTALI,KATHALIA,90.20553,22.08108,2533,1
SOBHANPARA DakHIL MADRASAH,100081,Madrasha,BARGUNA,TALTALI,BARA NISHANBARIA CHAK (PART),90.31925,22.10758,2534,1
PURBA KEWABUNIA AKBARIA DAKHIL MADRASAH,100082,Madrasha,BARGUNA,AMTALI,KEOWABUNIA,90.15897,22.09606,2536,1
TEPURA AHMADIA DAKHIL MADRASA,100084,Madrasha,BARGUNA,AMTALI,TEPURA,90.09892,21.99728,2537,1
AMRAGACHIA SHALEHIA DAKHIL AMDRASAH,100085,Madrasha,BARGUNA,AMTALI,DAKSHIN CHUNAKHALI,90.33064,22.14947,2538,1
RAHMATPUR DAKHIL MADRASAH,100086,Madrasha,BARGUNA,AMTALI,HARI MRITYUNJOY,90.31836,22.23072,2540,2
PURBA PATAKATA MEHER ALI SENIOR MADRASHA,100088,Madrasha,BARGUNA,AMTALI,PATAKATA,90.31836,22.23072,2541,2
GHOP KHALI AL-AMIN DAKHIL MADRASAH,100090,Madrasha,BARGUNA,AMTALI,GHOPKHALI,90.31278,22.08842,2542,1
UTTAR TEPURA ALAHAI DAKHIL MADRASA,100091,Madrasha,BARGUNA,AMTALI,TEPURA,90.28006,22.20017,2543,2
GHATKHALI AMINUDDIN GIRLS ALIM MADRASHA,100094,Madrasha,BARGUNA,AMTALI,GHOTKHALI,90.28006,22.20017,2544,2
HARIDRABARIA D.S. DAKHIL MADRASHA,100095,Madrasha,BARGUNA,AMTALI,GULISAKHALI,90.26347,22.17181,2545,1
KALAGACHIA ABDUL GANI DAKHIL MADRASHA,100096,Madrasha,BARGUNA,AMTALI,KALAGACHHIA,90.29369,22.15608,2546,1
TALTALI SALEHIA ISLAMIA alim MADRASHA,100097,Madrasha,BARGUNA,TALTALI,BARABAGI,90.17467,22.09317,2547,1
"ALHAJ MD. SHAMIM AHSAN DAKHIL MADRASAH, MOHISDANGA",100099,Madrasha,BARGUNA,AMTALI,NACHNA PARA,90.32853,22.11814,2548,1
UTTAR KALAMPUR NURANI BALIKA DAKHIL MADRASHA,100100,Madrasha,BARGUNA,AMTALI,KALIBARI,90.26003,22.17361,2549,1
TAKTABUNIA NESARIA DAKHIL MADRASA,100101,Madrasha,BARGUNA,AMTALI,DAKSHIN TAKTABUNIA,90.24239,22.23881,2550,1
N.M.M. AMZADIA ALIM MADRASHA,100102,Madrasha,BARGUNA,AMTALI,KALIBARI,90.26464,22.26042,2551,1
UTTAR PASCHIM TIAKHALI KALAMIA DAKHIL MADRASHA,100104,Madrasha,BARGUNA,AMTALI,UTTAR TIAKHALI,90.08414,21.97856,2552,1
CHOTO BOGI GABTALI DAKHIL MADRASAH,100105,Madrasha,BARGUNA,TALTALI,CHAR PARA,90.25981,22.11861,2553,1
ABDUR GAFUR DAKHIL MADRASAH,100106,Madrasha,BARGUNA,TALTALI,BARA PARA,90.28131,22.25239,2554,1
LAXMIPURA DAKHIL MADRASHA,100128,Madrasha,BARGUNA,BAMNA,LAKSHMIPUR,90.03353,22.26869,2555,1
KHOLPATUA MAHMUDIA SINIOR MADRASHA,100129,Madrasha,BARGUNA,BAMNA,KHOLPATUA,90.06728,22.25111,2556,1
DODHI VANGA BARATALESHAR MOHISUNNAH ALIM MADRASA,100130,Madrasha,BARGUNA,BAMNA,BARA TALESHWAR,90.02664,22.26039,2557,1
UTTAR KAKCHIRA ALIM MADRASAH,100131,Madrasha,BARGUNA,BAMNA,KAKCHIRA,90.05294,22.21836,2558,1
VHAIJORA DOUATOLA MAHMUDIA DAKHIL MADRASHA,100132,Madrasha,BARGUNA,BAMNA,BHAIJORA,90.07494,22.26503,2559,1
NIZAMTALI ISLAMIA DAKHIL MADRASHA,100133,Madrasha,BARGUNA,BAMNA,NIJAMTALI,90.05064,22.33336,2560,1
BUKABUNIA MAHMUDIA DAKHIL MADRASHA,100134,Madrasha,BARGUNA,BAMNA,BUKABUNIA,90.0695,22.26492,2561,1
GHOPALKHALI  ISLAMIA dakhil MADRASAH,100135,Madrasha,BARGUNA,BAMNA,GHOPKHALI,90.02969,22.29519,2562,1
CHALAVANGA DARUSSALAM RASHIDIA ALIM MADRASHA,100136,Madrasha,BARGUNA,BAMNA,GUDIGHATA,90.05594,22.22722,2563,1
BAMNA SADAR   AR- RASHID FAZIL MADRASHA,100137,Madrasha,BARGUNA,BAMNA,KALAGACHHIA,90.03122,22.24128,2564,1
SONBUNIA DAWATALA AR-R ALIM MADRASHA,100138,Madrasha,BARGUNA,BAMNA,CHHANBUNIA,90.07328,22.3,2565,1
BAMNA MOHILA DAKHIL MADRASHA,100139,Madrasha,BARGUNA,BAMNA,SHAFIPUR,90.06481,22.3055,2566,1
PURBA HAZAR BIGHA BATTALA ALIM MADRASHA,100198,Madrasha,BARGUNA,BARGUNA SADAR,NAPITKHALI,90.20753,22.15075,2568,1
UTTER ANGAR PARA  ISLAMIA DAKHIL MADRASHA,100199,Madrasha,BARGUNA,BARGUNA SADAR,HARIDRABARIA,90.08283,23.34194,2569,1
PURBA GUDIGATA SALEHIA KAMIL MADRASHA,100200,Madrasha,BARGUNA,BARGUNA SADAR,BURIRKHAL,90.07044,22.06714,2570,1
NOLI CHAROK GASIA EATIM MANJIL ALIM MADRASHA,100201,Madrasha,BARGUNA,BARGUNA SADAR,NALI,90.14681,22.15994,2571,1
KOTBARIA KADARIA DAKHIL MADRASHA,100202,Madrasha,BARGUNA,BARGUNA SADAR,TULSIBARIA,90.13303,22.15225,2572,1
JANGALIA ISLAMIA DAKHIL MADRASAH,100203,Madrasha,BARGUNA,BARGUNA SADAR,JANGALIA,90.18036,22.13908,2573,1
KHAKBUNIA FAZIL MADRASAH,100204,Madrasha,BARGUNA,BARGUNA SADAR,CHARAK GACHHIA,90.16836,22.24319,2574,1
KEORAH BUNIA YATIMKHANA GIRLS ALI MADRASHA,100205,Madrasha,BARGUNA,BARGUNA SADAR,CHAR CHARAK GACHHIA,90.16069,22.19978,2575,1
BARGUNA DARUL ULuM NEsARIA KAMIL Model MADRASHA,100206,Madrasha,BARGUNA,BARGUNA SADAR,GOVT. GIRL'S HIGH SCHOOL,90.04483,22.08408,2576,1
NURE HERA DAKHIL MADRASHA,100207,Madrasha,BARGUNA,BARGUNA SADAR,DAKSHIN D.K.P. ROAD,90.17994,22.19203,2577,1
DHALUA HOSSAINIA DAKHIL MADRASHA,100208,Madrasha,BARGUNA,BARGUNA SADAR,HELIBANIA,90.21975,22.19619,2578,1
KROK  KERAMATIA ISLAMIA DAKHIL MADRASHA,100209,Madrasha,BARGUNA,BARGUNA SADAR,KORAK,90.06097,22.09797,2579,1
SHAHEBER HAWLA CHADBARU BALIKA DAKHIL MADRASAH,100210,Madrasha,BARGUNA,BARGUNA SADAR,GILATALI,90.16092,22.17061,2580,1
AZGAR KATI A.B.F.DAKHIL MADRASHA,100212,Madrasha,BARGUNA,BARGUNA SADAR,CHARAK GACHHIA,90.12139,22.15822,2581,1
CHARPARA MOHAMMADIA DAKHIL MADRASHA,100213,Madrasha,BARGUNA,BARGUNA SADAR,PALER BALIATALI,90.11061,22.15381,2582,1
BADARKHALI ISLAMIA ALIM MADRASAH,100214,Madrasha,BARGUNA,BARGUNA SADAR,BADARKHALI,90.09728,22.14964,2583,1
SONATALA ISLAMIA DAKHIL MADRASAH,100215,Madrasha,BARGUNA,BARGUNA SADAR,PADMA,90.11414,22.13783,2584,1
PURBA  KEORA BUNIA DAKHIL MADRASHA,100216,Madrasha,BARGUNA,BARGUNA SADAR,PORAKATA,90.16342,22.22397,2585,1
KEROABUNIA ISHAKIA ALIM  MADRASHA,100217,Madrasha,BARGUNA,BARGUNA SADAR,KEORABUNIA,90.04258,22.07233,2586,1
UTTAR KHAJURA ASAHAKIA SENIOOR MADRASHA,100218,Madrasha,BARGUNA,BARGUNA SADAR,KHAJURA,90.04286,22.03369,2587,1
AYLA PATAKATA DARUL SALEHIA DAKHIL MADRASHA,100219,Madrasha,BARGUNA,BARGUNA SADAR,AYLA PATAKATA,90.08692,22.20483,2588,1
KALIR TABAK AMIRIA DAKHIL MADRASHA,100220,Madrasha,BARGUNA,BARGUNA SADAR,BANSHBANIA,90.00258,22.00667,2589,1
DAKHIN KHAZUR TALA BAHRUL ULUM BALIKA DAKHIL MADRASAH,100221,Madrasha,BARGUNA,BARGUNA SADAR,KHAJURTALA,90.21225,22.17225,2590,1
GAZI MAHMUD DARUSSALAM DAKHIN MADRASHA,100222,Madrasha,BARGUNA,BARGUNA SADAR,GAZI MAMUD,90.15436,22.16567,2591,1
CHOTTO GOURICHANNA FAKIR BARI DAKHIL MADRASHA,100223,Madrasha,BARGUNA,BARGUNA SADAR,CHHOTA GAURICHANNA,90.07883,22.14886,2592,1
UTTER LAKURTALA MAFIZIA I. S. DHAKHIL MADRASAH,100224,Madrasha,BARGUNA,BARGUNA SADAR,AMTALI,90.20128,22.22419,2593,1
DIBA MAITHA SALEHIA DAKHIL MADRASHA,100225,Madrasha,BARGUNA,BARGUNA SADAR,MAITHA,90.12881,22.12108,2594,1
SHAHEBER HOWLA RAFIZA  DAKHIL MADRASHA,100226,Madrasha,BARGUNA,BARGUNA SADAR,GILATALI,90.11311,22.16169,2595,1
FULJUHRI PATAKATA NURIA DAKHIL MADRASHA,100227,Madrasha,BARGUNA,BARGUNA SADAR,PATAKATA,89.99997,22.03203,2596,1
PASCHIM  HEULIBUNIA DAKHIL MADRASHA,100228,Madrasha,BARGUNA,BARGUNA SADAR,HELIBANIA,90.11486,22.23233,2597,1
BAISHTABAK RODPARA DAKHIL MADRASHA,100229,Madrasha,BARGUNA,BARGUNA SADAR,PHULJHURI,90.11847,22.19608,2598,1
KATHAL TALI D.K.S.U DAKHIL MADARASHA,100230,Madrasha,BARGUNA,BARGUNA SADAR,DALBHANGA,90.07503,22.08311,2599,1
DAKHIN GARZAN BUNIA NERARIA DAKHIL MADRASHA,100231,Madrasha,BARGUNA,BARGUNA SADAR,NALTONA,90.16233,22.226,2600,1
NESARAIBAD FAZLUL  HAQUE DAKHIL MADRASHA,100232,Madrasha,BARGUNA,BARGUNA SADAR,ORBANIA,90.07561,22.20675,2601,1
ABDUL GANI HAOLADER DAKHIL MADRASHA,100233,Madrasha,BARGUNA,BARGUNA SADAR,DAKSHIN BARGUNA,90.09236,22.11353,2602,1
RAKKHA CHANDI ISLIMIN DAKHIL MADRASHA,100235,Madrasha,BARGUNA,BARGUNA SADAR,ROKSHACHANDI,90.13589,22.20017,2603,1
D. LATABARI ISLIMIA DAKHIL MADRASHA,100238,Madrasha,BARGUNA,BARGUNA SADAR,KEORABUNIA,90.05267,22.12031,2604,1
KARUNA MOKAMIA KAMIL MADRASHA,100273,Madrasha,BARGUNA,BETAGI,KARUNA,90.13761,22.33481,2605,1
CHHOPKHALI ZAHUR UDDIN FAZIL MADRASAHA,100274,Madrasha,BARGUNA,BETAGI,CHHOPKHALI DHAN M.CHATRA,90.11147,22.34569,2606,1
CHANDKHALI SRAFATIA DAKHIL MADRASAH,100275,Madrasha,BARGUNA,BETAGI,AYELA CHANDKHALI,90.23919,22.47478,2607,1
 RAHMATPUR ALIM MADRSAHA,100276,Madrasha,BARGUNA,BETAGI,GRED LAKSHMIPUR,90.19692,22.45664,2608,1
BIBICHINI DESHANTARKATI DAKHIL MADRASAH,100277,Madrasha,BARGUNA,BETAGI,BIBICHINI,90.19981,22.43297,2609,1
KATHAL TALI NESARIA DAKHIL MADRASAH,100278,Madrasha,BARGUNA,BETAGI,DAKSHIN BARA MOKAMIA,90.14747,22.37219,2610,1
DESHANTARKATTHI DARUR RAHMAT DAKHIL MADRASAH,100279,Madrasha,BARGUNA,BETAGI,DESANTARKATI,90.16397,22.33731,2611,1
KAZIRABAD ISLAMIA DAKHIL MADRASHA,100280,Madrasha,BARGUNA,BETAGI,KAZIRABAD,90.15847,22.25342,2612,1
GABTOLI IsLAMIA DAKHIL MADRASAH,100281,Madrasha,BARGUNA,BETAGI,GABTALI,90.21456,22.42144,2613,1
BETAGI SHALEHIA ALIM MADRASAH,100282,Madrasha,BARGUNA,BETAGI,BETAGI,90.21153,22.46211,2614,1
GRAMORDON HASHANIA DAKHIL MADRASAHA,100283,Madrasha,BARGUNA,BETAGI,GERA MARDAN,90.11747,22.35775,2615,1
RANIPUR GORIABDUNIA ESHAKIA ALIM MADRASAH,100284,Madrasha,BARGUNA,BETAGI,GARIABANIA,90.22728,22.47311,2616,1
DAKHIN BARA MOKAMIA TAHEERIA GIRLS DAKHIL MADRASAH,100285,Madrasha,BARGUNA,BETAGI,KARUNA,90.13297,22.27686,2617,1
FULTALA MOHAMMADIA ALIM AMDRASAH,100286,Madrasha,BARGUNA,BETAGI,PHULTALA,90.08619,22.22789,2618,1
DAKHIN BETAGI NADERTA DAKHIL MADRASAH,100287,Madrasha,BARGUNA,BETAGI,BETAGI,90.16489,22.41511,2619,1
ALHAZ MAYZUDDIN MRIDHA  DAKHIL MADRASAH,100288,Madrasha,BARGUNA,BETAGI,KARUNA JOAR,90.11197,22.32864,2620,1
KARUNA GRILS DAKHIL MADRASAH,100289,Madrasha,BARGUNA,BETAGI,KARUNA,90.20164,22.43961,2621,1
KARUNA HASANIA ALIM MADRASAHA,100290,Madrasha,BARGUNA,BETAGI,KARUNA,90.12497,22.35669,2622,1
DARUL ISLAM MOHILA ALIM MADRASHA,100291,Madrasha,BARGUNA,BETAGI,BASANDA BHOLANATHPUR,90.18936,22.45872,2623,1
R.L.G. F. ISLAMIA MAHILA DAKHIL MADRASAH,100292,Madrasha,BARGUNA,BETAGI,RANIPUR,90.16314,22.39408,2624,1
PATHARGHATA ADARSHA MOHILA DAKHIL MADRASAH,100343,Madrasha,BARGUNA,PATHARGHATA,BARAITALA(PART),90.13547,22.31583,2625,1
PUTHIMARA NACHNAPARA ALIM MADRASHA,100326,Madrasha,BARGUNA,PATHARGHATA,NACHNA PARA,89.95883,22.12094,2626,1
RUPDHAN KAKCHIRA NESARIA DAKHIL MADRASAH,100327,Madrasha,BARGUNA,PATHARGHATA,KAKCHIRA,90.91822,22.07156,2627,1
HARITANA SALEHIA DAKHIL MADRASHA,100328,Madrasha,BARGUNA,PATHARGHATA,HARITANA,89.95222,22.01614,2628,1
TAFALBARIA SALAMIA DAKHIL MADRASAH,100330,Madrasha,BARGUNA,PATHARGHATA,TAFALBARIA,89.96456,21.99233,2629,1
DARUL ISLAM NESARIA DAKHIL MADRASHA,100331,Madrasha,BARGUNA,PATHARGHATA,KIRANPUR,89.99319,22.18361,2630,1
RAIHANPUR SINIOR MADRASHA,100332,Madrasha,BARGUNA,PATHARGHATA,RAIHANPUR,89.971,22.16231,2631,1
KALMEGHA DAKHIL MADRASAH,100333,Madrasha,BARGUNA,PATHARGHATA,KALMEGHA,90.01592,22.17286,2632,1
KALIBARI K.D.S DAKHIL MADRASAH,100334,Madrasha,BARGUNA,PATHARGHATA,KALIBARI (PART),89.94875,22.02169,2633,1
JALIAGHATA KASEMIA DAKHIL MADRASAH,100335,Madrasha,BARGUNA,PATHARGHATA,RUPDON,90.911,22.07025,2634,1
NIZLATHI MARA DARUS SUNNAT ALIM MADRASAH,100336,Madrasha,BARGUNA,PATHARGHATA,NIJ LATHIMARA,89.97703,22.12494,2635,1
CHOTO PATHAR GHATA DAKHIL MADRASHA,100337,Madrasha,BARGUNA,PATHARGHATA,GHUTABACHHA,89.99008,22.18408,2636,1
DHAKHIN TALUKER CHARDUANI NASARIA DAKHIL MADRASHA,100338,Madrasha,BARGUNA,PATHARGHATA,TALUK CHAR DUANI,89.86906,22.08611,2637,1
DAKKIN GANPARA WAHEZIA DAKHIL MADRASHA,100339,Madrasha,BARGUNA,PATHARGHATA,CHAR DUANTI,89.96919,22.10283,2638,1
AMRATALA DARUL ULUM HOSSAINIA DAKHIL MADRASAH,100340,Madrasha,BARGUNA,PATHARGHATA,KALMEGHA,90.00097,22.12989,2639,1
SINGRA BUNIA UZIR ALI DAKHIL MADRASAH,100341,Madrasha,BARGUNA,PATHARGHATA,BAIN CHUTKI,89.94058,22.05475,2640,1
KATHAL TALI DAKHIL MADRASAH,100342,Madrasha,BARGUNA,PATHARGHATA,KANTHALTALI,89.97867,22.05989,2641,1
NAYAVIZORA B. N. A HIGH SCHOOL,100002,School,BARGUNA,TALTALI,BARABAGI,90.61028,23.53572,10679,1
DAKSHIN KATHALIA TAZEM ALI SECONDARY SCHOOL,100003,School,BARGUNA,AMTALI,KATHALIA,90.62333,23.56953,10680,1
ALIR BANDaR a m HIGH SCHOOL,100005,School,BARGUNA,TALTALI,ALIR BANDAR,90.63897,23.58072,10681,1
NALBUNIA AGAPARA JUNIOR HIGH SCHOOL,100006,School,BARGUNA,TALTALI,CHHOTA NISHANBARIA CHAK,90.60831,23.58269,10682,1
BEHALA HIGH SCHOOL,100007,School,BARGUNA,TALTALI,BEHALA,90.15525,22.08067,10683,1
LOCHA JUUNIOR HIGH SCHOOL,100009,School,BARGUNA,AMTALI,AMTALI,90.11653,21.96967,10684,1
BEGUM NOURJAHAN  GIRLS HIGH SCHOOL,100010,School,BARGUNA,TALTALI,BARABAGI,90.33444,22.13356,10685,1
AMTALI A.K. PILOT HIGH SCHOOL,100011,School,BARGUNA,AMTALI,CHOWRA,90.14764,22.01378,10686,1
CHOTONILGONG HIGH SCHOOL,100012,School,BARGUNA,AMTALI,CHALABHANGA,90.05122,21.93969,10687,1
SHAKHRIA HIGH SCHOOL,100014,School,BARGUNA,AMTALI,SAKHARIA,90.12597,22.01161,10688,1
GULSHA KHALIISHAQUE HIGH SCHOOL,100015,School,BARGUNA,AMTALI,GULISAKHALI,90.21683,22.11306,10689,1
CHARAKGACHIA SECONDARY SCHOOL,100016,School,BARGUNA,AMTALI,GHOPKHALI,90.08989,21.98839,10690,1
EAST CHILA RAHMANIA HIGH SCHOOL,100017,School,BARGUNA,AMTALI,PURBA CHILA,90.23281,22.14186,10691,1
TARIKATA SECONDARY SCHOOL,100018,School,BARGUNA,AMTALI,TARIKATA,90.2535,22.06267,10692,1
CHALAVANGA HIGH SCHOOL PRO,100020,School,BARGUNA,AMTALI,CHALABHANGA,90.32258,22.24739,10693,1
CHUNAKHALI HIGH SCHOOL,100021,School,BARGUNA,AMTALI,PASCHIM CHUNAKHALI,90.23356,22.22239,10694,1
MAFIZ UDDIN GIRLS PILOT HIGH SCHOOL,100022,School,BARGUNA,AMTALI,AMTALI,90.15417,22.08344,10695,1
GOZ-KHALI(MLT) HIGH SCHOOL,100023,School,BARGUNA,AMTALI,GOJKHALI,90.28642,22.06942,10696,1
KAUNIA IBRAHIM ACADEMY,100024,School,BARGUNA,AMTALI,CHOWRA,90.2075,22.06825,10697,1
ARPAN GASHIA HIGH SCHOOL,100026,School,BARGUNA,AMTALI,TARIKATA,90.28603,22.21472,10698,1
CHHOTO BOGI P.K HIGH SCHOOL,100027,School,BARGUNA,TALTALI,CHHOTA BAGI,90.2355,22.13844,10699,1
SHAHEED SOHRAWARDI SECONDARY SCHOOL,100028,School,BARGUNA,AMTALI,KUKUA,90.27114,22.21803,10700,1
KALIBARI JR GIRLS HIGH SCHOOL,100029,School,BARGUNA,AMTALI,KALIBARI,90.25808,22.12153,10701,1
HALDIA GRUDAL BANGO BANDU HIGH SCHOOL,100030,School,BARGUNA,AMTALI,HALDIA,90.08408,21.98497,10702,1
KUKUA ADARSHA HIGH SCHOOL,100031,School,BARGUNA,AMTALI,KUKUA,90.20636,22.09483,10703,1
GAZIPUR BANDAIR HIGH SCHOOL,100032,School,BARGUNA,AMTALI,GAZIPUR,90.13144,22.04683,10704,1
SOUTH RAOGHA NUR AL AMIN Secondary SCHOOL,100033,School,BARGUNA,AMTALI,DAKSHIN RAOGHA,90.32453,22.18031,10705,1
KHEKUANI HIGH SCHOOL,100034,School,BARGUNA,AMTALI,KHEKUANI,90.29025,22.21717,10706,1
KEWABUNIA SECONDARY SCHOOL,100035,School,BARGUNA,AMTALI,KEOWABUNIA,90.26992,22.10794,10707,1
ATHARAGACHIA SECONDARY SCHOOL,100037,School,BARGUNA,AMTALI,ATHARAGASHIA,90.28633,22.18158,10708,1
KALAGACHIA YUNUS A K JUNIOR HIGH SCHOOL,100038,School,BARGUNA,AMTALI,KALAGACHHIA,90.33531,22.166,10709,1
HALIMA KHATUN G R GIRLS HIGH SCHOOL,100039,School,BARGUNA,AMTALI,GULISAKHALI,90.29603,22.14406,10710,1
PATAKTA NURUL HAQUE JUNIOR HIGH SCHOOL,100041,School,BARGUNA,AMTALI,CHOWRA,90.25617,22.1745,10711,1
K H AKOTA JUNIOR HIGH SCHOOL,100042,School,BARGUNA,AMTALI,GULISAKHALI,90.30731,22.22986,10712,1
BAGIR HAT SECONDARY SCHOOL.,100043,School,BARGUNA,TALTALI,CHHOTA BAGI,90.33667,22.21444,10713,1
GHATKHALI HIGH SCHOOL,100044,School,BARGUNA,AMTALI,GHOTKHALI,90.259,22.24175,10714,1
LAUPARA SAGAR SAIKAT HIGH SCHOOL,100045,School,BARGUNA,TALTALI,BARA NISHANBARIA CHAK (PART),90.24094,22.223,10715,1
KHAGDON JUNIOR HIGH SCHOOL,100046,School,BARGUNA,AMTALI,KHAGDON,90.27178,22.16647,10716,1
ALL HAZ NASIR UDDIN JUNIOR SCHOOL,100047,School,BARGUNA,TALTALI,JHARAKHALI,90.24464,22.25378,10717,1
MODDHO CHANDRA JUNIOR HIGH SCHOOL,100048,School,BARGUNA,AMTALI,CHOWRA,90.11375,22.05894,10718,1
CHOTO BOGI COMDECA GIRLS SCHOOL,100049,School,BARGUNA,TALTALI,CHHOTA BAGI,90.25125,22.16497,10719,1
DAKSHIN TAKTABUIA SECONDARY SCHOOL,100050,School,BARGUNA,AMTALI,DAKSHIN TAKTABUNIA,90.06478,21.9115,10720,1
UTTAR TIAKHALI JUNIOR GIRLS HIGH SCHOOL,100051,School,BARGUNA,AMTALI,CHALABHANGA,90.314,22.20328,10721,1
PANCHAKORALIA GIRLS  HIGH SCHOOL,100053,School,BARGUNA,TALTALI,PANCHA KORALIA,90.156,21.986,10722,1
KUKUA IDEAL JUNIOR GIRLS SCHOOL,100054,School,BARGUNA,AMTALI,KRISHNANAGAR,90.26808,22.13806,10723,1
CHAWRA CHANDRA JUNIOR HIGH SCHOOL,100060,School,BARGUNA,AMTALI,CHANDRA,90.11242,22.04728,10724,1
TALUKDERPARA HIGH SCHOOL,100062,School,BARGUNA,TALTALI,BARABAGI,90.29119,22.10967,10725,1
APATUNNESA JUNIOR ACADEMY,100063,School,BARGUNA,AMTALI,SONAKHALI,90.22689,22.08425,10726,1
AMTALI MU. SECONDARY SCHOOL,131151,School,BARGUNA,AMTALI,AMTALI,90.29847,22.21722,10727,1
BUKABUNIA ADASHA SECONDARY SCHOOL,100117,School,BARGUNA,BAMNA,BATAJOR,90.23836,22.14253,10728,1
HOGALPATI DOUATALA UNION SECONDARY SCHOOL,100120,School,BARGUNA,BAMNA,HOGALPATI,90.23642,22.07814,10729,1
LATABUNIA SECONDARY SCHOOL,100121,School,BARGUNA,BAMNA,LATABUNIA,90.34306,22.20064,10730,1
JAFRAKHALI HIGH SCHOOL,100122,School,BARGUNA,BAMNA,CHHANBUNIA,90.21667,22.13803,10731,1
RAMNA SHER-E BANGLA SAMABAYA SECONDArY SCHOOL,100123,School,BARGUNA,BAMNA,RAMNA,90.29325,22.14975,10732,1
HALDA DOUATALA SAMABAY MULTILATERAL SECONDARY SCHOOL,100124,School,BARGUNA,BAMNA,DAUATALA,90.05417,22.31728,10733,1
UTTAR KAKCHIRA SECONDARY SCHOOL,100125,School,BARGUNA,BAMNA,KAKCHIRA,90.11283,22.22789,10734,1
KHOLPATUA ADARSHA JUNIOR SECONDARY SCHOOL,100127,School,BARGUNA,BAMNA,KHOLPATUA,90.0405,22.30425,10735,1
BARGUNA GOVT GIRL'S HIGH SCHOOL,100155,School,BARGUNA,BARGUNA SADAR,GOVT. GIRL'S HIGH SCHOOL,90.28019,22.26339,10736,1
BAMNA ASMATUNNESSA PILOT SECONDARY GIRLS SCHOOL,100119,School,BARGUNA,BAMNA,BAMNA,90.09103,22.30186,10737,1
MOHOSIN UDDIN MEMORIAL SECONDARY SCHOOL,100144,School,BARGUNA,BARGUNA SADAR,BURIRKHAL,90.07333,22.34217,10738,1
RAKHAINPARA B.P.S JUNIOR SECONDRY SCHOOL,100145,School,BARGUNA,BARGUNA SADAR,BALIATALI,90.11306,22.15722,10739,1
FULJHURE M. L SECONDARY SCHOOL,100146,School,BARGUNA,BARGUNA SADAR,PATAKATA,90.12742,22.15986,10740,1
LEMUA IDEAL HIGH SCHOOL,100147,School,BARGUNA,BARGUNA SADAR,ITABARIA,90.06214,22.30186,10741,1
UTTER  KUMAR KHALI  J.R.  GIRLS  SCHOOL,100148,School,BARGUNA,BARGUNA SADAR,BADARKHALI,90.05594,22.25939,10742,1
DEMA GULISHA KHALI HAKMIA HIGH SCHOOL,100149,School,BARGUNA,BARGUNA SADAR,GULISHAKHALI,90.13625,22.21339,10743,1
GOURICHANNA NAWAB SALIMULLAH HIGH SCHOOL,100150,School,BARGUNA,BARGUNA SADAR,PHULJHURI,90.04911,22.00383,10744,1
NIMTOLI AZIZABAD C M SECONDARY GIRL'S SCHOOL,100151,School,BARGUNA,BARGUNA SADAR,NIMTALI AZIZABAD,90.15911,22.21336,10745,1
CHALITATALI KB HIGH SCHOOL,100152,School,BARGUNA,BARGUNA SADAR,KUMRAKHALI,90.18292,22.19017,10746,1
BABUGANJ ADARSHA SECONDARY SCHOOL,100153,School,BARGUNA,BARGUNA SADAR,PADMA,90.09881,22.18486,10747,1
BARGUNA ZILLA SCHOOL,100154,School,BARGUNA,BARGUNA SADAR,HIGH SCHOOL SARAK,90.06044,22.18333,10748,1
GUDI GHATA HIGH SCHOOL,100156,School,BARGUNA,BARGUNA SADAR,BURIRKHAL,90.11256,22.21342,10749,1
BARGUNA COLLEGIATE HIGH SCHOOL,100157,School,BARGUNA,BARGUNA SADAR,PURBA COLLEGE PARA,90.06986,22.09656,10750,1
BARGUNA ADARSHA GIRL'S HIGH SCHOOL,100158,School,BARGUNA,BARGUNA SADAR,BANSHBANIA,90.08903,22.17497,10751,1
BARGUNA D.K.P SECONDARY  SCHOOL,100159,School,BARGUNA,BARGUNA SADAR,PASCHIM BARGUNA,90.02608,22.00292,10752,1
LAKURTALA SONAR BANGLA HIGH SCHOOL,100160,School,BARGUNA,BARGUNA SADAR,KHAJURTALA,90.12281,22.15592,10753,1
NASIMA MOZIBOR  GIRLS HIGH SCHOOL,100161,School,BARGUNA,BARGUNA SADAR,BARA GAURICHANA,90.16586,22.20903,10754,1
KARAITALA SONAKHALI GAGON MEMORIAL HIGH SCHOOL,100162,School,BARGUNA,BARGUNA SADAR,PURBA MAITHA,90.11461,22.15669,10755,1
NALI MUSLIM higher Secondary SCHOOL,100163,School,BARGUNA,BARGUNA SADAR,NALI,90.11806,22.15856,10756,1
TETUL BARIA HIGH SCHOOL,100164,School,BARGUNA,BARGUNA SADAR,PATAKATA,90.06103,22.12314,10757,2
SHIALIA MI HIGH SCHOOL,100165,School,BARGUNA,BARGUNA SADAR,PITAMBARGANJ,90.11917,22.19608,10758,1
NALI MAITHA HIGH SCHOOL,100166,School,BARGUNA,BARGUNA SADAR,MAITHA,90.144,22.187,10759,1
LEMUA KHAJURA PK. HIGH SCHOOL,100167,School,BARGUNA,BARGUNA SADAR,DHALUA,90.13736,22.15917,10760,1
BAWALKER D K JR HIGH SCHOOL,100168,School,BARGUNA,BARGUNA SADAR,BAOALKAR,90.03947,22.07325,10761,1
PARIRKHAL HIGH SCHOOL,100169,School,BARGUNA,BARGUNA SADAR,TALTALI,90.03903,22.19583,10762,1
BASHBUNIA HIGH SCHOOL,100171,School,BARGUNA,BARGUNA SADAR,BANSHBANIA,90.03653,22.02444,10763,1
BURIRCHAR A.M.G HIGH SCHOOL,100172,School,BARGUNA,BARGUNA SADAR,BURIR CHAR,90.07122,22.08367,10764,1
ROAD PARA SHAHID SMIRITY HIGH SCHOOL,100173,School,BARGUNA,BARGUNA SADAR,BURIRKHAL,90.07667,22.13303,10765,1
AYLA PATAKA SONAR BANGLA HIGH SCHOOL,100174,School,BARGUNA,BARGUNA SADAR,JANGALIA,90.07969,22.18153,10766,1
DALVANGA B M HIGH SCHOOL,100175,School,BARGUNA,BARGUNA SADAR,DALBHANGA,90.05186,22.04411,10767,1
FUL DHALUA KATHAL TALI HIGH SCHOOL,100176,School,BARGUNA,BARGUNA SADAR,DALBHANGA,90.12531,22.1425,10768,1
CHARAKGACHHIA PROGOTI HIGH SCHOOL,100177,School,BARGUNA,BARGUNA SADAR,CHARAK GACHHIA,90.19908,22.15314,10769,1
AMTALI A.K. ADRSHA HIGH SCHOOL,100178,School,BARGUNA,BARGUNA SADAR,HELIBANIA,90.15594,22.19267,10770,1
BARGUNA MAITHA HIGH SCHOOL,100179,School,BARGUNA,BARGUNA SADAR,PASCHIM MAITHA,90.21172,22.20128,10771,1
CHALITALI HIGH SCHOOL,100182,School,BARGUNA,BARGUNA SADAR,MAITHA,90.05033,22.13811,10772,1
GARJONBUNIA HIGH SCHOOL,100183,School,BARGUNA,BARGUNA SADAR,NIOGIR-ABAD,90.06103,22.12314,10773,2
GAZI MAHMUD JUNIOR HIGH SCHOOL,100184,School,BARGUNA,BARGUNA SADAR,GAZI MAMUD,90.04047,22.09075,10774,1
BALIATALI C.T. JUNIOR HIGH SCHOOL,100185,School,BARGUNA,BARGUNA SADAR,BALIATALI,90.0865,22.10283,10775,1
RAYBHOGE KADAMTALA JUNIOR SECONDARY SCHOOL,100186,School,BARGUNA,BARGUNA SADAR,DALBHANGA,90.13892,22.15039,10776,1
RAYER TABAK J S SECONDARY SCHOOL,100187,School,BARGUNA,BARGUNA SADAR,SONATALA,90.09683,22.07342,10777,1
LEMUA P.K.  HIGH SCHOOL,100188,School,BARGUNA,BARGUNA SADAR,ITABARIA,90.02475,22.03592,10778,1
NAPITKHALI PONCHOGRAM HIGH SCHOOL,100189,School,BARGUNA,BARGUNA SADAR,NAPITKHALI,90.00131,22.03322,10779,1
G N S ADARSHA JR GIRLS  HIGH SCHOOL,100190,School,BARGUNA,BARGUNA SADAR,GAZI MAMUD,90.05103,22.02561,10780,1
PURBO ROYBHOGE  HIGH SCHOOL,100191,School,BARGUNA,BARGUNA SADAR,CHARAK GACHHIA,90.04322,22.11242,10781,1
PURAKATA GIRLS HIGH SCHOOL,100192,School,BARGUNA,BARGUNA SADAR,PORAKATA,90.12019,22.09769,10782,1
CHOTO LABON GOLA HAZAR BIGHA HIGH SCHOOL,100193,School,BARGUNA,BARGUNA SADAR,CHHOTA LABANGOLA,90.19961,22.18456,10783,1
MANASATALI LAKURTALA  A B R HIGH SCHOOL,100194,School,BARGUNA,BARGUNA SADAR,MAITHA,90.18142,22.12967,10784,1
SONAKHALI GIRLS  HIGH SCHOOL,100195,School,BARGUNA,BARGUNA SADAR,PURBA KARAITALA,90.99658,22.02969,10785,1
POLICE LINE HIGH SCHOOL,100196,School,BARGUNA,BARGUNA SADAR,PASCHIM KARAITALA,90.05278,22.09778,10786,1
KEORABUNIA HIGH SCHOOL,100244,School,BARGUNA,BARGUNA SADAR,BURIR CHAR,90.12161,22.14603,10787,1
B. L. B. JUNIOR HIGH SCHOOL,100247,School,BARGUNA,BETAGI,DAKSHIN BHOLANATHPUR,90.16642,22.20722,10788,1
KADBHANU MEMORIAL GIRLS HIGH SCHOOL,100248,School,BARGUNA,BETAGI,CHANDKHALI,90.13217,22.15997,10789,1
SABUJ KANAN SECONDARY SCHOOL,100249,School,BARGUNA,BETAGI,KEORABANIA,90.11217,22.21181,10790,1
FULTALA BIBICHINI BIKASH HIGH SCHOOL,100251,School,BARGUNA,BETAGI,BIBICHINI,90.17006,22.27,10791,1
KAUNIA EMDADIA SECODARY SCHOOL,100252,School,BARGUNA,BETAGI,KAUNIA,90.09208,22.157,10792,1
KUMRAKHALI SHASHI BHUSHAN SECONDARY SCHOOL,100253,School,BARGUNA,BETAGI,KUMRAKHALI,90.19011,22.41494,10793,1
PUTIAKHALI ADARSHA SECONDaRY SCHOOL,100254,School,BARGUNA,BETAGI,GABUA PUTIAKHALI,90.15825,22.24869,10794,1
CHANDKHALI ISHAQUE HIGH SCHOOL,100255,School,BARGUNA,BETAGI,CHANDKHALI,90.16094,22.40247,10795,1
MOKAMIA HIGH SCHOOL,100257,School,BARGUNA,BETAGI,CHHOTA MOKAMIA,90.13792,22.31778,10796,1
TALGACHIA DESANTERKATI SECONDARY SCHOOL,100258,School,BARGUNA,BETAGI,TALGACHHIA,90.14097,22.28622,10797,1
HOSNABAD ADARSHA SECONDARY SCHOOL,100259,School,BARGUNA,BETAGI,HOSNABAD,90.18753,22.44489,10798,1
BALAI BUNIA HIGH SCHOOL,100260,School,BARGUNA,BETAGI,BALAIBANIA,90.15869,22.24747,10799,1
CHHOPKHALI HIGH SCHOOL,100261,School,BARGUNA,BETAGI,CHHOPKHALI,90.19386,22.4745,10800,1
JAMIR UDDIN SECONDARY SCHOOL,100262,School,BARGUNA,BETAGI,KALIKABARI,90.13767,22.37531,10801,1
WEST KARUNA HIGH SCHOOL,100263,School,BARGUNA,BETAGI,BAMANER KARUNA,90.22686,22.44933,10802,1
BHORA KALIKABARI HATEM ALI HIGH SCHOOL,100264,School,BARGUNA,BETAGI,DAKSHIN KALIKABARI,90.17814,22.35997,10803,1
KAUNIA SECONDARY GIRLS SCHOOL,100266,School,BARGUNA,BETAGI,KAUNIA,90.11753,22.29611,10804,1
KAZIRHAT HIGH SCHOOL,100267,School,BARGUNA,BETAGI,DAKSHIN KARUNA,90.16144,22.33086,10805,1
KAIALGHATA HIGH SCHOOL,100268,School,BARGUNA,BETAGI,KAIALGHATA,90.11744,22.28683,10806,1
DESHANTARKAT SECONDARY SCHOOL,100269,School,BARGUNA,BETAGI,DESANTARKATI,90.13033,22.34178,10807,1
FULTALA NURUNNESSA JUNIOR GIRLS SCHOOL,100270,School,BARGUNA,BETAGI,BIBICHINI,90.10717,22.26053,10808,1
RANIPUR KHONTAKATA DARUSSUNNAT JUNIOR SCHOOL,100272,School,BARGUNA,BETAGI,RANIPUR,90.14322,22.31933,10809,1
KAZIRABAD JUNIOR SECONDARY SCHOOL,131154,School,BARGUNA,BETAGI,KAZIRABAD,90.16917,22.41303,10810,1
KALMEGHA MUSLIM SECONDARY SCHOOL and college,100300,School,BARGUNA,PATHARGHATA,KALMEGHA,90.16358,22.41564,10811,1
MANIKKHALI RAHMANIA HIGH SCHOOL,100301,School,BARGUNA,PATHARGHATA,MANIKKHALI,89.95631,22.04147,10812,1
PATHARGHATA K. M. HIGH SCHOOL,100303,School,BARGUNA,PATHARGHATA,PATHARGHATA,89.96231,22.05519,10813,1
KAKCHIRA SECONDARY SCHOOL,100304,School,BARGUNA,PATHARGHATA,KAKCHIRA,90.12906,22.26786,10814,1
PATHARGHATA ADARShA GIRLs HIGH SCHOOL,100305,School,BARGUNA,PATHARGHATA,PATHARGHATA (PART),90.16494,22.41711,10815,1
TASLIMA MEMORIAL ACADEMY,100306,School,BARGUNA,PATHARGHATA,GHUTABACHHA,90.00039,22.09,10816,1
CHARDUANI HIGH SCHOOL and college,100307,School,BARGUNA,PATHARGHATA,CHAR DUANTI,89.96072,22.13058,10817,1
LEMUA ADARSHA SECONDARY SCHOOL,100308,School,BARGUNA,PATHARGHATA,LEMUA (PART),89.97153,22.04222,10818,1
NACHNAPARA MANIKKHALI HIGH SCHOOL,100309,School,BARGUNA,PATHARGHATA,JHAN PARA,90.01619,22.18106,10819,1
K.K. AZIZIA HIGH SCHOOL,100311,School,BARGUNA,PATHARGHATA,KALIBARI (PART),89.97033,22.04461,10820,1
RUPDHAN BANDAR AMIRIA SECONDARY SCHOOL,100312,School,BARGUNA,PATHARGHATA,RUPDON,90.92939,22.11936,10821,1
HATEMPUR SECONDARY SCHOOL,100313,School,BARGUNA,PATHARGHATA,PATHARGHATA,89.98875,22.1855,10822,1
HOGLAPASHA  SURENDRANATH HIGH SCHOOL,100314,School,BARGUNA,PATHARGHATA,HOGLA PASHA,89.96181,22.16147,10823,1
MADERTALI HIGH SCHOOL,100315,School,BARGUNA,PATHARGHATA,MADARTALI,90.92917,22.14672,10824,1
HARITANA  ADARSA secondary SCHOOL,100316,School,BARGUNA,PATHARGHATA,HARITANA,90.97219,22.10494,10825,1
KIRANPUR HIGH SCHOOL,100317,School,BARGUNA,PATHARGHATA,KIRANPUR,90.01244,22.13394,10826,1
SONARBANGLA HIGH SCHOOL,100318,School,BARGUNA,PATHARGHATA,BETMOR,89.96956,22.04258,10827,2
BAIN CHATKI SECONDARY SCHOOL,100319,School,BARGUNA,PATHARGHATA,KAKCHIRA,90.93442,22.09283,10828,1
TALUKCHARDUANI SECONDARY GIRLS SCHOOL,100321,School,BARGUNA,PATHARGHATA,TALUK CHAR DUANI,90.01536,22.20439,10829,1
GnANPARA KHALIFAR HAT HIGH SCHOOl,100322,School,BARGUNA,PATHARGHATA,DAKSHIN JHAN PARA,89.95642,22.01375,10830,1
H.K.B JUNIOR GIRLS HIGH SCHOOL,100323,School,BARGUNA,PATHARGHATA,HARITANA,89.98664,23.1785,10831,1
BARI AZAD SECONDARY SCHOOL,100324,School,BARGUNA,PATHARGHATA,BADURTALA,89.96731,22.18611,10832,1
D.SAYEDA FIROJA BEGUM SECONDARY GIRLS SCHOOL,100325,School,BARGUNA,PATHARGHATA,LEMUA (PART),90.0475,22.15803,10833,1
N.I.KHAN RESIDANTIAL PUBLIC SCHOOL  AND COLLAGE,131225,School,BARGUNA,PATHARGHATA,HOGLA PASHA,90.92533,22.08725,10834,1
KALMEGHA  GIRLS JUNIOR SECONDARY SCHOOL,131305,School,BARGUNA,PATHARGHATA,KALMEGHA,89.99678,22.10592,10835,1
TALTALI  SCHOOL AND COLLEGE,100025,School and College,BARGUNA,TALTALI,BARABAGI,90.23225,22.08192,25722,1
UTTAR SONAKHALI SCHOOL & COLLEGE,100116,School and College,BARGUNA,AMTALI,SONAKHALI,90.23642,22.06703,25723,1
BAMNA SARWARJAN MODEL  SCHOOL AND COLLEGE,100118,School and College,BARGUNA,BAMNA,SHAFIPUR,90.12075,22.15747,25724,1
BIBICHINI NIAMITO UNITED HIGH SCHOOL AND COLLEGE,100256,School and College,BARGUNA,BETAGI,BIBICHINI,90.1935,22.45811,25725,1
BETAGI  GIRLS  HIGHER   SECONDARY  SCHOOL,100299,School and College,BARGUNA,BETAGI,BANDAR BETAGI,90.198,22.43247,25726,1
KATHALTALI SAPTAGRAM HIGH SCHOOL and college,100310,School and College,BARGUNA,PATHARGHATA,KANTHALTALI,89.96956,22.04258,25727,2
GOVT.BAKERGONJ COLLEGE,100591,College,BARISAL,BAKERGANJ,RUNSI (PART),90.333511,22.542233,56,1
BABUGANJ DEGREE COLLEGE,100441,College,BARISAL,BABUGANJ,LOHALIA,90.356667,22.747002,57,1
ULANIA MUZZAFFAR KHAN DEGREE COLLEGE,100951,College,BARISAL,MEHENDIGANJ,ASA,90.610603,22.846802,58,1
M. A . MALEK DEGREE COLLEGE,100595,College,BARISAL,BAKERGANJ,CHHOTA RAGHUNATHPUR,90.337318,22.53908,59,1
SHAHEED ABDUR ROB SERNIABAT DEGREE COLLEGE,100382,College,BARISAL,AGAILJHARA,MANASI PHULASREE,90.15572,22.969,60,1
ratna amin MOHILA COLLEGE,100587,College,BARISAL,BAKERGANJ,BHAR PASHA PURBA,90.39136,22.6325,61,1
ATAHAR UDDIN HOWLADER COLLEGE,100588,College,BARISAL,BAKERGANJ,BALAIKATHI,90.48969,22.59892,62,1
SYED AFSAR ALI DEGREE COLLEGE,100589,College,BARISAL,BAKERGANJ,MAHESHPUR,90.44178,22.65208,63,1
KALASKATI DEGREE  COLLAGE,100590,College,BARISAL,BAKERGANJ,KALASKATI,90.43053,22.53628,64,1
AL-HAJ HAZRAT ALI  COLLEGE,100592,College,BARISAL,BAKERGANJ,KOSHABAR,90.21825,22.47619,65,1
C. N. B. DEGREE COLLEGE,100593,College,BARISAL,BAKERGANJ,NIAMATI,90.34008,22.53439,66,1
HELAL  UDDIN AHMED COLLEGE,100594,College,BARISAL,BAKERGANJ,BHATSALA,90.41594,22.60953,67,1
BEGUM SAMSUDDIN TALUKDER COLLEGE,100596,College,BARISAL,BAKERGANJ,CHARADI,90.23919,22.49575,68,1
BAKERGANJ  ISLAMIA  MOHILA  COLLEGE,100597,College,BARISAL,BAKERGANJ,NANDA PARA,90.36986,22.5145,69,2
KABAI UNION ISLAMIA  degree pro COLLEGE,100598,College,BARISAL,BAKERGANJ,PURBA LAKSHMI PASHA,90.47028,22.61994,70,1
ABUL HOSSAIN KHAN COLLEGE,100599,College,BARISAL,BAKERGANJ,BARA KRISHNAKATI,90.19639,22.48306,71,1
AGARPUR COLLEGE,100440,College,BARISAL,BABUGANJ,AGARPUR,90.25714,22.75481,72,1
ABUL KALAM DEGREE COLLEGE RAKUDIA,100442,College,BARISAL,BABUGANJ,RAKUDIA,90.32089,22.89178,73,1
BISHARKANDI SHER E BANGLA DEGREE COLLEGE,100656,College,BARISAL,BANARI PARA,UMARERPAR,90.15606,22.82522,74,1
BANARIPARA DEGREE COLLEGE,100657,College,BARISAL,BANARI PARA,COLLEGE PARA,90.16111,22.78856,75,1
GOVT FAZLUL HUQ COLLEGE,100658,College,BARISAL,BANARI PARA,CHAKHAR,90.12358,22.80653,76,1
SYED BAZLUL HAQUE COLLEGE,100659,College,BARISAL,BANARI PARA,BAISARI,90.07897,22.79775,77,1
SAYEDKATI  UNION ISLAMIA COLLEGE,100660,College,BARISAL,BANARI PARA,MASJIDBARI,90.14872,22.796,78,1
RUPATALI JAGUA COLLEGE,100866,College,BARISAL,BARISAL SADAR (KOTWALI),RUPATALI HIGH SCHOOL,90.31078,22.74269,79,1
GOVT. BARISAL COLLEGE,100867,College,BARISAL,BARISAL SADAR (KOTWALI),ALEKANDA ROAD (PURB SID),90.45906,22.73717,80,1
BARISAL  ISLAMIA     COLLEGE,100868,College,BARISAL,BARISAL SADAR (KOTWALI),UTTAR AMANATGANJ UTTAR,90.3835,22.75278,81,1
ABDUR ROB SERNIABAT COLLEGE,100869,College,BARISAL,BARISAL SADAR (KOTWALI),PURANA PARA CITY WARD,90.36853,22.73425,82,1
"BARISAL CITY COLLEGE(DAY-NIGHT) ,BARISAL",100870,College,BARISAL,BARISAL SADAR (KOTWALI),SADAR ROAD (PART),90.45861,22.74006,83,1
A.KARIM IDEAL COLLEGE,100871,College,BARISAL,BARISAL SADAR (KOTWALI),HATKHOLA ((6 WRD PRT),90.33472,22.6695,84,1
MAHANAGAR COLLEGE,100872,College,BARISAL,BARISAL SADAR (KOTWALI),HARI PASHA,90.36622,22.70814,85,1
BEGUM TOFAZZAL HOSSAIN MANIK MOHILA COLLEGE,100873,College,BARISAL,BARISAL SADAR (KOTWALI),DAKSHIN ALEKANDA 12-NO WARD,90.37981,22.71758,86,1
AMRITLAL DEYCOLLEGE,100874,College,BARISAL,BARISAL SADAR (KOTWALI),JHAUTALA ROAD,90.36639,22.72386,87,1
GOVT.B.M COLLEGE,100875,College,BARISAL,BARISAL SADAR (KOTWALI),B. M. COLLEGE CAMPUS,90.37836,22.70872,89,1
GOVT. SYED HATEM ALI COLLEGE,100876,College,BARISAL,BARISAL SADAR (KOTWALI),MUSLIM GOROSTHAN ROAD (PART),90.32981,22.71003,90,1
BARISAL GOVT. WOMENS COLLEGE,100877,College,BARISAL,BARISAL SADAR (KOTWALI),AGARPUR ROAD,90.35694,22.68686,91,1
SAHID ZIAUR RAHMAN DEGREE COLLEGE,100878,College,BARISAL,BARISAL SADAR (KOTWALI),BISARAD,90.36564,22.71044,92,1
"GOVT. COMMERCIAL INSTITUTE, BARISAL",132618,College,BARISAL,BARISAL SADAR (KOTWALI),ALEKANDA ROAD (PURB SID),90.37475,22.64842,93,1
GOVT.GOURNADI COLLEGE,100703,College,BARISAL,GAURNADI,SAORA,90.21844,22.00869,94,1
BARTHI DEGREE COLLEGE,100705,College,BARISAL,GAURNADI,BARTHI,90.24583,22.95581,95,1
MAHILARA DEGREE COLLEGE,100706,College,BARISAL,GAURNADI,MAHILARA,90.22383,22.06269,96,1
NIZAMUDDIN degree COLLEGE,100704,College,BARISAL,GAURNADI,HOSNABAD,90.32153,22.94533,98,1
HIZLA DEGREE COLLEGE,100736,College,BARISAL,HIZLA,BARA JALIA,90.46536,22.91997,99,1
MULADI COLLEGE,101013,College,BARISAL,MULADI,TERACHARA (EAST),90.30792,22.97322,100,1
CHAR KALEKHAN ADARSHA COLLEGE,101014,College,BARISAL,MULADI,CHAR KALEKHAN,90.37436,22.84028,101,1
NAZIRPUR UNITED (DEGREE) COLLEGE,101015,College,BARISAL,MULADI,HOSNABAD (CHAR NAZIRPUR),90.31564,22.963,102,1
PURBO HOSNABAD MAHABIDDALYA,101016,College,BARISAL,MULADI,PURBA HOSNABAD,90.41692,22.03694,103,1
ARIF MAHNOOD degree COLLEGE,101017,College,BARISAL,MULADI,DECREER CHAR,90.37394,22.98422,104,1
HAZI SYED BADRUL HOSSAIN COLLEGE,101018,College,BARISAL,MULADI,LAKSHMIPUR,90.40928,22.91333,105,1
MEHENDIGONJ MOHILA MOHABIDHALAY,100948,College,BARISAL,MEHENDIGANJ,CHAR HOGLA(PART),90.43375,22.81553,106,1
patarhat rc college,100949,College,BARISAL,MEHENDIGANJ,BAHADURPUR,90.42819,22.78603,107,1
EKOTA  degree COLLEGE,100950,College,BARISAL,MEHENDIGANJ,CHAR SANTOSHPUR,90.41778,22.83294,108,1
BHASANCHAR BIDDANANDAPUR COLLEGE,100952,College,BARISAL,MEHENDIGANJ,DASH HAZAR BIGHA,90.57092,22.81886,109,1
SHAHEED SHARINA DEGREE COLLEGE,101095,College,BARISAL,WAZIRPUR,MUNSHIR TALUK,90.27133,22.89303,110,1
GUTIA IDEAL DEGREE COLLEGE,101096,College,BARISAL,WAZIRPUR,GUTHIA,90.24356,22.8855,111,1
SYED AZIZUL HAQUE COLLEGE habibpur,101097,College,BARISAL,WAZIRPUR,KESHABKATI,90.20539,22.88211,112,1
DHAMURA DEGREE COLLEGE,101098,College,BARISAL,WAZIRPUR,DHAMURA,90.17131,22.86456,113,1
UZIRPUR AL- HAZ B.N. KHAN COLLEGE,101099,College,BARISAL,WAZIRPUR,UZIRPUR,90.06394,22.88822,114,1
UJIRPUR MOHILA COLLEGE,101100,College,BARISAL,WAZIRPUR,UZIRPUR,90.14467,22.88269,115,1
SHER E BANGLA DEGREE COLLEGE,101101,College,BARISAL,WAZIRPUR,PURBA MUNDA PASHA,90.24439,22.7815,116,1
HAJEE TAHERUDDIN ISLAMIA DEGREE COLLEGE,101102,College,BARISAL,WAZIRPUR,BHABANIPUR,90.14656,22.86061,117,1
JUGIR KANDA MOHILA MAHABIDDYALAYE,101103,College,BARISAL,WAZIRPUR,JOGIRKANDA,90.18744,22.89136,118,1
BARAKHOTA UNION DEGREE COLLEGE,101104,College,BARISAL,WAZIRPUR,CHAULAHAR,90.24856,22.82139,119,1
SATLA IDEL COLLEGE,101105,College,BARISAL,WAZIRPUR,SATLA,90.24597,22.81808,120,1
JALLA UNION IDEAL COLLEGE,101106,College,BARISAL,WAZIRPUR,JALLA,90.272,22.84639,121,1
BAGDHA  ALIM  MADRASHA,100380,Madrasha,BARISAL,AGAILJHARA,BAGDHA,89.99272,22.08606,2642,1
AMBOULA KERAMATIA ALIM MADRASHA,100377,Madrasha,BARISAL,AGAILJHARA,AMBALA,89.96697,22.14303,2643,1
KHAJURIA MOHILA DAKHIL MADRASHA,100381,Madrasha,BARISAL,AGAILJHARA,BAGDHA,90.13142,22.99444,2644,1
GOILA DAKHIL MADRASAH,100379,Madrasha,BARISAL,AGAILJHARA,KALU PARA,90.19278,22.93519,2645,1
BARAHAZAR BARIALI G.A.D. MADRASAH,100378,Madrasha,BARISAL,AGAILJHARA,BAROHAZAR BARIALI,90.14422,22.93003,2646,1
RAMNAGOR HOSSAINIA SENIOR MADRASAH,100523,Madrasha,BARISAL,BAKERGANJ,RAMNAGAR,90.46161,22.60844,2647,1
JIRAIL MAZIDIA AZIZIA BALIKA DAKHIL MADRASHA,100524,Madrasha,BARISAL,BAKERGANJ,JIRAIL,90.47506,22.63483,2648,1
DAKKHIN SAHEBPUR MOHILA DAKHIL MADRASHA,100525,Madrasha,BARISAL,BAKERGANJ,SAHEBPUR,92.00389,22.39192,2649,1
CHAGALDI NESARIA DAKHIL MADRASHA,100526,Madrasha,BARISAL,BAKERGANJ,CHHAGALDI,90.48528,22.58997,2650,1
BALIGRAM MRIDHABARI DAKHIL MADRASHA,100527,Madrasha,BARISAL,BAKERGANJ,BALIGRAM,90.46656,22.56964,2651,1
ZIRAIL AZIZIA FAZIL MADRASHA,100528,Madrasha,BARISAL,BAKERGANJ,PATKATI,90.24711,22.50164,2652,1
MOZAHEDIA KERAMOTIA DAKHIL MADRASHA,100529,Madrasha,BARISAL,BAKERGANJ,RANGASREE PURBA,90.49153,22.57381,2653,1
BAKERGONG ISLAMIA FAZIL MAD.,100530,Madrasha,BARISAL,BAKERGANJ,SAHEBGONJ,90.35633,22.63444,2654,1
DUDHAL ISLAMIA FAZIL MADRASHA,100531,Madrasha,BARISAL,BAKERGANJ,BARA DUDHAL,90.39211,22.38736,2655,1
MASUDPUR KADERIA DAKHIL MADRASA,100532,Madrasha,BARISAL,BAKERGANJ,SHYAMPUR,90.41833,22.49722,2656,2
ROKONUDDIN ISLAMIA SALEHIA FAZIL MADRASHA,100533,Madrasha,BARISAL,BAKERGANJ,RAGHUNATHDI,90.48519,22.57442,2657,1
KHODA BOX KATHI NESARIA ALIM MADRASAH,100534,Madrasha,BARISAL,BAKERGANJ,CHUNAKHALI,90.33303,22.54328,2658,1
CHARADI NESARIA (CN) SENIOR MADRASAH,100535,Madrasha,BARISAL,BAKERGANJ,CHARADI,90.34203,22.54217,2659,1
PATKATHI  NESARIA   ALIM  MADRASHA,100536,Madrasha,BARISAL,BAKERGANJ,PATKATI,90.43536,22.58014,2660,1
DATTERABAD KALENGA NURIA DAKHIL MADRASHA,100537,Madrasha,BARISAL,BAKERGANJ,DATTERABAD,90.30014,22.54081,2661,1
UTTAMPUR NURIA SENIOR FAZIL MADRASHA,100538,Madrasha,BARISAL,BAKERGANJ,UTTAMPUR,90.47281,24.04333,2662,1
DUDHALMOW FAYAZ HOSSAN FAZIL MADRASHA,100539,Madrasha,BARISAL,BAKERGANJ,DUDHAL MOU,90.44708,22.52964,2663,1
DHAPORKATI NURIA DHAKIL MADRASHA,100540,Madrasha,BARISAL,BAKERGANJ,KALASKATI,90.36514,22.62758,2664,1
KALASKATI SALEHIH ALIM MADRASHA,100541,Madrasha,BARISAL,BAKERGANJ,KALASKATI,90.47786,22.57372,2665,1
MUHAMMADIA FAZIL MADRASHA,100542,Madrasha,BARISAL,BAKERGANJ,PADRI SHIBPUR,90.45858,22.60794,2666,1
PURBA DAWKATI MOHAMMADIA DAKHIL MADRASHA,100543,Madrasha,BARISAL,BAKERGANJ,DAOKATI,90.45214,22.62372,2667,1
BIHARIPUR HOSAINIA ALIM MADRSAH,100544,Madrasha,BARISAL,BAKERGANJ,BIHARIPUR,90.34597,22.48139,2668,1
EAST CHARADI DARUS SUNNAT DAKHIL MADRASHA,100545,Madrasha,BARISAL,BAKERGANJ,CHARADI,90.40631,22.52806,2669,1
SHAHEDPUR MADINATUL ULUM ALIM MADRASHA,100546,Madrasha,BARISAL,BAKERGANJ,SAHEBPUR,90.36961,22.52603,2670,1
DoKkHIN KAJLAKATHI MOHSENIA ALIM MADRASAH,100547,Madrasha,BARISAL,BAKERGANJ,DAKSHIN KAJLAKATI,90.30344,22.49647,2671,1
MADHYA BADALPARA  EMRANIA DAKHIL MADRASHAH,100548,Madrasha,BARISAL,BAKERGANJ,BADAL PARA,90.32367,22.56089,2672,1
HANUA LAKSHMIPASHA MUHAMMADIA ALIM MADRASHA,100549,Madrasha,BARISAL,BAKERGANJ,PURBA LAKSHMI PASHA,90.40086,22.61283,2674,1
SHIAL GHUNI DAKHIL MADRASHA,100550,Madrasha,BARISAL,BAKERGANJ,SIALGHUNI,90.36081,22.56678,2675,1
WEST CHARADI SALEHIA ALIM MADRASHA,100551,Madrasha,BARISAL,BAKERGANJ,PASCHIM CHARADI,90.4845,22.59142,2676,1
BIRANGAL DARUSSUNNAT NESARIA DAKHIL MADRASHA,100552,Madrasha,BARISAL,BAKERGANJ,BIRANGAL,90.41944,22.38656,2677,1
PURBA BADAL PARA DAKHIL MADRASHA,100553,Madrasha,BARISAL,BAKERGANJ,BADAL PARA,90.41614,22.52694,2678,1
BHANDARI KATI DAKHIL MADRASHA,100554,Madrasha,BARISAL,BAKERGANJ,GARURIA,90.42333,22.48439,2679,1
DEWLI MOHAMMADIA ALIM MADRASHA,100555,Madrasha,BARISAL,BAKERGANJ,DEULI,90.45031,22.54967,2680,1
BARA RAGHUNATHPUR SALEHIA DAKHIL MDRASHA,100556,Madrasha,BARISAL,BAKERGANJ,RAGHUNATHPUR,90.36047,22.12381,2681,1
CHARAMADDI KHAN FAJIL ROB CHOW.ALIM MADRASHA,100557,Madrasha,BARISAL,BAKERGANJ,CHAR AMADDI,90.29544,22.55622,2682,1
CHAR GAZALIA SALEHIA ALIM MADRASHA,100558,Madrasha,BARISAL,BAKERGANJ,CHAR GAZALIA,90.42789,22.38614,2683,1
KRISHNA NAGAR HASAN NAGAR ISLAMIA DHAKIL MADRASHA,100559,Madrasha,BARISAL,BAKERGANJ,KRISHNANAGAR,90.44667,22.56017,2684,2
BOALIA NESARIA DAKHIL MADRASHA,100560,Madrasha,BARISAL,BAKERGANJ,TABIRKATI,90.38078,22.55169,2685,1
BHABANIPUR DARUL ISLAM DAKHIL  MADRASHA,100562,Madrasha,BARISAL,BAKERGANJ,BHABANIPUR,90.24733,22.46478,2686,1
POSCHIM SHEAYAMPUR B.M ALIM MADRASAH,100563,Madrasha,BARISAL,BAKERGANJ,SHYAMPUR,90.35425,22.70536,2687,1
UTTAR KAJLAKATI HAMIDIA DAKHIL MADRASHA,100564,Madrasha,BARISAL,BAKERGANJ,UTTAR KAJLAKATI,90.42886,22.46631,2688,1
MOHAMMADIA GIRLS DAKHIL MADRASAH,100565,Madrasha,BARISAL,BAKERGANJ,PADRI SHIBPUR,90.27483,22.51089,2689,1
SOUTH NARANGOL NESARMOHAL D S DAKHIL MADRASHA,100566,Madrasha,BARISAL,BAKERGANJ,DAKSHIN NARANGAL,90.34797,22.58978,2690,1
EAST MAHESHPUR HASSANIA FAZIL MADRASAH,100567,Madrasha,BARISAL,BAKERGANJ,PURBA MAHESHPUR (PART),90.29389,22.51708,2691,1
SUNDAR KATHI GARIBULLA DAKHIL MADRASHA,100568,Madrasha,BARISAL,BAKERGANJ,SUNDARKATI,90.29172,22.54456,2692,1
HANUA PEARPUR SALEHIA DAKHIL MADRASHA,100570,Madrasha,BARISAL,BAKERGANJ,HANUA,90.48922,22.60381,2693,1
KATHALIA ISLAMIA DARUSSUNNATI DAKHIL MADRASHA,100571,Madrasha,BARISAL,BAKERGANJ,KANTHALIA,90.42861,22.81064,2694,2
CHUNAKHALI BALIKA DAKHIL MADRASAH.,100572,Madrasha,BARISAL,BAKERGANJ,CHUNAKHALI,90.35425,22.49972,2695,1
GOBINDOPUR SALEHIA DAKHIL MADRASHA,100573,Madrasha,BARISAL,BAKERGANJ,GOBINDAPUR,90.25981,22.49789,2696,1
BARA PUIAUTA  GIRLS DAKHIL  MADRASHA,100574,Madrasha,BARISAL,BAKERGANJ,BARA PUIAUTHA,90.40197,22.56625,2697,1
