inst name, eiin, inst_type, district, thana, mauza, long, lat, serial,isUnique
GOVT P.C COLLEGE,114830,College,BAGERHAT,BAGERHAT SADAR,PASCHIM HARINKHANA,88.97317,23.75419,1,1
BAGERHAT GOVT. MOHILA COLLEGE,114831,College,BAGERHAT,BAGERHAT SADAR,DAKSHIN SORUI (PASCHIM),89.00453,23.73556,2,1
KHAN JAHAN ALI DEGREE COLLEGE,114832,College,BAGERHAT,BAGERHAT SADAR,PASCHIM SONATALA,89.78703,22.66592,3,1
BELAYET HOSSAIN DEGREE COLLEGE,114833,College,BAGERHAT,BAGERHAT SADAR,DEBPARA,89.82228,22.68456,4,1
KALIDAS BARAL SMRITI MAHABIDALAYA,114877,College,BAGERHAT,CHITALMARI,DARI UMAJURI,89.84539,22.72281,5,1
BANGA BANDHU MOHILA COLLEGE,115023,College,BAGERHAT,CHITALMARI,ARUABANNI,89.87939,22.83108,6,1
SHERA BANGLA COLLEGE,114876,College,BAGERHAT,CHITALMARI,KHARAMKHALI,89.87228,22.85756,7,1
FAKIRHAT FAZILATUNNESA MUJIB MOHILA DEGREE COLLEGE,114921,College,BAGERHAT,FAKIRHAT,BAHIRDIA,89.64764,22.68958,8,1
KAZI AZHAR ALI COLLEGE,114922,College,BAGERHAT,FAKIRHAT,ATTAKI,89.73103,22.76397,9,1
SHAHEED SMRITI DEGREE COLLEGE,114923,College,BAGERHAT,FAKIRHAT,NOAPARA,89.69003,22.814,10,1
KACHUA DEGREE COLLEGE,114953,College,BAGERHAT,KACHUA,KACHUA,89.87597,22.63056,11,1
SHOHID SHAIKH ABU NASSER MOHILA DEGREE COLLEGE,114952,College,BAGERHAT,KACHUA,KHALISHAKHALI,89.87803,22.65183,12,1
LAILA  AZAD  COLLEGE,114981,College,BAGERHAT,MOLLAHAT,KULIA,89.76933,22.90014,13,1
 KHALILUR RAHMAN COLLEGE,MOLLAHAT,114983,College,BAGERHAT,MOLLAHAT,UDAYPUR BARABAGH BOALIA,89.75819,22.89317,14,1
JATIR JANAK BANGABANDHU WOMAN COLLAGE,114984,College,BAGERHAT,MOLLAHAT,KAHALPUR,89.82319,22.92519,15,1
BANGABANDHU MOHILA  COLLEGE,114875,College,BAGERHAT,MONGLA,PURBA SELABUNIA,89.62144,22.47881,16,1
MONGLA COLLEGE,115021,College,BAGERHAT,MONGLA,PURBA SELABUNIA,89.6065,22.47411,17,1
DIGRAJ DEGREE MAHAVIDYALAYA,115022,College,BAGERHAT,MONGLA,BIDYARBAHAN DIGRAJ,89.60536,22.52472,18,1
MA  BABAR RAIN COLLEGE,115159,College,BAGERHAT,MORRELGANJ,BAHARBUNIA,89.85308,22.36711,19,1
DR.KHALILUR  RAHMAN  COLLEGE,MORRELGANJ,115157,College,BAGERHAT,MORRELGANJ,BALAIBUNIA,89.87972,22.50042,20,1
RAWSHANARA MEMORIAL WOMEN DEGREE COLLEGE,115155,College,BAGERHAT,MORRELGANJ,PURBA FAKIRER TAKIA,89.8475,22.47169,21,1
SINGJORE  GOPALPUR  COLLEGE,131992,College,BAGERHAT,MORRELGANJ,SINGJOR,89.94906,22.50075,22,1
SALIMABAD DEGREE COLLEGE,115154,College,BAGERHAT,MORRELGANJ,DAIBAGNYAHATI,89.91536,22.50761,23,1
DAKSHIN BANGLA COLLAGE,115158,College,BAGERHAT,MORRELGANJ,DAKSHIN PHULHATA,89.72167,22.49431,24,1
A R KHAN COLLEGE,115156,College,BAGERHAT,MORRELGANJ,CHALITABUNIA,89.86381,22.39606,25,1
SIRAJUDDIN MEMORIAL COLLEGE,115153,College,BAGERHAT,MORRELGANJ,BHAIZORA,89.85925,22.45403,26,1
GILATALA  ABUL KALAM COLLEGE,115225,College,BAGERHAT,RAMPAL,GILATALA,89.69761,22.58989,27,1
SUNDARBAN  MOHILA  COLLEGE,115227,College,BAGERHAT,RAMPAL,BHAGA,89.61406,22.61453,28,1
RAMPAL COLLEGE,115226,College,BAGERHAT,RAMPAL,RAMPAL,89.65333,22.55336,29,1
SHEIKH HELAL UDDIN COLLEGE,114924,College,BAGERHAT,FAKIRHAT,SUBHADIA,89.77733,22.57986,30,1
MATREE BHASHA COLLEGE,115264,College,BAGERHAT,SARANKHOLA,DHANSAGAR,89.7795,22.33678,31,1
SARANKHOLA degree COLLEGE,115263,College,BAGERHAT,SARANKHOLA,BANIAKHALI,89.86286,22.34053,32,1
HARIKHALI PURBO PARA DAKHIL MADRASHA,114822,Madrasha,BAGERHAT,BAGERHAT SADAR,HARINKHALI,88.99094,23.77669,2343,1
AMENA SAMAD SAMAD MOHILA DHAKHIL MADRASAH,114826,Madrasha,BAGERHAT,BAGERHAT SADAR,DAKSHIN MUNIGANJ,88.95572,23.65672,2344,1
MADINATUL ULUM ADARSHA DAKHIL  MADRASHA,114825,Madrasha,BAGERHAT,BAGERHAT SADAR,DAKSHIN SORUI (PASCHIM),89.78392,22.66511,2345,1
ARPARA NASARIA SIDDIQUIA DHKHIL MADRASHA,114828,Madrasha,BAGERHAT,BAGERHAT SADAR,ARPARA KURSAIL,89.79403,22.65847,2346,1
BAGDIA ALIM MADRASHA,114821,Madrasha,BAGERHAT,BAGERHAT SADAR,BAGHDIA,89.80131,22.65125,2347,1
KAFURPURA DAKHIL MADRASHA,114818,Madrasha,BAGERHAT,BAGERHAT SADAR,KODLA,89.75358,22.77172,2348,1
RAHMATPUR DAKHIL MADRASAH,114823,Madrasha,BAGERHAT,BAGERHAT SADAR,RAMCHANDRAPUR,89.78217,22.65822,2349,1
BAITPUR BHADRAPARA JAMALIA DAKHIL MADRASHA,114817,Madrasha,BAGERHAT,BAGERHAT SADAR,BAITPUR,89.81231,22.62878,2350,1
PANIGAHAT ISLAMIA NESARIA DAKHIL MADRASHA,114816,Madrasha,BAGERHAT,BAGERHAT SADAR,BISHNUPUR,89.82653,22.64261,2351,1
B.K.MANDRa  DAKHIL MADRASHA,114805,Madrasha,BAGERHAT,BAGERHAT SADAR,MANDRA,89.80586,22.65422,2352,1
PARKORA MARA DAKHIL MADRASAH,114820,Madrasha,BAGERHAT,BAGERHAT SADAR,KORAMARA,89.83708,22.73406,2353,1
BAGERHAT KAMIL MADRASHA,114809,Madrasha,BAGERHAT,BAGERHAT SADAR,DAKSHIN SORUI,89.81319,22.75339,2354,1
DEPARA NESARIA ALIM MADRASHA,114819,Madrasha,BAGERHAT,BAGERHAT SADAR,DEBPARA,89.80047,22.68806,2355,1
KHANPUR ALIM MADRASHA,114814,Madrasha,BAGERHAT,BAGERHAT SADAR,DAKSHIN KHANPUR,89.81589,22.70828,2356,1
PASCHIMBHAG BELAET HOSSAIN DAKHIL MADRASAH,114824,Madrasha,BAGERHAT,BAGERHAT SADAR,PASCHIMBHAG,89.85758,22.67678,2357,1
U P R DAKHIL MADRASAH,114807,Madrasha,BAGERHAT,BAGERHAT SADAR,UDKUL,89.79986,22.70381,2358,1
KHANJAHAN ALI ADARSHA  ALIM MADRASA,114810,Madrasha,BAGERHAT,BAGERHAT SADAR,BADE KARA PARA,89.76644,22.68261,2359,1
HABELEE SALEHIA DAKHIL MASRASA,114815,Madrasha,BAGERHAT,BAGERHAT SADAR,SABEKDANGA,89.79036,22.64683,2360,1
CHULKATHI MUSLIMA DAKHIL MADRASHA,114829,Madrasha,BAGERHAT,BAGERHAT SADAR,BHATTA BALIAGHATA,89.77369,22.64828,2361,1
RAKHAL GASI DARUS SUNNAH DAKHIL MADRASAH,114827,Madrasha,BAGERHAT,BAGERHAT SADAR,DARI RASULPUR,89.65056,22.695,2362,1
RANOBHUMI MIRERDANGA DAKHIL MADRASHAH,114808,Madrasha,BAGERHAT,BAGERHAT SADAR,RANBHUM,89.75819,22.66069,2363,1
SHATGUMBAJ BITUSH SHARAF ADARSHA ALIM  MADRASHA,114806,Madrasha,BAGERHAT,BAGERHAT SADAR,SUNDAR GHONA BAJE AFTI,89.76306,22.66872,2364,1
HAZRAT AMIR HAMZA (R:) DAKHIL MADRASHA,114917,Madrasha,BAGERHAT,FAKIRHAT,PAGLA DIAPARA,89.74967,22.67139,2365,1
RAHMATPUR FAZIL MADRASHA,114870,Madrasha,BAGERHAT,CHITALMARI,GANGA CHANNA,89.82311,22.75172,2366,1
SHAILDAH BAKPUR KARAMATIA FAZIL MADRASAH,114869,Madrasha,BAGERHAT,CHITALMARI,SAILDAHA,89.68125,22.68031,2367,1
CHAAR KACURIA DAKHIL MADRASHA,114873,Madrasha,BAGERHAT,CHITALMARI,SANTOSHPUR,89.89986,22.87692,2368,1
HIZLA ALIM MADRASA,114868,Madrasha,BAGERHAT,CHITALMARI,HIZLA,89.89006,22.75906,2369,1
CHITALMARI DAKHIL MADRASAH,114874,Madrasha,BAGERHAT,CHITALMARI,ARUABANNI,89.90817,22.81117,2370,1
BARABARIA RAHMANIA FAZIL MADRASA,114871,Madrasha,BAGERHAT,CHITALMARI,BARA BARIA,89.87683,22.79003,2371,1
CHARBANIARY NACHARIA DAKHIL MADRASHA,114872,Madrasha,BAGERHAT,CHITALMARI,CHAR BANIARI,89.78867,22.78264,2372,1
BARUI PARA SL. FAZIL MADRASAH,114812,Madrasha,BAGERHAT,BAGERHAT SADAR,BARAI PARA,89.85786,22.77025,2373,1
BARABARIA LALCHANDRAPUR DHAKHIL MADRASHA,114918,Madrasha,BAGERHAT,FAKIRHAT,BARA BARIA,89.64764,22.69136,2374,1
FAKIRHAT KARAMATIA FAZIL MADRASA,114912,Madrasha,BAGERHAT,FAKIRHAT,ATTAKI,89.62936,22.72194,2375,1
KHANJAHANPUR MOHAMMADIA SENIOR MADRASAH,114914,Madrasha,BAGERHAT,FAKIRHAT,BRAHMAN RAKDIA,89.70897,22.77303,2376,1
BHABNA ISLAMIA DAKHIL MADRASHA,114915,Madrasha,BAGERHAT,FAKIRHAT,BHABNA,89.71078,22.77278,2377,1
JARIA ISLAMIA SIDDIKIA DAKHIL MADRASHA,114913,Madrasha,BAGERHAT,FAKIRHAT,JARIA MAITKUMRA,89.62994,22.76481,2378,1
SHEIKH ABU BAKAR SIDDIQUE AMINIA MOHILA DAKHIL MAFRASHA,114920,Madrasha,BAGERHAT,FAKIRHAT,KAHARDANGA,89.60961,22.74361,2379,1
AL-HERA ALIM MADRASHA,114919,Madrasha,BAGERHAT,FAKIRHAT,NOAPARA,89.71703,22.80383,2380,1
TEKATIA DEAPARA DAKHIL MADRASA,114916,Madrasha,BAGERHAT,FAKIRHAT,TEKATIA,89.64294,22.73758,2381,1
MADHABKATHI AHMADIA FAZIL MADRASHA,114947,Madrasha,BAGERHAT,KACHUA,MADHABKATI,89.86058,22.56086,2382,1
GAZALIA RAHMANIA DAKHIL MADRASAH,114944,Madrasha,BAGERHAT,KACHUA,GAZALIA,89.88325,22.58653,2383,1
KACHUA DAKHIL MADRASAH,114950,Madrasha,BAGERHAT,KACHUA,KACHUA,89.88942,22.62544,2384,1
TENGRAKHALI HOSSAINiA ALIM MADRASAH,114946,Madrasha,BAGERHAT,KACHUA,TENGRAKHALI,89.90267,22.62339,2385,1
CHAR SONAKUR ALIM MADRASAH,114949,Madrasha,BAGERHAT,KACHUA,CHAR SONAKUR,89.88208,22.64908,2386,1
MAGHIA SALEHIA ALIM MADRASAH,114948,Madrasha,BAGERHAT,KACHUA,MAGHIA,89.90372,22.67969,2387,1
SHONAKUR GIRLS DAKHIL MADRASHA,114943,Madrasha,BAGERHAT,KACHUA,CHAR SONAKUR,89.90089,22.67939,2388,1
SONMANKATI DARUL QURAN HAFIZIA DAKHIL MADRASHA,114951,Madrasha,BAGERHAT,KACHUA,SANMANKATHI,89.87547,22.66433,2389,1
DOBARIA DAKHIL MADRASHA,131517,Madrasha,BAGERHAT,KACHUA,RARI PARA,89.88661,22.66906,2390,1
NURJAHANPUR DAKHIL MADRASAH,114945,Madrasha,BAGERHAT,KACHUA,CHAR NARENDRAPUR,89.87644,22.65469,2391,1
KAHALPUR ALIM MADRASHA,114977,Madrasha,BAGERHAT,MOLLAHAT,KAHALPUR,89.84383,22.61017,2392,1
KAMARGRAM JATIR JANAK BANGA BAN DHU S K MADRASah,114980,Madrasha,BAGERHAT,MOLLAHAT,KAHALPUR,89.85944,22.61517,2393,1
CHARKULIA MOHELA DAKHIL MADRASHA,114979,Madrasha,BAGERHAT,MOLLAHAT,KULIA,89.815,22.85508,2394,1
NUTAN GHOSHGATI SENIOR MADRASHA,114976,Madrasha,BAGERHAT,MOLLAHAT,KULIA,89.80139,22.85236,2395,1
RAJPAT SHARULIA AKBARIA DAKHIL MADRASAH,114978,Madrasha,BAGERHAT,MOLLAHAT,GAOLA,89.80933,22.92872,2396,1
MOHSINA ALIM MADRASAH,115018,Madrasha,BAGERHAT,MONGLA,MADHYA SELABUNIA,89.60197,22.46653,2397,1
SHAIKH FAZILATUNNESA MOHILA DAKHIL MADRASAH,115019,Madrasha,BAGERHAT,MONGLA,MALGAZI,89.61139,22.47469,2398,1
CHALNA BANDAR FAZIL MADRASAH,115011,Madrasha,BAGERHAT,MONGLA,MAKORDONE SELABUNIA DAKSHIN,89.61122,22.46772,2399,1
ARAZEE MAKORDHON ISLAMIA DAKHIL MADRASAH,115020,Madrasha,BAGERHAT,MONGLA,ARAJI MAKORDONE,89.61103,22.47022,2400,1
CHANDPAI PIR MESER SHAH DAKHIL MADRASAH,115016,Madrasha,BAGERHAT,MONGLA,CHANDPI,89.59892,22.45953,2401,1
CHOWRI DANGA AHMADIA DAKHIL MADRASAH,115013,Madrasha,BAGERHAT,MONGLA,CHANDPI,89.59533,22.49917,2402,1
AL-HAZ  KORBAN ALI ALIM  MADRASHA,115010,Madrasha,BAGERHAT,MONGLA,MALGAZI,89.64031,22.48672,2403,1
DIGRAJ ISLAMIA DAKHIL MADRASAH,115014,Madrasha,BAGERHAT,MONGLA,BIDYARBAHAN DIGRAJ,89.62331,22.47531,2404,1
DAKHIN CHILA SIDDIKIA AHMADIA DAKHIL MADRASAH,115015,Madrasha,BAGERHAT,MONGLA,CHILA,89.58997,22.5355,2405,1
SONAIL TALA  A B S DAKHIL MADRASAH,115012,Madrasha,BAGERHAT,MONGLA,SUNILTALA,89.65392,22.46975,2406,1
KOCHUBUNIA DARUS SUNNAT DAKHIL MADRASAH,131635,Madrasha,BAGERHAT,MONGLA,BAJIKARKHANDA,89.69828,22.453,2407,1
MADUR PALTA NEAZ MAKHDUM ALIM MADRASAH,115017,Madrasha,BAGERHAT,MONGLA,BAJIKARKHANDA,89.66461,22.50692,2408,1
BAHAR BUNIA DAKHEL MADRASAH,115141,Madrasha,BAGERHAT,MORRELGANJ,BAHARBUNIA,89.61619,22.48447,2410,1
SURJYA MUKHI HALDER BARI GIRLS DAKHIL MADRASAH,115152,Madrasha,BAGERHAT,MORRELGANJ,BAHARBUNIA,89.60583,22.46842,2411,2
KHANIRKHANDA S-I DAKHIL MADRASHA,115121,Madrasha,BAGERHAT,MORRELGANJ,DEUATALA,89.80889,22.391,2412,1
SUPRAKHALI GAZIR GHAT DAKHIL MADRASHA,115116,Madrasha,BAGERHAT,MORRELGANJ,BAHARBUNIA,89.79306,22.47856,2413,1
NEHALPUR KUHARDHA DHAKIL MADRASHA,115128,Madrasha,BAGERHAT,MORRELGANJ,KUHARDAHA NEHALKHALI,89.78369,22.50397,2414,1
RAJOIR NESARIA FAZIL MADRASAH,115111,Madrasha,BAGERHAT,MORRELGANJ,RAJAIR,89.76692,22.47681,2415,1
SREENI  KHALI  ISHAQ ALI SMRITTI  DAKHIL MADRASHA,115137,Madrasha,BAGERHAT,MORRELGANJ,BALAIBUNIA,89.84525,22.48825,2416,1
B.S.S.DAKHIL MADRASHA,115140,Madrasha,BAGERHAT,MORRELGANJ,UTTAR SUTALARI,89.91003,22.59675,2417,1
MANIK MIA GIRLS DAKHIL MADRASHA,115096,Madrasha,BAGERHAT,MORRELGANJ,FAKIRERTAKIA,89.8535,22.45689,2418,1
HAZI IBRAHIM S. R. RAHMANIA DHAKHIL MADRASHA,115144,Madrasha,BAGERHAT,MORRELGANJ,FAKIRERTAKIA,89.85258,22.45639,2419,1
DAKHIN SUTALORI MONIR UDDIN DHAKHIL MADRASHA,115123,Madrasha,BAGERHAT,MORRELGANJ,DAKSHIN SUTALARI,89.80367,22.44206,2420,1
GOALBARIA A.K. SMRITI DAKHIL MDRASHA,115095,Madrasha,BAGERHAT,MORRELGANJ,DAKSHIN SUTALARI,89.82086,22.47336,2421,1
B S WAHEZIA DAKHIL MADRASHA,115146,Madrasha,BAGERHAT,MORRELGANJ,UTTAR SUTALARI,89.82931,22.46617,2422,1
SUTTALORY SOFIZUDDIN DAKHIL MADRASHA,115122,Madrasha,BAGERHAT,MORRELGANJ,UTTAR SUTALARI,89.84506,22.46472,2423,1
S  CHANDIPUR DAKHIL MADRASA,115143,Madrasha,BAGERHAT,MORRELGANJ,CHANDIPUR,89.92156,22.53339,2424,1
SALIMGOR CHINRAKHALI SENIOR MADRASA,115118,Madrasha,BAGERHAT,MORRELGANJ,PATHURIA,89.92903,22.50531,2425,1
J.S PATJURIA H.A. BALIKA DAKHIL MADRASHA,115133,Madrasha,BAGERHAT,MORRELGANJ,PATHURIA,89.89586,22.51928,2426,1
POLERHAT ALHAZ AZHARIA DAKHIL MADRASA,115134,Madrasha,BAGERHAT,MORRELGANJ,ALTI BURUJBARIA,89.93714,22.50386,2427,2
HAMCAPUR DAKHIL MADRASHA,115102,Madrasha,BAGERHAT,MORRELGANJ,HAMCHAPUR,89.91431,22.51125,2428,1
B S RAHMATIA DAKHIL MADRASAH,115151,Madrasha,BAGERHAT,MORRELGANJ,BADNIBHANGA,89.84906,22.56172,2429,1
TOFAEL UDDIN SRITI DAKHIL MADRASA,115120,Madrasha,BAGERHAT,MORRELGANJ,BARA BADURIA,89.85925,22.55908,2430,1
CHAR HOGLABUNIA  AZIZIA DAKHIL MADRASA,115125,Madrasha,BAGERHAT,MORRELGANJ,CHAR HOGLABUNIA,89.88264,22.44014,2431,1
G B AMENA KHATUN BALIKA DAKHIL MADRASA,115145,Madrasha,BAGERHAT,MORRELGANJ,GODARA,89.92825,22.46106,2432,1
HOGLABUNIA LEHAZUDDIN ERFANIA DAKHIL MADRASA,115126,Madrasha,BAGERHAT,MORRELGANJ,HOGLABUNIA,89.897,22.47336,2433,1
DARUL QURAN SENIOR MADRASAH,115113,Madrasha,BAGERHAT,MORRELGANJ,PATHAMARA,89.87789,22.44683,2434,1
TALIMUNNESA MOHILA DAKHIL MADRASAH,115099,Madrasha,BAGERHAT,MORRELGANJ,DAKSHIN JIUDHARA,89.89906,22.44089,2435,1
PANCHAGRAM SAMMILITHAD YEESUFIA ALIM MADRASAH,115100,Madrasha,BAGERHAT,MORRELGANJ,UTTAR JIUDHARA,89.74403,22.42603,2436,1
JEWDHARA MOULAVIBAZAR NESARIA DAKHIL MADRASHA,115139,Madrasha,BAGERHAT,MORRELGANJ,JIUDHARA,89.74547,22.45569,2437,1
SOMADAR KHALI ISLAMIA DAKHIL MADRASHA,115119,Madrasha,BAGERHAT,MORRELGANJ,UTTAR JIUDHARA,89.91939,22.58022,2439,1
OLAGONJ N.U. ALIM ADRASHA,115110,Madrasha,BAGERHAT,MORRELGANJ,CHALITABUNIA,89.75308,22.46897,2440,1
SANNAYSI BARISAL LATIFA DAKHIL MADERASHA,115147,Madrasha,BAGERHAT,MORRELGANJ,KUMARKHALI,89.82933,22.37811,2441,1
AMTOLI ISLAMIA KAMIL MADRASHA,115090,Madrasha,BAGERHAT,MORRELGANJ,KUMARKHALI,89.83994,22.39847,2442,1
NISHANBARIA DAKHIL MADRASA,115098,Madrasha,BAGERHAT,MORRELGANJ,CHALITABUNIA,89.86458,22.39392,2443,1
MORRELGONJ LATIFIA FAZIL MADRASAH,115107,Madrasha,BAGERHAT,MORRELGANJ,BHAIZORA,89.85881,22.45325,2444,1
ABUHURAIRAH ADARSHA DAKHIL MADRASAH,115106,Madrasha,BAGERHAT,MORRELGANJ,MORRELGANJ BAZAR,89.83753,22.44497,2445,1
BADURTALA CHOWDUGOR FAKIRBARI DHAKIL MADRASAH,115150,Madrasha,BAGERHAT,MORRELGANJ,BADURTALA,89.84439,22.42761,2446,1
MONOARA BEGUM ISLAMIA MOHELA DAKHIL MADRASAH,115101,Madrasha,BAGERHAT,MORRELGANJ,PURBA SARALIA,89.84969,22.45086,2447,1
KATHALTALA GIASHIA DAKHIL MADRASA,115117,Madrasha,BAGERHAT,MORRELGANJ,KATHALTALA,89.85786,22.45136,2448,1
HAMEJIA DAKHIL MADRASHA,115148,Madrasha,BAGERHAT,MORRELGANJ,BHASHANDAL,89.83689,22.44469,2449,1
GULISHA KHALI FAZIL MADRASAH,115104,Madrasha,BAGERHAT,MORRELGANJ,GULISAKHALI,89.76139,22.409,2450,1
BAGE JANNAT ISLAMIA DAKHIL MADRASHA,115149,Madrasha,BAGERHAT,MORRELGANJ,GUATALA,89.76336,22.42614,2451,1
SOUTH JAMIRTALA G. H. NURUL ISLAM DAKHIL MADRASHA,115132,Madrasha,BAGERHAT,MORRELGANJ,GUATALA,89.82006,22.43789,2452,1
ENAYTIA DAKHIL MADRASHA,115135,Madrasha,BAGERHAT,MORRELGANJ,PASCHIM CHIPA BARAIKHALI,89.78072,22.37625,2453,1
GULZIA ISLAMIA ALIM MADRASAH,115129,Madrasha,BAGERHAT,MORRELGANJ,GULISAKHALI,89.82,22.41189,2454,1
A.G. MAKBUL HOSSHEN B.D. DAKHIL MADRASHA,115131,Madrasha,BAGERHAT,MORRELGANJ,BAULTALI NAZIRDIA,89.79506,22.38811,2455,1
DK M ISLAMIA DAKHIL MADRASA,115115,Madrasha,BAGERHAT,MORRELGANJ,DEBRAJ,89.75008,22.40756,2456,1
KHARIKHALI AHAMADIA DAKHIL MADRASHA,115091,Madrasha,BAGERHAT,MORRELGANJ,CHAK KHARAIKHALI,89.79756,22.53925,2457,1
DARUL QURAN FAZLUL KARIM DAKHIL MADRASA,115127,Madrasha,BAGERHAT,MORRELGANJ,CHAK PANCHAKARAN,89.80289,22.55739,2458,1
PANCHOKARON SIRAJ SMRITI DAKHIL MADRASHA,115105,Madrasha,BAGERHAT,MORRELGANJ,CHAK PANCHAKARAN,89.81414,22.50778,2459,1
SONAKHALI AZIZIA SENIOR MADRASAH,115114,Madrasha,BAGERHAT,MORRELGANJ,CHAK BHATKHALI,89.81486,22.50786,2460,1
A.B. GOZALIA HAZI MAHIR UDDIN SMRITI DAKHIL MADRASAH,115093,Madrasha,BAGERHAT,MORRELGANJ,GAZALIA,89.78428,22.52317,2461,1
PUTIKHALI ISLAMIA SENIOR MADRASHA,115109,Madrasha,BAGERHAT,MORRELGANJ,PUTIKHALI,89.81897,22.49522,2462,1
UTTER PUTIKHALI DAKHIL MADRASHA,115138,Madrasha,BAGERHAT,MORRELGANJ,CHAK PUTIKHALI,89.84,22.52364,2463,1
PUTIKHALI MOHILA DAKHIL MADRASHA,115092,Madrasha,BAGERHAT,MORRELGANJ,PUTIKHALI,89.82067,22.49306,2464,1
SONAKHALI  P.K MOHSENIA S.ALIM MADRASHA,115103,Madrasha,BAGERHAT,MORRELGANJ,PUTIKHALI,89.83639,22.50458,2465,1
BK GILBUNIA AHMADIA DAKHIL MADRASA,115142,Madrasha,BAGERHAT,MORRELGANJ,JHILBUNIA,89.84583,22.50611,2466,1
HABIBULLAH  ABAD ISLAMIA SIDDIKIA N.S.KAMIL MADRASA,115124,Madrasha,BAGERHAT,MORRELGANJ,JHILBUNIA,89.85403,22.52719,2467,1
KADAM RASULARPAR LEHAZUDDIN DAKHIL MADRASA,115094,Madrasha,BAGERHAT,MORRELGANJ,KADAM RASULER PAHAR,89.86594,22.50947,2468,1
SOUTH TALIGATI DARULHUDA SAHEIA ALIM MADRASA,115108,Madrasha,BAGERHAT,MORRELGANJ,CHAK TELIGATI,89.90206,22.54122,2469,1
BARUEPARA ZULFIKARIA SIDDIKIA DAKHIL MADRASHA,115208,Madrasha,BAGERHAT,RAMPAL,BARAI PARA,89.66472,22.60642,2470,1
BAINTALA CHASREE NESAREA DAKHIL MADRASHA,115219,Madrasha,BAGERHAT,RAMPAL,BAINTALA,89.67244,22.60947,2471,1
KHEJUR MAHAL T.R. ALIM MADRASHA,115214,Madrasha,BAGERHAT,RAMPAL,KHEJUR MAHAL,89.68186,22.62064,2472,1
KUMLAI SALEHIA DAKHIL MADRASHA,115220,Madrasha,BAGERHAT,RAMPAL,KUMLAI,89.65781,22.62303,2473,1
SHARAFPUR KSRAMTIA SINIOR MADRASHA,115216,Madrasha,BAGERHAT,RAMPAL,SARAPPUR,89.67828,22.63108,2474,1
ISLAMABAD SIDDIQUA FAZIL MADRASHA,115217,Madrasha,BAGERHAT,RAMPAL,KISMAT CHANDITALA,89.69017,22.56017,2475,1
ZIOLMARI DAKHIL MADRASHA,115222,Madrasha,BAGERHAT,RAMPAL,CHAK BETKANTA,89.71231,22.59208,2476,1
ABUBAKAR SIDDIKIA DAKHIL MADRASHA,115218,Madrasha,BAGERHAT,RAMPAL,UTTAR GAURAMBHA,89.72425,22.53911,2477,1
MALLIKER BER SENIOR FAZIL AMDERASHA,115213,Madrasha,BAGERHAT,RAMPAL,MALLIKER BER,89.60367,22.57117,2478,1
PERIKHALI DAKHIL MADRASHA,115212,Madrasha,BAGERHAT,RAMPAL,PERIKHALI,89.76536,22.55492,2479,1
JHANJHANIA SIDDIQIA DHAKHIL MADRASHA,115221,Madrasha,BAGERHAT,RAMPAL,MALIDANGA,89.64869,22.5895,2480,1
HAZI   ENAYET  ULLAH  DAKHAIL MADRASAH,115223,Madrasha,BAGERHAT,RAMPAL,RAMPAL,89.61692,22.59536,2481,1
GOBINDAPUR A.J.S. FAZIL MADRASHA,115211,Madrasha,BAGERHAT,RAMPAL,GOBINDAPUR,89.64306,22.66786,2482,1
AL HAZ SUFIA BRGUM MOHILA DHAKIL MADRASHA,115209,Madrasha,BAGERHAT,RAMPAL,SANTOSHPUR,89.63333,22.63519,2483,1
SONATUNIA AZIZIA FAZIL (DEGREE) MADRASA,115215,Madrasha,BAGERHAT,RAMPAL,SONATUNIA,89.63611,22.66625,2484,1
FOYLA HAT ASIA KARMATIA ALIM MADRASAH,115207,Madrasha,BAGERHAT,RAMPAL,SANTOSHPUR,89.63106,22.64164,2485,1
GHASIAKHALI ISLAMIA ALIM MADRASHA,115097,Madrasha,BAGERHAT,MORRELGANJ,GHASIAKHALI,89.66844,22.64797,2486,1
DEMA KARAMOTIA FAZIL MADRASHA,114811,Madrasha,BAGERHAT,BAGERHAT SADAR,DEMA,89.74617,22.51822,2487,1
K. HEDAYETPUR AHMEDIA ALIM MADRASHA,114813,Madrasha,BAGERHAT,BAGERHAT SADAR,HEDAYETPUR,89.75814,22.60022,2488,1
BARA RAJAPUR SALEHIA DAKHIL MADRASAH,115250,Madrasha,BAGERHAT,SARANKHOLA,RAJAPUR,89.73575,22.59467,2489,1
KHAJUR BARIA MOHILA DAKHIL MADRASHA,115257,Madrasha,BAGERHAT,SARANKHOLA,NALBUNIA,89.5765,22.65911,2490,1
DHANSAGAR NALBUNIA  ALIM MADRASAH,115245,Madrasha,BAGERHAT,SARANKHOLA,NALBUNIA,89.80217,22.38761,2491,1
MADINATUL ULUM LATIFIA DAKHIL MADRASHA,115253,Madrasha,BAGERHAT,SARANKHOLA,AMRAGACHHIA,89.81739,22.36089,2492,1
KHONTAKATA MOFIDIA MOHILA DAKHIL MADRASHA,115260,Madrasha,BAGERHAT,SARANKHOLA,MORELLABAD,89.83064,22.31317,2493,1
AKANDAPARA  DAKHIL MADRASHA,115248,Madrasha,BAGERHAT,SARANKHOLA,MORELLABAD,89.85308,22.36575,2494,1
ASHRAFUL KALAM MOHILA DAKHIL MADRASHA,115261,Madrasha,BAGERHAT,SARANKHOLA,MORELLABAD,89.86519,22.34586,2495,1
RAYENDA RAJOIR ALIM MADRASHA,115251,Madrasha,BAGERHAT,SARANKHOLA,AMRAGACHHIA,89.84778,22.31858,2496,1
RAYENDA DARUL HEDAYET NESARUL ULUM FAZIL MADRASHA,115247,Madrasha,BAGERHAT,SARANKHOLA,RAYENDA,89.85528,22.318,2497,1
DAKKHIN RAJAPUR DAKHIL MADRASAH,115258,Madrasha,BAGERHAT,SARANKHOLA,DAKSHIN RAJAPUR,89.78261,22.29942,2498,1
KADAMTALA MOHSINIA C. H. K. DAKHIL MADRASHA,115255,Madrasha,BAGERHAT,SARANKHOLA,RAYENDA,89.81253,22.30339,2499,1
KHADA ALHAZ GAGON MAMOREAL DAKHIL MADRASA,115246,Madrasha,BAGERHAT,SARANKHOLA,KHADA,89.85317,22.31458,2500,1
SHAROKHOLA MOHILA DAKHIL MADRASHA,115256,Madrasha,BAGERHAT,SARANKHOLA,KHADA,89.85367,22.31264,2501,1
RAYENDA BAZAR ISLAMIA DAKHIL MADRASHA,115252,Madrasha,BAGERHAT,SARANKHOLA,RAYENDA,89.82986,22.26517,2502,1
SONATALA ISLAMIA ALIM MADRASA,115254,Madrasha,BAGERHAT,SARANKHOLA,SARANKHOLA,89.82506,22.29869,2503,1
SUNDARBAN ISLAMIA DAKHIL MADRASHA,115259,Madrasha,BAGERHAT,SARANKHOLA,SARANKHOLA,89.85503,22.31006,2504,1
BAGERHAT   SAMMILANI  SECONDARY   SCHOOL,114764,School,BAGERHAT,BAGERHAT SADAR,UTTAR SORUI,88.96975,23.68847,10333,1
DAShANI ADARSHA SECONDARY GIRLS  SCHOOL,114763,School,BAGERHAT,BAGERHAT SADAR,PASCHIM DASH ANI,89.79178,22.65883,10334,1
ADARSHA SECONDARY SCHOOL,114758,School,BAGERHAT,BAGERHAT SADAR,PURBA DAKSHIN BAZAR,89.78178,22.67178,10335,1
BAGERHAT ML HIGH SCHOOL,114757,School,BAGERHAT,BAGERHAT SADAR,PURBA DAKSHIN BAZAR,89.77506,22.66208,10336,1
BAGERHAT  GOVT.  GIRLS  HIGH  SCHOOL,114766,School,BAGERHAT,BAGERHAT SADAR,DAKSHIN AMLA PARA,89.78244,22.65317,10337,1
BAGERHAT AMLAPARA HIGH SCHOOL,114768,School,BAGERHAT,BAGERHAT SADAR,DAKSHIN SORUI,89.77828,22.65753,10338,1
JAHANABAD GIRLS HIGH SCHOOL,114765,School,BAGERHAT,BAGERHAT SADAR,DAKSHIN SORUI,89.78819,22.66847,10339,1
BASHABATI RAHMANIA HIGH SCHOOL,114799,School,BAGERHAT,BAGERHAT SADAR,DAKSHIN NAGER BAZAR,89.79383,22.66128,10340,1
ARPARA KURSHAIL HIGH SCHOOL,131288,School,BAGERHAT,BAGERHAT SADAR,ARPARA KURSAIL,89.79369,22.66069,10341,1
KARTICDIA HIGH SCHOOL,114786,School,BAGERHAT,BAGERHAT SADAR,KARTIKDIA,89.79603,22.64911,10342,1
KODHLA SECONDARY SCHOOL,114756,School,BAGERHAT,BAGERHAT SADAR,KODLA,89.79322,22.65839,10343,1
BAITPUR M U HIGH SCHOOL,114789,School,BAGERHAT,BAGERHAT SADAR,BAITPUR,89.7765,22.74147,10344,1
BEMORTA GIRLS HIGH SCHOOL,114796,School,BAGERHAT,BAGERHAT SADAR,BEMARTA,89.75342,22.77367,10345,1
UDDIPAN BADAR- SHAMSU BIDYANIKETAN,131436,School,BAGERHAT,BAGERHAT SADAR,CHAITALI,89.76269,22.72772,10346,1
SHAHID NAyek  ABDUL ZABBaR secondary SCHOOL,114793,School,BAGERHAT,BAGERHAT SADAR,CHARGRAM,89.79128,22.75572,10347,1
K.B FATEPUR secondary SCHOOL,114751,School,BAGERHAT,BAGERHAT SADAR,CHHOTA BISHNUPUR,89.81397,22.64253,10348,1
BEMORTA UNION HIGH SCHOOL,114777,School,BAGERHAT,BAGERHAT SADAR,JOYGACHHI,89.81014,22.64014,10350,1
KHARASAMBAL N.S. HIGH SCHOOL,114785,School,BAGERHAT,BAGERHAT SADAR,KHARA SAMBAL,89.79122,22.67058,10351,1
K.M BADOKHALI SECONDARY SCHOOL,114801,School,BAGERHAT,BAGERHAT SADAR,MANDRA,89.81456,22.62767,10352,1
CHIRULIA HIGH SCHOOL,114773,School,BAGERHAT,BAGERHAT SADAR,BISHNUPUR,89.82719,22.66253,10353,1
S.S NIKETAN KHALISHPUR HIGH SCHOOL,114782,School,BAGERHAT,BAGERHAT SADAR,KHALISHPUR,89.81058,22.60017,10354,1
GAON KHALI GIRLS HIGH SCHOOL,114803,School,BAGERHAT,BAGERHAT SADAR,GAOKHALI,89.82964,22.70244,10355,1
GOTAPARA HIGH SCHOOL,114755,School,BAGERHAT,BAGERHAT SADAR,ALAKDIA,89.83789,22.73647,10356,1
KANDAPARA N N ML HIGH SCHOOL,114778,School,BAGERHAT,BAGERHAT SADAR,KANDA PARA,89.79053,22.75142,10357,1
S.B. NATOI KHALI SECONDARY SCHOOL,114783,School,BAGERHAT,BAGERHAT SADAR,NATAIKHALI,89.79497,22.65919,10358,1
NOWAPARA YAKUB ALI ADARSHA HIGH SCHOOL,114754,School,BAGERHAT,BAGERHAT SADAR,NOAPARA,89.79211,22.65636,10359,1
PATILAKHALI   HIGH SCHOOL,114781,School,BAGERHAT,BAGERHAT SADAR,PATILAKHALI,89.84936,22.66244,10360,1
KOMORPUR SECONDARY GIRLS  SCHOOL,114798,School,BAGERHAT,BAGERHAT SADAR,KAMARPUR,89.84222,22.67947,10361,1
RAHIMA BAD SECONDARY SCHOOL,114797,School,BAGERHAT,BAGERHAT SADAR,RAHIMABAD,89.83442,22.71578,10362,1
MADHUDIA ICHCA MAYEE SECONDARY,114772,School,BAGERHAT,BAGERHAT SADAR,UDKUL,89.68869,22.65808,10363,1
BAGMARA SECONDARY SCHOOL,114776,School,BAGERHAT,BAGERHAT SADAR,MALO PARA,89.74172,22.73956,10364,1
MAFUJA KHANAM GIRLS HIGH SCHOOL,114770,School,BAGERHAT,BAGERHAT SADAR,SABEKDANGA,89.76039,22.69683,10365,1
BASABATI  SECONDARY SCHOOL,114769,School,BAGERHAT,BAGERHAT SADAR,GOBARDIA,89.69483,22.708,10366,1
KARAPAR SART CHANDRA HIGH SCHOOL,114759,School,BAGERHAT,BAGERHAT SADAR,KARA PARA,89.7135,22.72039,10367,1
KARAPARA SECONDARY GIRLS SCHOOL,114788,School,BAGERHAT,BAGERHAT SADAR,KARA PARA,89.74953,22.72164,10368,1
K J S P U RAJARPUR HIGH SCHOOL,114753,School,BAGERHAT,BAGERHAT SADAR,RAJAPUR,89.74917,22.6795,10369,1
HAKIMPUR JR GIRLS HIGH SCHOOL,114787,School,BAGERHAT,BAGERHAT SADAR,HAKIMPUR,89.76481,22.64211,10370,1
HAKIMPUR SHAMSUL HUDA HIGH SCHOOL,114792,School,BAGERHAT,BAGERHAT SADAR,HAKIMPUR,89.76333,22.63717,10371,1
RANJITPUR  HIGH SCHOOL,114784,School,BAGERHAT,BAGERHAT SADAR,UTTAR PURATAN BAZAR,89.74783,22.68575,10372,1
PALLY UNNAYAN GIRLS HIGH SCHOOL,114795,School,BAGERHAT,BAGERHAT SADAR,KHUDRA CHAKSREE,89.66931,22.67644,10373,1
SUGANDHI GIRLS HIGH SCHOOL,114775,School,BAGERHAT,BAGERHAT SADAR,SUGANDHI,89.66461,22.68242,10374,1
SYEDPUR HIGH SCHOOL,114791,School,BAGERHAT,BAGERHAT SADAR,SAIDPUR,89.67106,22.65864,10375,1
AL ISLAH ACADEMY BAGERHAT,114762,School,BAGERHAT,BAGERHAT SADAR,UTTAR SORUI,89.70206,22.66569,10376,1
BSC HIGH SCHOOL,114800,School,BAGERHAT,BAGERHAT SADAR,BARAKPUR,89.67178,22.70936,10377,1
KHANJAHANIA HIGH SCHOOL,114774,School,BAGERHAT,BAGERHAT SADAR,RAN BIJOYPUR,89.69056,22.67839,10378,1
RONOBIJOYPUR HIGH SCHOOL,114804,School,BAGERHAT,BAGERHAT SADAR,RAN BIJOYPUR,89.66739,22.69553,10379,1
SAIRA LAKSHMI KHALI SECONDARY SCHOOL,131395,School,BAGERHAT,BAGERHAT SADAR,SAYERA,89.67461,22.70956,10380,1
BAGERHAT GOVT.HIGH SCHOOL,114761,School,BAGERHAT,BAGERHAT SADAR,UTTAR SORUI,89.79022,22.65878,10381,1
SUNDARGHONA  HIGH SCHOOL,114760,School,BAGERHAT,BAGERHAT SADAR,SUNDAR GHONA,89.71919,22.67094,10382,1
NABA PALLI IDEAL HIGH SCHOOL,114866,School,BAGERHAT,CHITALMARI,ROYGRAM,89.72494,22.67319,10383,1
DHOPAKHALI SECONDARY SCHOOL,114929,School,BAGERHAT,KACHUA,DHOPAKHALI,89.79272,22.66178,10384,1
S M RAKBUJJAMAN HIGH SCHOOL,114860,School,BAGERHAT,CHITALMARI,CHINGARI,89.91819,22.78839,10387,2
S. M. ISHAQuE HIGH SCHOOL,114851,School,BAGERHAT,CHITALMARI,KALATALA,89.89289,22.76103,10388,2
RAHMATPUR HIGH SCHOOL,114854,School,BAGERHAT,CHITALMARI,GANGA CHANNA,89.88714,22.85978,10389,1
BAHIRDASH MAHAL GIRLS HIGH SCHOOL,114864,School,BAGERHAT,CHITALMARI,DARI UMAJURI,89.93772,22.84375,10390,1
SANTOSHPUR HIGH SCHOOL,114853,School,BAGERHAT,CHITALMARI,SANTOSHPUR,89.89372,22.75897,10391,1
SANTIKHALI SABUJ SANGA HIGH SCHOOL,114857,School,BAGERHAT,CHITALMARI,BOALIA,89.91706,22.84347,10392,1
BOALIA SANTIPUR GIRLS HIGH SCHOOL,114849,School,BAGERHAT,CHITALMARI,BOALIA,89.88794,22.86153,10393,1
KALSHIRA RAJENDRA SMRITI SECONDERY SCHOOL,114858,School,BAGERHAT,CHITALMARI,SURSAIL,89.92289,22.72944,10394,1
SAMMILANY HIGH SCHOOL,114863,School,BAGERHAT,CHITALMARI,KALSIRA,89.8745,22.81817,10395,1
BOALIA SECONDARY SCHOOL,114840,School,BAGERHAT,CHITALMARI,BOALIA,89.86542,22.84781,10396,1
HIZLA  HIGH SCHOOL,114846,School,BAGERHAT,CHITALMARI,HIZLA,89.81975,22.80289,10397,1
MUKTABANGALA CHARI PaLLI HIGH SCHOOL,114855,School,BAGERHAT,CHITALMARI,BOALIA,89.84686,22.80758,10398,1
CHITALMARI S. M. HIGH SCHOOL,114842,School,BAGERHAT,CHITALMARI,KURMANI,89.86783,22.79581,10399,1
CHITALMARI HASINA BEGUM HIGH SCHOOL,114841,School,BAGERHAT,CHITALMARI,KURMANI,89.87319,22.79161,10400,1
DUMURIA secondary SCHOOL,114839,School,BAGERHAT,CHITALMARI,DUMURIA,89.90128,22.80283,10401,1
BARABARIA M. HIGH SCHOOL,114838,School,BAGERHAT,CHITALMARI,HARIAR GHOP,89.88133,22.838,10402,1
BARABARIA JONAB ALI FAKIR GIRLS SCHOOL,114861,School,BAGERHAT,CHITALMARI,BARA BARIA,89.91061,22.81736,10403,1
CHAR BARA BARIA HIGH SCHOOL,114845,School,BAGERHAT,CHITALMARI,BARA BARIA,89.87747,22.78522,10404,1
BARAGUNI MEHERUNNESA HIGH SCHOOL,114847,School,BAGERHAT,CHITALMARI,BARA GUNI,89.86575,22.84994,10405,1
G.B.D. HGIH SCHOOL,114852,School,BAGERHAT,CHITALMARI,BARA GUNI,89.89764,22.83706,10406,1
CHARBANIARY UNION GIRLS HIGH SCHOOL,114862,School,BAGERHAT,CHITALMARI,CHAR BANIARI,89.86728,22.84956,10407,1
GARIBPUR JUNIOR HIGH SCHOOL,114867,School,BAGERHAT,CHITALMARI,GARIBPUR,89.92689,22.74631,10408,1
SABOKHALI  HIGH  SCHOOL,114850,School,BAGERHAT,CHITALMARI,PANCH PARA,89.88644,22.78717,10409,1
NOBOPALLI JUNIOR GIRLS SCHOOL,114848,School,BAGERHAT,CHITALMARI,PANCH PARA,89.84033,22.88111,10410,1
CHAR DAKATIA SECONDRY SCHOOL,114844,School,BAGERHAT,CHITALMARI,CHAR DAKATIA,89.85486,22.86367,10411,1
CHAR BANIARY SECONDARY SCHOOL,114843,School,BAGERHAT,CHITALMARI,CHAR BANIARI,89.91422,22.78025,10412,1
BARUIPARA   P C  HIGH SCHOOL,114771,School,BAGERHAT,BAGERHAT SADAR,BARAI PARA,89.84742,22.77842,10414,1
CHUL KATI GHANASHYAMPUR HIGH SCHOOL,114780,School,BAGERHAT,BAGERHAT SADAR,SONADANGA,89.91819,22.78839,10415,2
CHULKATI GHANASHYAMPUR GIRL'S HIGH SCHOOL,114790,School,BAGERHAT,BAGERHAT SADAR,CHULKATI,89.89289,22.76103,10416,2
KHARIA ARULIA HIGH SCHOOL,114859,School,BAGERHAT,CHITALMARI,ARULIA,89.77669,22.79878,10417,1
BAHIRDIA HIGH SCHOOL,114883,School,BAGERHAT,FAKIRHAT,MANSA,89.74572,22.75253,10418,1
GABKHALI SECONDARY SCHOOL,114895,School,BAGERHAT,FAKIRHAT,SATBARIA,89.74547,22.75333,10419,1
BETAGA UNITED M.L.HIGH SCHOOL,114889,School,BAGERHAT,FAKIRHAT,SREEKRISHNAPUR,89.67358,22.79411,10420,1
BETAGA ADARSHA GIRLS HIGH SCHOOL,114898,School,BAGERHAT,FAKIRHAT,BETAGA,89.65972,22.7555,10421,1
B.K.SK.ALI AHMED JUNIOR HIGH SCHOOL,114899,School,BAGERHAT,FAKIRHAT,BIGHI,89.6685,22.75603,10422,1
CHATAK PUR S S JR HIGH SCHOOL,114901,School,BAGERHAT,FAKIRHAT,BETAGA,89.69767,22.77986,10423,1
DHANPOTA MASKAT UNITED HIGH SCHOOL,114909,School,BAGERHAT,FAKIRHAT,MASKATA,89.69344,22.78142,10424,1
MASKATA SECONDARY SCHOOL,114908,School,BAGERHAT,FAKIRHAT,MASKATA,89.62422,22.70814,10425,1
SHIRIN HAQUE PILOT GIRLS SECONDARY SCHOOL,114890,School,BAGERHAT,FAKIRHAT,ATTAKI,89.62483,22.70322,10426,1
QUAZIA AZHER ALI SECODARY SCHOOL,114905,School,BAGERHAT,FAKIRHAT,KANTHALTALA,89.59989,22.68733,10427,1
BANAFUL SECONDARY SCHOOL,114907,School,BAGERHAT,FAKIRHAT,PAGLA SHYAMNAGAR,89.62692,22.696,10428,1
HAZI A.HAMID SECONDARY SCHOOL,114882,School,BAGERHAT,FAKIRHAT,SATSIKKA,89.61358,22.71783,10429,1
BAUIDANGA ( B.L.) SECODNARY SCHOOL,114885,School,BAGERHAT,FAKIRHAT,LAKHPUR,89.70244,22.76378,10430,1
JARIA BHATTAKHAMAR SECONDARY SCHOOL,114897,School,BAGERHAT,FAKIRHAT,BHATTA KHAMAR,89.71569,22.75292,10431,1
BHABNA SECONDRY SCHOOL,114893,School,BAGERHAT,FAKIRHAT,JARIA MAITKUMRA,89.71058,22.77392,10432,1
LAKHPUR ALHAZ AMBIA ISHAK SECONDARY GIRLS SCHOOL,114902,School,BAGERHAT,FAKIRHAT,LAKHPUR,89.72181,22.73639,10433,1
FALTITA SHASHDHAR SAMAJ KALYAN HIGH SCHOOL,114900,School,BAGERHAT,FAKIRHAT,FALTITA BANIAKHALI,89.61869,22.73758,10434,1
DWADASH PALLI SECONDARY GIRLS SCHOOL,114903,School,BAGERHAT,FAKIRHAT,KALKALIA,89.63164,22.75092,10435,1
KAL KALIA G.C. SECONDARY SCHOOL,114888,School,BAGERHAT,FAKIRHAT,KALKALIA,89.60331,22.72508,10436,1
MULGHAR  GOVT.  HIGH SCHOOL,114879,School,BAGERHAT,FAKIRHAT,MULGHAR,89.62914,22.737,10437,1
MULGHAR GIRLS' HIGH SCHOOL,114886,School,BAGERHAT,FAKIRHAT,MULGHAR,89.6285,22.74769,10438,1
SAMMILONI JUNIOR HIGH SCHOOL,114906,School,BAGERHAT,FAKIRHAT,MULGHAR,89.73983,22.80011,10439,1
SYED MOHALLA K K GOVT GIRLS HIGH SCHOOL,114881,School,BAGERHAT,FAKIRHAT,KHARARIA,89.76261,22.80269,10440,1
KATHALI JUNIOR HIGH SCHOOL,114878,School,BAGERHAT,FAKIRHAT,KATHALI,89.71897,22.77636,10441,1
DAHAR MOUBHOG SEONDARY SCHOOL,114910,School,BAGERHAT,FAKIRHAT,MAUBHOG,89.72372,22.78003,10442,1
SHAH AULIABAG M M SECONDARY SCHOOL,114896,School,BAGERHAT,FAKIRHAT,BALIADANGA,89.72381,22.77633,10443,1
PILJANGA SECONDERY SCHOOL,114887,School,BAGERHAT,FAKIRHAT,PILJANGA,89.71664,22.78603,10444,1
BANGABANDHU SECONDARY GIRLS SCHOOL,114904,School,BAGERHAT,FAKIRHAT,PILJANGA,89.71583,22.77769,10445,1
DEAPARA SECONDARY SCHOOL,114894,School,BAGERHAT,FAKIRHAT,TEKATIA,89.70258,22.72844,10446,1
SHUBHADIA K.B. SECONDARY SCHOOL,114892,School,BAGERHAT,FAKIRHAT,CHHOTA SUBHADIA,89.66375,22.73211,10447,1
TEKATIA SECONDARY SCHOOL,114891,School,BAGERHAT,FAKIRHAT,TEKATIA,89.64975,22.73803,10448,1
ATTAKA KERAMAT ALI PILOT HIGH SCHOOL,114880,School,BAGERHAT,FAKIRHAT,ATTAKA,89.63914,22.73883,10449,1
B.K HIGH SCHOOL,115074,School,BAGERHAT,MORRELGANJ,BALABHADRAPUR,89.61019,22.66422,10450,1
DAIBAJNA HATI B.M. HIGH SCHOOL,115040,School,BAGERHAT,MORRELGANJ,DAIBAGNYAHATI,89.58397,22.67722,10451,1
DAIBAJNAHATI ADARSHA GIRLS HIGH SCHOOL,115076,School,BAGERHAT,MORRELGANJ,DAIBAGNYAHATI,89.61808,22.67208,10452,1
KACHURIA ADARSHA HIGH SCHOOL,114865,School,BAGERHAT,CHITALMARI,SANTOSHPUR,89.61664,22.66317,10453,1
MASNI SECONDARY SCHOOL,114927,School,BAGERHAT,KACHUA,RAGHU DATTAKATI,89.70142,22.77944,10454,1
B. C. VASHA HIGH SCHOOL,114941,School,BAGERHAT,KACHUA,BHASA,89.88933,22.60139,10455,1
GAZALIA IDEAL HIGH SCHOOL,114933,School,BAGERHAT,KACHUA,GAZALIA,89.86014,22.56067,10456,1
JOBAI ADARSHA HIGH SCHOOL,114932,School,BAGERHAT,KACHUA,GAZALIA,89.91122,22.73331,10457,1
SAHEED ASAD SMRITI HIGH SCHOOL,114934,School,BAGERHAT,KACHUA,GOPALPUR,89.86075,22.69447,10458,1
AKHTERUDDIN MEMORIAL HIGH SCHOOL,131245,School,BAGERHAT,KACHUA,MALIPATAN,89.86428,22.71075,10459,1
PADMA NAGAR JUNIOR HIGH SCHOOL,114931,School,BAGERHAT,KACHUA,GOPALPUR,89.89031,22.724,10460,1
C.S.PILOT HIGH SCHOOL,KACHUA,114926,School,BAGERHAT,KACHUA,TENGRAKHALI,89.87189,22.73081,10461,1
KACHUA PILOT GIRLS SCHOOL,114925,School,BAGERHAT,KACHUA,KACHUA,89.88914,22.72892,10462,1
ANDHAR MANIK HIGH SCHOOL,114930,School,BAGERHAT,KACHUA,CHHOTA ANDHAR MANIK,89.88506,22.65256,10463,1
ANDHARMANIK GIRLS HIGH SCHOOL,114936,School,BAGERHAT,KACHUA,CHHOTA ANDHAR MANIK,89.88075,22.64719,10464,1
SHAHID ABDUL JALIL HIGH SCHOOL,114937,School,BAGERHAT,KACHUA,MAGHIA,89.88506,22.6435,10465,1
MOBAIDUL ISLAM SECONDARY SCHOOL,114942,School,BAGERHAT,KACHUA,KHALISHAKHALI,89.90697,22.63675,10466,1
BARUIKHALI HIGH SCHOOL,114938,School,BAGERHAT,KACHUA,CHARKATI,89.92194,22.67456,10467,1
GOALMATH RASHIKLAL SECONDARY SCHOOL,114928,School,BAGERHAT,KACHUA,RARI PARA,89.87428,22.66517,10468,1
GOALMATH SECONDARY GIRL'S SCHOOL,114939,School,BAGERHAT,KACHUA,BHANDARKOLA,89.91597,22.67117,10469,1
DR. MONSUR AHMaD HIGH SCHOOL,114966,School,BAGERHAT,MOLLAHAT,KAHALPUR,89.84419,22.60728,10470,1
KAMAR GRAM SECONDARY SCHOOL,114963,School,BAGERHAT,MOLLAHAT,KAMARGRAM,89.84572,22.60661,10471,1
KODALIA M.H.B. JUNIOR GIRLS HIGH SCHOOL,114971,School,BAGERHAT,MOLLAHAT,RANGAMATIA,89.84297,22.60758,10472,1
KODALIA JUNIOR HIGH SCHOOL,114975,School,BAGERHAT,MOLLAHAT,RANGAMATIA,89.79689,22.91214,10473,1
CHARKULIA HIGH SCHOOL,114964,School,BAGERHAT,MOLLAHAT,KULIA,89.81075,22.89781,10474,1
CHARKULIA GIRLS HIGH SCHOOL,114974,School,BAGERHAT,MOLLAHAT,KULIA,89.79603,22.91197,10475,1
NASHUKHALI SOCIAL WELFARE HIGH SCHOOL,114962,School,BAGERHAT,MOLLAHAT,NASUKHALI,89.81483,22.88492,10476,1
SHAHEED HEMAYET UDDIN GIRKS HIGH SCHOOL,114968,School,BAGERHAT,MOLLAHAT,GARFA,89.77114,22.89808,10477,1
GIRISHNAGAR GARFA SECONDARY HIGH SCHOOL,114973,School,BAGERHAT,MOLLAHAT,GIRISHNAGAR,89.7465,22.86894,10478,1
WAZED MEMORIAL MODEL HIGH SCHOOL,114954,School,BAGERHAT,MOLLAHAT,UDAYPUR DAIBAKANDI,89.76514,22.89792,10479,1
A.S.S.M.HIGH SCHOOL(SINGATI),114967,School,BAGERHAT,MOLLAHAT,SHASAN,89.80347,22.93142,10480,1
GANGNI HIGH SCHOOL,114961,School,BAGERHAT,MOLLAHAT,GANGNI,89.79953,22.93294,10481,1
CHANDER HAT GIRLS HIGH SCHOOL,114972,School,BAGERHAT,MOLLAHAT,GAOLA,89.80331,22.92594,10482,1
CHAULTURY HIGH SCHOOL,114970,School,BAGERHAT,MOLLAHAT,MUNI ZILA,89.78064,22.96519,10483,1
K.N.A.S.A HAMID HIGH SCHOOL,114965,School,BAGERHAT,MOLLAHAT,RANGAMATIA,89.79839,22.91181,10484,1
KACHURIA BAZAR H S M M SECONDARY SCHOOL,114959,School,BAGERHAT,MOLLAHAT,RANGAMATIA,89.71497,22.87689,10485,1
BARAKATALI ML.HIGH SCHOOL,115163,School,BAGERHAT,RAMPAL,BARA KANTHALI,89.751,22.82397,10486,1
CHALNA BANDAR SECONDARY SCHOOL,114986,School,BAGERHAT,MONGLA,PASCHIM SELABUNIA,89.75622,22.85661,10487,1
ISLAMI ADARSHA  ACADEMY SECONDARY SCHOOL,115006,School,BAGERHAT,MONGLA,SELABUNIA,89.79375,22.87825,10488,1
ST PAULS HIGH SCHOOL,114989,School,BAGERHAT,MONGLA,PURBA SELABUNIA,89.83994,22.84078,10489,1
MONGLA GIRLS HIGH SCHOOL,115005,School,BAGERHAT,MONGLA,PURBA SELABUNIA,89.82947,22.85303,10490,1
MD ISMAIL HIGH SCHOOL,115004,School,BAGERHAT,MONGLA,PASCHIM SELABUNIA,89.68508,22.52531,10491,1
DOCK SRAMIC  HIGH SCHOOL,114985,School,BAGERHAT,MONGLA,BAZAR AREA,PH,PSV MAHALLA,89.60864,22.46633,10492,1
MONGLA BANDAR SECONDARY SCHOOL,115025,School,BAGERHAT,MONGLA,KAMARDANGA,89.61172,22.47992,10493,1
CHANDPAI MESERSHAH SECONDARY SCHOOL,114998,School,BAGERHAT,MONGLA,CHANDPI,89.60583,22.46842,10494,2
JOYMONI SECONDARY SCHOOL,114999,School,BAGERHAT,MONGLA,JOYMANIRGOL,89.61169,22.47031,10495,1
MALGAZI GIRLS  HIGH SCHOOL,114996,School,BAGERHAT,MONGLA,MALGAZI,89.61572,22.47372,10496,1
BURIR DANGA   SECONDARY  GIRLS  SCHOOL,115008,School,BAGERHAT,MONGLA,BIDYARBAHAN DIGRAJ,89.64339,22.37058,10497,1
BURIRDANGA  SECONDARY SCHOOL,114993,School,BAGERHAT,MONGLA,BHATERABAD BURIRDANGA,89.63086,22.46489,10498,1
DIGRAJ HIGH  SCHOOL,114991,School,BAGERHAT,MONGLA,BIDYARBAHAN DIGRAJ,89.64331,22.49358,10499,1
G M S HIGH SCHOOL,115001,School,BAGERHAT,MONGLA,BIDYARBAHAN,89.66736,22.49053,10500,1
CHILA MANU MIA HIGH SCHOOL,115002,School,BAGERHAT,MONGLA,CHILA,89.60747,22.50719,10501,1
SABED KAHN SECONDARY SCHOOL,115009,School,BAGERHAT,MONGLA,CHILA,89.59217,22.53239,10502,1
HALDIBUNIA HIGH SCHOOL,114997,School,BAGERHAT,MONGLA,HALDIBUNIA,89.57289,22.56228,10503,1
KHASERDANGA A B S SECONDARY SCHOOL,114992,School,BAGERHAT,MONGLA,KHONKARER BER,89.59217,22.53208,10504,1
TATIBUNIA   SECONDARY  SCHOOL,114988,School,BAGERHAT,MONGLA,DATTERMET,89.62269,22.41544,10505,1
SANTIMAYEE  JUNIOR  GIRLS   HIGH SCHOOL,115000,School,BAGERHAT,MONGLA,KHONKARER BER,89.63728,22.39689,10506,1
SHERIA  BEGUM SECONDARY GIRLS  SCHOOL,115007,School,BAGERHAT,MONGLA,MITHAKHALI,89.63811,22.43828,10507,1
ISMAIL MEMORIAL HIGH SCHOOL,114994,School,BAGERHAT,MONGLA,SAHEBERMET,89.64294,22.40531,10508,1
AMRATALA CHAPRA SECONDARY SCHOOL,115003,School,BAGERHAT,MONGLA,AMRATALA,89.69892,22.48647,10509,1
AZIZ BHATTI HIGH SCHOOL,114995,School,BAGERHAT,MONGLA,BANSHTALA,89.70403,22.48567,10510,1
BURBURIA HIGH SCHOOL,114990,School,BAGERHAT,MONGLA,KHARMA,89.64603,22.48636,10511,1
EUNUS ALI SECONDARY SCHOOL,115024,School,BAGERHAT,MONGLA,KHARMA,89.66708,22.52175,10512,1
KHONTA  KATA  SECDAARY  SCHOOL,115231,School,BAGERHAT,SARANKHOLA,MORELLABAD,89.69619,22.41472,10514,1
DHANSAGAR UNITED HIGH SCHOOL,,115233,School,BAGERHAT,SARANKHOLA,DHANSAGAR,89.68703,22.44697,10515,1
BAHARBUNIA HIGH SCHOOL,115039,School,BAGERHAT,MORRELGANJ,BAHARBUNIA,89.67789,22.45558,10516,1
SABERA FERDOSI JUNIOR GIRLS SCHOOL,115087,School,BAGERHAT,MORRELGANJ,BALAIBUNIA,89.77342,22.49006,10517,1
BALAIBUNIA SECONDARY SCHOOL,115072,School,BAGERHAT,MORRELGANJ,BALAIBUNIA,89.79414,22.46622,10518,1
A.C. LAHA PILOT HIGH SCHOOL,115033,School,BAGERHAT,MORRELGANJ,KATHALTALA,89.79231,22.48103,10519,1
S.B. ADARSHA MULTILATERAL HIGH SCHOOL,115058,School,BAGERHAT,MORRELGANJ,BAHARBUNIA,89.79272,22.47944,10520,1
BIPIN KAMAL JUNIOR GIRLS SCHOOL,115027,School,BAGERHAT,MORRELGANJ,BAHARBUNIA,89.8635,22.40336,10521,1
CHHAPRAKHALI SECONDARY SCHOOL,115066,School,BAGERHAT,MORRELGANJ,BAHARBUNIA,89.86192,22.48692,10522,1
FULHATA HIGH SCHOOL,115030,School,BAGERHAT,MORRELGANJ,UTTAR PHULHATA,89.77256,22.48258,10523,1
GOLBUNIA SECONDARY SCHOOL,115071,School,BAGERHAT,MORRELGANJ,UTTAR PHULHATA,89.86133,22.44931,10524,1
KUHARDAh R.A.M. multi secondary SCHOOL,115046,School,BAGERHAT,MORRELGANJ,KUHARDAHA NEHALKHALI,89.7935,22.48136,10526,1
NEHAL KHALI GIRLS HIGH SCHOOL,131464,School,BAGERHAT,MORRELGANJ,KUHARDAHA NEHALKHALI,89.78267,22.47389,10527,1
BANAGRAM CENTURY INSTITUTION,115038,School,BAGERHAT,MORRELGANJ,BANAGRAM,89.87289,22.50761,10528,1
PUTIA ADARSHA BALIKA MADHYAMIK VIDYALAYA,115083,School,BAGERHAT,MORRELGANJ,PUTIA,89.87578,22.5095,10529,1
RAWSHAN ARA GIRLS HIGH SCHOOL,115036,School,BAGERHAT,MORRELGANJ,PURBA FAKIRER TAKIA,89.86742,22.48283,10530,1
ABDUL AZIZ MEMORIAL HIGH SCHOOL,115062,School,BAGERHAT,MORRELGANJ,FAKIRERTAKIA,89.84564,22.48575,10531,1
DAKSHIN SUTALARI H.M.J.K.M. SECONDARY SCHOOL,115065,School,BAGERHAT,MORRELGANJ,DAKSHIN SUTALARI,89.86369,22.48719,10532,1
UTTAR SUTALARI HIGH SCHOOL,115084,School,BAGERHAT,MORRELGANJ,UTTAR SUTALARI,89.91583,22.59981,10533,1
CHINGRA KHALI SECONDRY SCHOOL,115041,School,BAGERHAT,MORRELGANJ,CHINGRAKHALI,89.80689,22.45094,10534,1
SINGJORE  CHANDIPUR  SECONDARY  SCHOOL,115043,School,BAGERHAT,MORRELGANJ,SINGJOR,89.82439,22.44164,10535,1
DHARADOA MULTILATERAL HIGH SCHOOL,115053,School,BAGERHAT,MORRELGANJ,DHARADOHA,89.80906,22.48136,10536,1
PURBA CHANDIPUR GIRLS HIGH SCHOOL,115057,School,BAGERHAT,MORRELGANJ,CHANDIPUR,89.80692,22.46094,10537,1
SINGJOR GOPALPUR S. GIRL'S HIGH SCHOOL,115080,School,BAGERHAT,MORRELGANJ,SINGJOR,89.85361,22.45672,10538,1
BATHKASHE HIGH SCHOOL,115086,School,BAGERHAT,MORRELGANJ,BETKHASI,89.93714,22.50386,10539,2
BADNI VANGA ADARSHA SECONDARY,115034,School,BAGERHAT,MORRELGANJ,BADNIBHANGA,89.92336,22.52011,10540,1
CHARHOGLA BUNIA MOMIN SRITY HIGH SCHOOL,115063,School,BAGERHAT,MORRELGANJ,CHAR HOGLABUNIA,89.85617,22.52808,10541,1
FAKIRBARI ADARSHA HIGH SCHOOL,115056,School,BAGERHAT,MORRELGANJ,KALIKABARI,89.88019,22.52328,10542,1
SAMMILANI UCHHA BILIKA VIDYALAYA,115026,School,BAGERHAT,MORRELGANJ,BAULPUR,89.90294,22.46956,10543,1
SREE SREE GOPAL CHAND HIGH SCHOOL,115070,School,BAGERHAT,MORRELGANJ,MANIK KHOLA,89.92,22.45486,10544,1
HAZI RAJAULLAH SMRITY HIGH SCHOOL,115028,School,BAGERHAT,MORRELGANJ,DAKSHIN PHULHATA,89.903,22.46208,10545,1
JIUDHARA SERJAN SMRITI SECONDARY  SCHOOL,115032,School,BAGERHAT,MORRELGANJ,DAKSHIN JIUDHARA,89.92683,22.46494,10546,1
SAMMILANI SECONDARY SHIKHA NIKETAN,115060,School,BAGERHAT,MORRELGANJ,GOBINDAPUR,89.93967,22.56494,10547,1
SUHASINI HIGH SCHOOL,115073,School,BAGERHAT,MORRELGANJ,BARA HARIPUR,89.72033,22.44447,10548,1
DEUATALA  K C SECONDARY SCHOOL,115055,School,BAGERHAT,MORRELGANJ,DEUATALA,89.75194,22.46575,10549,1
BOROPARI JUNIOR SECONDARY SCHOOL,115089,School,BAGERHAT,MORRELGANJ,CHALITABUNIA,89.73117,22.42047,10550,1
CHIPA BARAIKHALI HIGH SCHOOL,115069,School,BAGERHAT,MORRELGANJ,PURBA CHIPA BARAIKHALI,89.72192,22.48264,10551,1
SANNYASI SECONDARY GIRL'S SCHOOL,115077,School,BAGERHAT,MORRELGANJ,CHALITABUNIA,89.75356,22.46722,10552,1
S. P  RASHIDA  HIGH SCHOOL,115029,School,BAGERHAT,MORRELGANJ,CHALITABUNIA,89.75206,22.46519,10553,1
MORREL GONJ GOVT.GIRLS HIGH SCHOOL,115035,School,BAGERHAT,MORRELGANJ,MORREL GANJ,89.84997,22.40378,10554,1
B.B AFSAR ALI HIGH SCHOOL,115052,School,BAGERHAT,MORRELGANJ,BADURTALA,89.87097,22.37108,10555,1
MORRELGANJ TOWN HIGH SCHOOL,115031,School,BAGERHAT,MORRELGANJ,UTTAR MORRELGANJ,89.83956,22.41539,10556,1
MORREL  GONG  K.G  HOGH SCHOOL,115037,School,BAGERHAT,MORRELGANJ,BHAIZORA,89.86275,22.39669,10557,1
GULISHAKHALI R M HIGH SCHOOL,115044,School,BAGERHAT,MORRELGANJ,GULISAKHALI,89.84767,22.44939,10558,1
HARTAKITALA URFUL SMRITI HIGH SCHOOL,115082,School,BAGERHAT,MORRELGANJ,GUATALA,89.87069,22.44108,10559,1
HOGALPATI HIGH SCHOOL,115054,School,BAGERHAT,MORRELGANJ,BHASHANDAL,89.85886,22.45025,10560,1
TUZAMBER ALI HIGH SCHOOL,115079,School,BAGERHAT,MORRELGANJ,PASCHIM CHIPA BARAIKHALI,89.83764,22.44492,10561,1
PANCH GAON M.M..SECONDARY SCHOOL,115045,School,BAGERHAT,MORRELGANJ,CHAK MAHISH CHARANI,89.78456,22.40333,10562,1
JANASHAKTI SECONDARY GIRLS  SCHOOL,115067,School,BAGERHAT,MORRELGANJ,CHAK MAHISH CHARANI,89.79753,22.43558,10563,1
KHARAIKHALI  JAHURA JR.  GIRLS  SCHOOL,115078,School,BAGERHAT,MORRELGANJ,CHAK KHARAIKHALI,89.79297,22.41939,10564,1
B.P.G.M. RAHMANIA HIGH SCHOOL,115064,School,BAGERHAT,MORRELGANJ,PUTIKHALI,89.81733,22.51772,10565,1
SONAKHALI MAHABBAT ALI SECONDERY SCHOOL,115047,School,BAGERHAT,MORRELGANJ,CHAK PUTIKHALI,89.78425,22.53922,10566,1
PARKUMAR KHALI HIGH SCHOOL,115042,School,BAGERHAT,MORRELGANJ,KADAM RASULER PAHAR,89.82447,22.53397,10567,1
DHULIGATI M.T.HIGH SCHOOL,115049,School,BAGERHAT,MORRELGANJ,CHAK DHULIGANTI,89.81417,22.50211,10568,1
SURENDRA NATH SMRITI GIRLS HIGH SCHOOOL,115068,School,BAGERHAT,MORRELGANJ,CHAK MISTRIDANGA,89.92925,22.54314,10569,1
SHAHID SMRITI UCHCHA BIDHALAYA,115061,School,BAGERHAT,MORRELGANJ,CHAK TELIGATI,89.92253,22.55831,10570,1
KACHU BANIA HASHEM ALI GIRLS HIGH SCHOOL,115075,School,BAGERHAT,MORRELGANJ,KACHUBUNIA,89.81344,22.56356,10571,1
KACHUBUNIA  RAHMATIA   HIGH   SCHOOL,115048,School,BAGERHAT,MORRELGANJ,KACHUBUNIA,89.78722,22.56036,10572,1
K K POLER HAT HIGH SCHOOL,115059,School,BAGERHAT,MORRELGANJ,KANTABUNIA,89.83678,22.57136,10573,1
BAINTALA KASHIPUR HIGH SCHOOL,115173,School,BAGERHAT,RAMPAL,ALIPUR,89.81983,22.54997,10574,1
CHAKSREE A.B.C. HIGH SCHOOL,115186,School,BAGERHAT,RAMPAL,CHAKSREE,89.82067,22.49347,10575,1
AMTALA JUNIOR HIGH SCHOOL,115182,School,BAGERHAT,RAMPAL,KHEJUR MAHAL,89.89622,22.5435,10576,1
KUMALAI SECONDARY SCHOOL,115175,School,BAGERHAT,RAMPAL,KUMLAI,89.89214,22.54314,10577,1
PABANTALA GIRLS HIGH SCHOOL,115160,School,BAGERHAT,RAMPAL,KUMLAI,89.88208,22.52553,10578,1
SAGUNA SECOUNDARY SCHOOL,115199,School,BAGERHAT,RAMPAL,SAGUNA,89.69478,22.61311,10579,1
BAINTALA UNION SECONDARY SCHOOL,115171,School,BAGERHAT,RAMPAL,TELIKHALI,89.70156,22.63778,10580,1
BASTALI HIGH SCHOOL,115189,School,BAGERHAT,RAMPAL,BANSHTALI,89.69414,22.63969,10581,1
BASTALI PALLY UNNAYAN JUNIOR HIGH SCHOOL,115193,School,BAGERHAT,RAMPAL,BANSHTALI,89.69425,22.62144,10582,1
HAZI ARIF GIRLS HIGH SCHOOL,115204,School,BAGERHAT,RAMPAL,GILATALA,89.6655,22.60964,10583,1
CHANDITALA UNITED HIGH SCHOOL,115183,School,BAGERHAT,RAMPAL,CHANDITALA,89.67594,22.61161,10584,1
GILATALA ML. HIGH SCHOOL,115168,School,BAGERHAT,RAMPAL,GILATALA,89.69681,22.59483,10585,1
SUNDARPUR JUNIOR HIGH SCHOOL,115174,School,BAGERHAT,RAMPAL,SUNDARPUR,89.69564,22.55192,10586,1
BETkATA UNION SECONDARY SCHOOL,115181,School,BAGERHAT,RAMPAL,BHOJPATIA,89.67633,22.58636,10587,1
CHHOTA SANNYASHI JUNIOR HIGH SCHOOL,115201,School,BAGERHAT,RAMPAL,BANSHBARIA,89.698,22.59086,10588,1
ADAGHAT HIGH SCHOOL,115184,School,BAGERHAT,RAMPAL,ADAGHAT,89.67367,22.58106,10589,1
BORNI SAIRABAD QUINTON GIRLS HIGH SCHOOL,115172,School,BAGERHAT,RAMPAL,BARNI,89.69842,22.58803,10590,1
BORNI SAIRABAD ML.HIGH SCHOOL,115170,School,BAGERHAT,RAMPAL,BARNI,89.72028,22.51617,10591,1
KHANJAHAN   ALI  HIGH SCHOOL,115205,School,BAGERHAT,RAMPAL,GAURAMBHA,89.71975,22.55894,10592,1
HURKA SITANATH SECONDARY SCHOOL,115165,School,BAGERHAT,RAMPAL,CHARAKHALI,89.5945,22.63839,10593,1
HURKA  JHALMALIA  SHEALIKA  JUNIOR  GIRLS  HIGH SCHOOL,115202,School,BAGERHAT,RAMPAL,HUKRA,89.575,22.63744,10594,1
VEKATMARY BELAI HIGH SCHOOL,115162,School,BAGERHAT,RAMPAL,HUKRA,89.57533,22.63767,10595,1
SANNYASI SECONDARY SCHOOL,115185,School,BAGERHAT,RAMPAL,SANNYASI,89.57697,22.65492,10596,1
GAFUR MEMORIAL JUNIOR HIGH SCHOOL,115203,School,BAGERHAT,RAMPAL,SANNYASI,89.57842,22.64947,10597,1
MADARDIA ADARSHA JUNIOR HIGH SCHOOL,115194,School,BAGERHAT,RAMPAL,MANDRADIA,89.62844,22.54161,10598,1
MALLIKERBER MODEL HIGH SCHOOL,115198,School,BAGERHAT,RAMPAL,MALLIKER BER,89.62661,22.54411,10599,1
DAKRA MULTILA TERAL HIGH SCHOOL,115169,School,BAGERHAT,RAMPAL,KUMARKHALI,89.74969,22.55792,10600,1
PERIKHALI P.U. HIGH SCHOOL,115161,School,BAGERHAT,RAMPAL,PERIKHALI,89.73383,22.54322,10601,1
KALEKHARBER SECONDARY SCHOOL,115180,School,BAGERHAT,RAMPAL,KALEKHAR BER,89.76214,22.53561,10602,1
RAJNAGAR UNION JUNIOR GIRLS SCHOOL,115179,School,BAGERHAT,RAMPAL,BARA DURGAPUR,89.76536,22.53564,10603,1
BETKATA HIGH SCHOOL,115190,School,BAGERHAT,RAMPAL,BETKATA,89.69692,22.54625,10604,1
JHANJHANIA HIGH SCHOOL,115197,School,BAGERHAT,RAMPAL,JHANJHANIA,89.64964,22.53994,10605,1
JOYNAGAR PIPUL BUNIA SECONDARY SCHOOL,115176,School,BAGERHAT,RAMPAL,JOYNAGAR,89.64947,22.53461,10606,1
KADIR KHOLA HIGH SCHOOL,115187,School,BAGERHAT,RAMPAL,KADIRKHOLA,89.58878,22.60211,10607,1
RAMPAL PILOT GIRLS HIGH SCHOOL,115166,School,BAGERHAT,RAMPAL,RAMPAL,89.58414,22.59514,10608,1
SREEFALTALA PILOT HIGH SCHOOL,115167,School,BAGERHAT,RAMPAL,SREEFALTALA,89.64658,22.61278,10609,1
CHANDPUR SHANKAR NAGAR JR.HIGH SCHOOL,115195,School,BAGERHAT,RAMPAL,CHANDPUR,89.65797,22.57464,10610,1
TATERHAT JUNIOR SCHOOL,115206,School,BAGERHAT,RAMPAL,GOBINDAPUR,89.64483,22.59828,10611,1
BHUIAR KANDAR HIGH SCHOOL,115191,School,BAGERHAT,RAMPAL,MANIKNAGAR,89.65228,22.55931,10612,1
SONATUNIA A.K. JUNIOR GIRLS HIGH SCHOOL,115196,School,BAGERHAT,RAMPAL,SONATUNIA,89.64397,22.61067,10613,1
FOYLAHAT KAMAL UDDIN MADHYAMIK SCHOOL,115164,School,BAGERHAT,RAMPAL,SANTOSHPUR,89.64978,22.55564,10614,1
TULSHIRABAD K.U.M. HIGH SCHOOL,115192,School,BAGERHAT,RAMPAL,TULSIRABAD,89.61692,22.6415,10615,1
UJALKUR GIRLS JR HIGH SCHOOL,115177,School,BAGERHAT,RAMPAL,JHALBARI,89.67306,22.65231,10616,1
UJALKUR HIGH SCHOOL,115178,School,BAGERHAT,RAMPAL,UJALKUR,89.62292,22.62736,10617,1
TORAB MEMORIAL HIGH SCHOOL,115050,School,BAGERHAT,MORRELGANJ,GHASIAKHALI,89.62794,22.65728,10618,1
DEMA UNION KASHIMPUR HIGH SCHOOL,114779,School,BAGERHAT,BAGERHAT SADAR,KASHIMPUR,89.64172,22.63308,10619,1
BARA BASH BARIA secondary HIGH SCHOOL,114794,School,BAGERHAT,BAGERHAT SADAR,BARA BANSHBARIA,89.64381,22.66711,10620,1
KASHIMPUR GIRLS HIGH SCHOOL,114802,School,BAGERHAT,BAGERHAT SADAR,KASHIMPUR,89.64253,22.63739,10621,1
KHEGRAGHAT HIGH SCHOOL,115188,School,BAGERHAT,BAGERHAT SADAR,KHEGRAGHAT,89.74778,22.51947,10622,1
DHANSAGAR RADHALAXMI JUNIOR GIRLS HIGH SCHOOL,115235,School,BAGERHAT,SARANKHOLA,DHANSAGAR,89.73867,22.60097,10623,1
RAJAPUR  GIRLS HIGH SCHOOL,115242,School,BAGERHAT,SARANKHOLA,RAJAPUR,89.72594,22.59756,10624,1
RAJAPUR HIGH SCHOOL,115232,School,BAGERHAT,SARANKHOLA,RAJAPUR,89.76461,22.61719,10625,1
AMENA MEMORIAL GIRLS JUNIOR HIGH SCHOOL,115228,School,BAGERHAT,SARANKHOLA,AMRAGACHHIA,89.79453,22.35003,10626,1
B. K. JUNIOR SECONDARY GIRLS SCHOOL,115244,School,BAGERHAT,SARANKHOLA,MORELLABAD,89.792,22.37208,10627,1
KHONTAKATA UNION SECONDARY SCHOOL,115238,School,BAGERHAT,SARANKHOLA,MORELLABAD,89.81442,22.36811,10628,1
ANOWAR HOSSAIN SECONDARY SCHOOL,115243,School,BAGERHAT,SARANKHOLA,AMRAGACHHIA,89.81278,22.38689,10629,1
RASULPUR JUNIOR HIGH SCHOOL,115239,School,BAGERHAT,SARANKHOLA,DAKSHIN RAJAPUR,89.866,22.34906,10630,1
JANATA HIGH SCHOOL,115236,School,BAGERHAT,SARANKHOLA,DAKSHIN RAJAPUR,89.8545,22.33272,10631,1
RAYENDA PILOT HIGH SCHOOL,115229,School,BAGERHAT,SARANKHOLA,RAYENDA,89.84414,22.35097,10632,1
R. K. D. S. PILOT GIRLS HIGH SCHOOL,115234,School,BAGERHAT,SARANKHOLA,RAYENDA,89.85436,22.31639,10633,1
SOUTH KHALI JUNIOR sceondary GIRLS  SCHOOL,131422,School,BAGERHAT,SARANKHOLA,SONATALA,89.783,22.29536,10634,1
SUNDARBON HIGH SCHOOL,115237,School,BAGERHAT,SARANKHOLA,SARANKHOLA,89.84222,22.29183,10635,1
BADHAL IDEL SECONDARY SCHOOL,115240,School,BAGERHAT,SARANKHOLA,NALBUNIA,89.82617,22.26347,10636,1
DHANSAGAR PALLIMGAL SECODNAR SCHOOL,115051,School,BAGERHAT,MORRELGANJ,PURBA CHIPA BARAIKHALI,89.82783,22.22436,10637,1
S.P.C KAFURPURA HIGH SCHOOL AND COLLEGE,114837,School and College,BAGERHAT,BAGERHAT SADAR,KODLA,89.7795,22.72819,25717,1
JADU NATH SCHOOL AND COLLEGE,114767,School and College,BAGERHAT,BAGERHAT SADAR,PURBA DASH ANI,89.79094,22.74878,25718,1
RANGDIA SCHOOL AND COLLEGE,114834,School and College,BAGERHAT,BAGERHAT SADAR,AFRA,89.84225,22.71192,25719,1
SAIRA MADHUDIA COLLEGIATE SCHOOL,114835,School and College,BAGERHAT,BAGERHAT SADAR,UTTAR KHANPUR,89.76183,22.68342,25720,1
TAFAL BARI SCHOOL AND COLLEGE,115265,School and College,BAGERHAT,SARANKHOLA,SONATALA,89.84114,22.32708,25721,1
