inst name, eiin, inst_type, district, thana, mauza, long, lat, serial,isUnique
GOVT,SHAH SULTAN COLLEGE,119248,College,BOGRA,BOGRA SADAR,SULTANGANJ PARA,89.380203,24.819166,155,1
SYED AHMMED COLLEGE SUKHANPUKUR BOGRA,119548,College,BOGRA,GABTALI,SUKHAN PUKUR,89.480392,24.92807,156,1
SHARIAKANDI DEGREE COLLEGE,119713,College,BOGRA,SARIAKANDI,BALUHATA,89.570984,24.888773,157,1
SHAHID ZIA  DEGREE COLLEGE, BAGBARI BOGRA,119545,College,BOGRA,GABTALI,NASIPUR,89.376259,24.843502,158,1
BALUA HAT DEGRE COLLEGE,119951,College,BOGRA,SONATOLA,BARABALUA,89.482697,25.033695,159,1
SONAHATA DEGREE COLLEGE,119403,College,BOGRA,DHUNAT,SHIALI,89.540695,24.68005,160,1
GABTALI GOVT. COLLEGE,119546,College,BOGRA,GABTALI,JOYBHOGA (PART),89.45147,24.88181,161,1
TARANIR HAT degree  COLLEGE,132059,College,BOGRA,GABTALI,BALIA DIGHI,89.51921366,24.80471312,162,1
DURGAHATTA DEGREE COLLEGE,119549,College,BOGRA,GABTALI,DURGAHATA,89.52706773,24.84042117,163,1
SANTAHAR WOMEN'S COLLEGE,119156,College,BOGRA,ADAMDIGHI,SHANTAHAR BAZAR,88.98480199,24.81116403,165,1
SHAHID AHSANUL HAQUE DEGREE COLLEGE,119161,College,BOGRA,ADAMDIGHI,KALSA,88.99459147,24.8079192,166,1
SANTAHAR GOVT. COLLEGE bogra,119157,College,BOGRA,ADAMDIGHI,MALSON,88.98328646,24.80108203,167,1
HAZI TASER AHMMED WOMENS COOLEGE,119158,College,BOGRA,ADAMDIGHI,TALSON,89.04102446,24.8210146,168,1
ADAMDIGHI RAHIM UDDIN DEGREE COLLEGE,119160,College,BOGRA,ADAMDIGHI,ADAM DIGHI,89.03594373,24.82243803,169,1
JALAL UDDIN AHMED COLLEGE,119162,College,BOGRA,ADAMDIGHI,JHAKHAR,89.13542985,24.74727012,170,1
NASRATPUR DEGREE COLLEGE,119159,College,BOGRA,ADAMDIGHI,NASRATPUR,89.07351878,24.82286038,171,1
DR. ENAMUL HAQUE COLLEGE,119952,College,BOGRA,SONATOLA,UTTAR JORGACHHA,89.50832474,24.98715903,172,1
SHARIAKANDI ABDUL MANNAN MOHILA COLLEGE,119716,College,BOGRA,SARIAKANDI,DHAP UTTAR PURBA,89.57516899,24.89495189,173,1
GABTALI WOMENS  COLLEGE,119547,College,BOGRA,GABTALI,UNCHURKI (PART),89.44206,24.94867,176,1
SHAHID ZIA MODEL COLLEGE,119551,College,BOGRA,GABTALI,GABTALI (PART),89.45869,24.88072,177,1
TASLIM UDDIN TARAFDER DEGREE COLLEGE,119550,College,BOGRA,GABTALI,SONARAI MUCHIKHALI,89.42339,24.90728,178,1
KAHALOO DEGREE COLLEGE,119612,College,BOGRA,KAHALOO,JAMTALA,89.404,24.95417,180,1
KAHALOO ADARSHA WOMENS DERGEE COLLEGE,119613,College,BOGRA,KAHALOO,ULAT MAIDHA PARA,89.456,24.87667,181,1
AZIZUL HAQUE MEMORIAL DEGREE COLLEGE,119611,College,BOGRA,KAHALOO,AGHOR,89.2775,24.75861,182,1
DARGAHAT DEGREE COLLEGE,119614,College,BOGRA,KAHALOO,NARAHATTA,89.23497,24.86469,183,1
NIMAI DIGHI ADARSHA COLLEGE,119667,College,BOGRA,NANDIGRAM,NIMAI DIGHI,89.29953,24.89092,184,1
MONSUR  HOSSAIN DEGREE  COLLEGE,119665,College,BOGRA,NANDIGRAM,NANDIGRAM COLLEGE PARA,89.17406,24.78628,185,1
NANDIGRAM MOHILLA COLLEGE,119664,College,BOGRA,NANDIGRAM,NANDIGRAM COLLEGE PARA,89.24544,24.62881,187,1
HAT KARAI DEGREE COLLEGE,119666,College,BOGRA,NANDIGRAM,HATKARAI,89.20986,24.74847,188,1
DUPCHANCHIA J.K. DEGREE COLLEGE,119471,College,BOGRA,DHUPCHANCHIA,DHAP,89.18356,24.87944,189,1
DUPCHANCHIA MAHILA COLLEGE,119470,College,BOGRA,DHUPCHANCHIA,DHAP,89.17222,24.87375,190,1
SHAHID M MONSUR ALI COLLEGE,119474,College,BOGRA,DHUPCHANCHIA,MAUKURI,89.10869,24.84269,191,1
BORO NILAHALI BERAGRAM COLLEGE,131932,College,BOGRA,DHUPCHANCHIA,BERAGAON,89.10019,24.86928,192,1
GOVT.SHAH  EYTE  BARIA  COLLEGE,119473,College,BOGRA,DHUPCHANCHIA,TALORA,89.18208,24.82394,193,1
MARTUZAPUR  COLLEGE,119469,College,BOGRA,DHUPCHANCHIA,MURTAJAPUR,89.09653,24.94967,194,1
JALSUKA HABIBUR RAHMAN COLLEGE,119405,College,BOGRA,DHUNAT,JALSUKHA,89.50808,24.63994,195,1
DHUNAT DEGREE COLLEGE,119401,College,BOGRA,DHUNAT,DHUNAT,89.51494,24.67178,196,1
DHUNAT MOHILA  COLLEGE,119404,College,BOGRA,DHUNAT,PASCHIM BHARAN SHAHI (PART),89.52583,24.66347,197,1
BILCHAPRI IDEAL COLLEGE,131905,College,BOGRA,DHUNAT,BIL CHAPRI,89.49906,24.71136,198,1
GOSHAI BARI DEGREE COLLEGE,119402,College,BOGRA,DHUNAT,GOSAINBARI,89.60883,24.72667,199,1
GOSSAIN BARI WOMENS COLLEGE,131917,College,BOGRA,DHUNAT,GOSAINBARI,89.59311,24.72847,200,1
G.M.C DEGREE COLLEGE, BOGRA,119400,College,BOGRA,DHUNAT,PIRHATI,89.54922,24.59342,201,1
SHERPUR  COLLEGE,119808,College,BOGRA,SHERPUR,SREERAMPUR DAKSHIN,89.48706,24.59572,202,1
SHERPUR TOWN CLUB PUBLIC MOHILA COLLEGE,119807,College,BOGRA,SHERPUR,SREERAMPUR DAKSHIN,89.40667,24.68897,203,2
RAHIMA NAWASHER ALI DEGREE COLLEGE,119810,College,BOGRA,SHERPUR,CHANDIPUR,89.41256,24.57869,204,1
JAMUR ISLAMIA COLLEGE,119805,College,BOGRA,SHERPUR,JAMUR,89.37989,24.65128,205,1
SIMABARI WOMENS COLLEGE,119809,College,BOGRA,SHERPUR,SHIMABARI,89.48619,24.56642,206,1
JOYLA JUAN DEGREE COLLEGE,119806,College,BOGRA,SHERPUR,JOYNA JUAN,89.46031,24.62678,207,1
GOVT.AZIZUL HAQUE COLLEGE,BOGRA,119246,College,BOGRA,BOGRA SADAR,PHULBARI,89.36558,24.8565,208,1
GOVT.COMMERCIAL INSTITUTE, BOGRA,132124,College,BOGRA,BOGRA SADAR,SUTRAPUR GHORA PATTI,89.35872,24.84478,209,1
BOGRA WOMENS COLLEGE,119256,College,BOGRA,BOGRA SADAR,MALATINAGAR (PART-1),89.37322,24.84467,210,1
ADARSHA MOHABIDDYALAYA ,BOGRA,119255,College,BOGRA,BOGRA SADAR,PURAN BOGRA (PART),89.34836,24.83267,211,1
JAHIDUR RAHMAN WOEMEN'S COLLEGE,119247,College,BOGRA,BOGRA SADAR,CHHAY PUKURIA(GHODARPARA,89.34667,24.86111,212,1
GOVERNMENT MUJIBUR RAHMAN WOMEN'S COLLEGE BOGRA,119250,College,BOGRA,BOGRA SADAR,PHULBARI,89.35436,24.86097,213,1
BOGRA COLLEGE,119249,College,BOGRA,BOGRA SADAR,NARALI,89.36944,24.89567,214,1
THENGAMARA ANSAR HOSNEARA NIGHT COLLEGE,119252,College,BOGRA,BOGRA SADAR,GOKUL,89.31711,24.93489,215,1
KAZI NURUL HAJI MOYEZ UDDIN COLLEGE, BOGRA,131997,College,BOGRA,BOGRA SADAR,KAZI NURAIL,89.39872,24.92944,216,1
NAMUZA DEGREE COLLEGE,119253,College,BOGRA,BOGRA SADAR,NAMUJA,89.32,24.95136,217,1
NOON GOLA DEGREE COLLAGI,119254,College,BOGRA,BOGRA SADAR,DASTIKA,89.34144,24.89736,218,1
JANATA COLLAGE,119257,College,BOGRA,BOGRA SADAR,PANCHBARIA,89.40881,24.86708,219,1
SHIBGONJ M.H.  COLLEGE,119907,College,BOGRA,SHIBGANJ,BANAIL,89.31719,24.98497,220,1
CHOWDHURY ADARSHA WOMENS COLLEGE,119912,College,BOGRA,SHIBGANJ,CHANDNIA SHIBGANJ (PART),89.32375,25.00225,221,1
MOIDANHATTA MOSHARRAF MONDAL COLLEGE,119911,College,BOGRA,SHIBGANJ,MAIDANHATA,89.33208,25.09444,222,1
MOKAMTALA  WOMENS DEGRE  COLLEGE,119909,College,BOGRA,SHIBGANJ,LAKSHMIPUR,89.36786,25.0125,223,1
PIROB UNITED DEGREE COLLEGE,119910,College,BOGRA,SHIBGANJ,SEHALI,89.37036,24.98911,224,1
MOHASTHAN MAHI SAWAR DEGREE COLLEGE,119908,College,BOGRA,SHIBGANJ,MAHASTHANGAR,89.33783,24.98469,225,2
AL HAJ RAHMAT ULLAH COLLEGE,119913,College,BOGRA,SHIBGANJ,CHAK KANU,89.44792,25.05297,226,1
KAMAR UDDIN ISLAMIA  COLLEGE,119328,College,BOGRA,SHAJAHANPUR,DEMAJANI,89.43353,24.74264,227,1
DUBLAGARI DEGREE COLLEGE,119329,College,BOGRA,SHAJAHANPUR,DURULIA,89.41272,24.77961,228,1
GANAKPARA COLLEEGE,119717,College,BOGRA,SARIAKANDI,KHAMAR BALALI,89.58439,24.80861,229,1
CHHAIHATA DEGREE COLLEGE,119715,College,BOGRA,SARIAKANDI,CHHAIHATA,89.54225,24.92953,230,1
CHANDAN BAISHA DEGREE COLLEGE,119714,College,BOGRA,SARIAKANDI,CHANDAN BAISHA,89.54286,24.80089,231,1
MURADPUR BANDIR PUKUR DHAKHIL MADRASAH,119650,Madrasha,BOGRA,NANDIGRAM,MURADPUR,89.32039,24.66161,3109,2
KHATIAMARI MEHERUNNESA DHKHIL MADRASAH,119394,Madrasha,BOGRA,DHUNAT,PAR LAKSHMIPUR,89.56989,24.78842,3110,2
DAYARAMPUR SHIRAJUL HAQUE DAKHIL MADRASHA,119516,Madrasha,BOGRA,GABTALI,KHURDA SONAKANIA(DHAYARAMPUR),89.48331551,24.79953712,3112,1
KALAIHATA DAKHIL MADRASAH,119543,Madrasha,BOGRA,GABTALI,KALAIHATA,89.51704716,24.79340436,3113,1
DURGAHATTA D.U  SENIOR FAZIL MADRASA,119526,Madrasha,BOGRA,GABTALI,DURGAHATA,89.52516626,24.84322418,3114,1
BHANADRA PANIR PAR ALA NUR MADRASHA,119523,Madrasha,BOGRA,GABTALI,BHANDARA,89.51206679,24.84206416,3115,1
PADMAPARA RHAMANIS DHAKIL MASRASHA,119517,Madrasha,BOGRA,GABTALI,PADMA PARA,89.42471931,24.86246232,3116,1
GURTUP NOGOR DARUL ISLAM DAKHIL MADRASAH,119528,Madrasha,BOGRA,GABTALI,GURTUP,89.44430709,24.83426179,3117,1
MOHISHABAN SARKARPARA A.U.ALIM MADRASHA,119527,Madrasha,BOGRA,GABTALI,MAHISHABAN,89.49037723,24.80556624,3118,1
MOHISHABAN MOKSEDIA SINIOR (ALIM) MADRASAH,119521,Madrasha,BOGRA,GABTALI,MAHISHABAN,89.48425452,24.81439603,3119,1
SONAKANIA DAKHIL MADRASAH,119535,Madrasha,BOGRA,GABTALI,SONAKANIA,89.46387127,24.80579776,3120,1
SONAKANIA HIZBUN NOOR BALIKA DAKHIL MADRASAH,119532,Madrasha,BOGRA,GABTALI,SONAKANIA,89.46462712,24.8065164,3121,1
HAMIDPUR GIRLS DAKHIL MADRASHA,119531,Madrasha,BOGRA,GABTALI,HAMIDPUR (PART),89.44361896,24.88880762,3122,1
HOSSAINPUR JAKARIA DAKHIL MADRASA,119519,Madrasha,BOGRA,GABTALI,PRATHAM ARCHHED,89.45761171,24.9163321,3123,1
BORO ITALI DAKHIL MADRASHA,119544,Madrasha,BOGRA,GABTALI,ITALI,89.47410625,24.76546371,3124,1
NAASIPUR GIRLS DAKHIL MADRASAH,119539,Madrasha,BOGRA,GABTALI,NASIPUR,89.47703377,24.78794382,3125,1
KARIMPARA B M DHAKIL MADRASA,119533,Madrasha,BOGRA,GABTALI,JAMIRBARIA,89.43990528,24.95350268,3126,1
GABTALI ALIM MADRASAH,119538,Madrasha,BOGRA,GABTALI,GABTALI (PART),89.4525733,24.8832632,3127,1
JOYBHOGA  DAKHIL MADRASAH,119534,Madrasha,BOGRA,GABTALI,JOYBHOGA (PART),89.46993366,24.88303093,3128,1
ADMDIGHI ADAMIA FAZIL MADRASAH,119143,Madrasha,BOGRA,ADAMDIGHI,ADAM DIGHI,89.03982633,24.81912614,3129,1
JHAKHIR DAKHIL MADRASAH,119150,Madrasha,BOGRA,ADAMDIGHI,JHAKHAR,89.11659725,24.7483679,3130,1
ANTAHAR ISLAMIA DAKIL MADRASA,119151,Madrasha,BOGRA,ADAMDIGHI,CHHATIANGRAM,88.98346746,24.84163242,3131,1
PAHLOWAN PARA ADHUNIK DAKHIL MADRASAH,119155,Madrasha,BOGRA,ADAMDIGHI,KAIKURI,89.02255202,24.85113809,3132,1
BASHIKORA DAKHIL MADRASA,119144,Madrasha,BOGRA,ADAMDIGHI,BASIKORA,89.09147975,24.79918405,3133,1
CHENCHUA DAKHIL MADRASAH,119149,Madrasha,BOGRA,ADAMDIGHI,CHECHUA,89.12772276,24.80718561,3134,1
KARAI ALHAJ ASHRAFUNNESA ALIM MADRASAH,119153,Madrasha,BOGRA,ADAMDIGHI,KARAI,89.10801575,24.78168259,3135,1
KUNDOGRAM BANIAGARI DAKHIL MADRASHA,119154,Madrasha,BOGRA,ADAMDIGHI,KUNDAGRAM,89.12513862,24.79193917,3136,1
TILAS ISLAMPUR SIDDIQUIA DKAHIL MADRASHA,119148,Madrasha,BOGRA,ADAMDIGHI,TILACH,89.10065048,24.80054506,3137,1
CHATKHAIR SIDDIQUIA DAKHIL MADRASAH,119147,Madrasha,BOGRA,ADAMDIGHI,CHATKHAIR,89.08847459,24.84584351,3138,1
NASARATPUR DHANTALA ALIM MADRASAH,119142,Madrasha,BOGRA,ADAMDIGHI,LATIFPUR,89.07951303,24.81575376,3139,1
SONATALA  FAZIL  DEGREE  MADRASHA,119938,Madrasha,BOGRA,SONATOLA,GAR CHAITANYAPUR (PART),89.50078807,25.03892994,3140,1
FAZILA  SHARIF  GIRLS DAKHIL  MADRASHA,119944,Madrasha,BOGRA,SONATOLA,GAR CHAITANYAPUR (PART),89.49761344,25.03626669,3141,1
ZAHANABAD ALIM MADRASHA,119937,Madrasha,BOGRA,SONATOLA,UTTAR DIGHALKANDI,89.46064296,25.01549298,3142,1
SAYED AHAMED ALIM MADRASHA,119943,Madrasha,BOGRA,SONATOLA,SIHIPUR,89.49043616,24.94318906,3143,1
MADHYA DIGHAL KANDI Abdul Based DAKHIL MADRASHA,119940,Madrasha,BOGRA,SONATOLA,MADHYA DIGHALKANDI,89.49182139,24.96871739,3144,1
BOYRA  DAKHIL  MADRASHA,119947,Madrasha,BOGRA,SONATOLA,BOYRA,89.52472289,24.96434503,3145,1
FULBARIA  H.M.V.  DAKHIL  MADRASHA,119942,Madrasha,BOGRA,SONATOLA,FULBARIA,89.55473141,25.03659476,3146,1
PAKULLA  RAHMANIA  DAKHIL  MADRASHA,119703,Madrasha,BOGRA,SONATOLA,PAKULLA,89.55769639,24.9860835,3147,1
TEKANI  CHUKAI  NAGAR  P. M.  DAKHIL  MADRASHA,119941,Madrasha,BOGRA,SONATOLA,PURBA TEKANI,89.56570102,25.01151411,3148,1
SHARIAKANDI FAZIL MADRASHA,119699,Madrasha,BOGRA,SARIAKANDI,RAMKRISHNAPUR,89.57089508,24.8873451,3149,1
DURGADHA D .J DAKHIL MADRASHA,119707,Madrasha,BOGRA,SARIAKANDI,TAJUR PARA,89.55757075,24.93116664,3150,1
NIZ BALAIL ISLAMIA SENIAR ALIM MADRSAH,119706,Madrasha,BOGRA,SARIAKANDI,NIJ BALALI,89.55586038,24.94468888,3151,1
KARNI BARI THIMUKHI FAZIL MADRASHA,119700,Madrasha,BOGRA,SARIAKANDI,KUTUBPUR,89.59534269,24.82333891,3152,1
SHOLAR TAIR KUTUBPUR K U DAKHIL MADRASHA,119704,Madrasha,BOGRA,SARIAKANDI,KUTUBPUR,89.57559232,24.81274188,3153,1
KOGOIL NAYBULLA ALIM MADRASHA,119530,Madrasha,BOGRA,GABTALI,KAGAIL,89.44889,24.88053,3154,1
KAMARCHATTA BATATONNESA (ALIM) SENIOR MADRASAH,119525,Madrasha,BOGRA,GABTALI,RAMESHWARPUR,89.50692,24.90556,3155,1
RAMESWARPUR UTTUR PARA KASEMIA GIRLS DAKHIL MADRASHA,119518,Madrasha,BOGRA,GABTALI,RAMESHWARPUR,89.44889,24.87492,3156,1
SHUVOPARA DARUL ULUM DAKHIL MADRASHA,119540,Madrasha,BOGRA,GABTALI,RAMESHWARPUR,89.40111,24.9865,3157,1
ATBARIA ASMOTULLAH GIRLS DAKHIL MADRASAH,119541,Madrasha,BOGRA,GABTALI,ATBARIA,89.41989,24.94172,3158,1
SHABEK PARA DELOWARIA DAKHIL MADRASA,119524,Madrasha,BOGRA,GABTALI,SABEK PARA,89.41006,24.96078,3159,1
KAHALOO SIDDIQUIA FAZIL DEGREE MADRASHA,119585,Madrasha,BOGRA,KAHALOO,KAHALOO BAZAR,89.47544,24.92267,3160,1
BIRKEDAR KHAZA MOYEN UDDIN CHISTI (R) DAKHIL MADRASHA,119597,Madrasha,BOGRA,KAHALOO,BIR KEDAR,89.25861,24.83122,3161,1
KAURAS MOKAMTALA DAKHIL MADRASHa,119600,Madrasha,BOGRA,KAHALOO,KAURAS,89.26903,24.8385,3162,1
BAMUJA SIDDIQUIA FAZIL (DEGREE) MADRASA,119588,Madrasha,BOGRA,KAHALOO,LOKNATH PARA,89.19694,24.794,3163,1
DURGAPUR ENAYATULLAH DAKHIL MADRASHA,119596,Madrasha,BOGRA,KAHALOO,DURGAPUR,89.22669,24.87828,3164,1
KHARIA NISHINDARA MAZEDA HOSSAIN DAKHIL MADRASHA,119607,Madrasha,BOGRA,KAHALOO,KHARIA NASINDARA,89.21994,24.83344,3165,1
PANCHPIR MAZAR RAHMANIA DAKHIL MADRASHA,119606,Madrasha,BOGRA,KAHALOO,PROTAPPUR,89.22139,24.82942,3166,1
BANDAI  KHARA  F. A. U. A. DAKHIL MADRASA,119601,Madrasha,BOGRA,KAHALOO,BANDAIKHARA,89.20756,24.82636,3167,1
DARAI MONSURUL ULUM GIRL'S DAKHIL MADRASHA,119609,Madrasha,BOGRA,KAHALOO,JAMGAON,89.25025,24.76022,3168,1
KARAMJAPARA PEER MAZAR DAKHIL MADRASHA,119610,Madrasha,BOGRA,KAHALOO,KARANJA PARA,89.22906,24.78533,3169,1
KURARASHOTTY B.U.AND ANSARIA DAKHIL MADRASHA,119590,Madrasha,BOGRA,KAHALOO,KHURASATTI,89.26744,24.74586,3170,1
HATPUKUR SULTANIA DAKHIL MADRASHA,119602,Madrasha,BOGRA,KAHALOO,PANAI,89.21556,24.77839,3171,1
SANTA ISLAMIA DAKHIL MADRASHA,131488,Madrasha,BOGRA,KAHALOO,SANTA,89.25322,24.75892,3172,1
UTTAR DEBKHADA ASIA DAKHIL MADRASHA,119603,Madrasha,BOGRA,KAHALOO,UTTAR DEBKHANDA,89.22742,24.75631,3173,1
SHAKOHALI DHAKIL MADRASHA,119604,Madrasha,BOGRA,KAHALOO,SANKOHALI,89.23736,24.77758,3174,1
KALAI RAJBATI DAKHIL MADRASAH,119591,Madrasha,BOGRA,KAHALOO,KALAI,89.26933,24.83311,3175,1
PILKUNJA SHAH SULTAN FAZIL MADRASHA,119598,Madrasha,BOGRA,KAHALOO,PILKUNJA,89.22017,24.89442,3176,1
BHALOSON DAKHIL MADRASHA,119605,Madrasha,BOGRA,KAHALOO,BHALSON,89.21117,24.89581,3177,1
KALLAPARA ANOWARUL ULUM FAZIL MADRASHA,119586,Madrasha,BOGRA,KAHALOO,BHITISONAI,89.23939,24.90186,3178,1
KALMA RAHMANIA SENIOR FAZIL MADRASAH,119593,Madrasha,BOGRA,KAHALOO,KALMASIBA,89.27875,24.79447,3179,1
MAGURA M.U. ALIM MADRASHA,119589,Madrasha,BOGRA,KAHALOO,MAGURA,89.28569,24.75914,3180,1
MURAIL ISLAMIA SENIOR ALIM MADRASHA,119587,Madrasha,BOGRA,KAHALOO,MURAIL,89.29994,24.83731,3181,1
SITLAI SIDDIQUIA DAKHIL MADRASHAH,119608,Madrasha,BOGRA,KAHALOO,SITLAI,89.29706,24.85978,3182,1
LOHA JAL DAKHIL MADRASHA,119599,Madrasha,BOGRA,KAHALOO,LOHAJAL,89.25553,24.88314,3183,1
SHILKOUR MISBAHUL ULUM SENIOR  ALIM MADRASAH,119592,Madrasha,BOGRA,KAHALOO,SILKONAR,89.25817,24.86625,3184,1
PAIKORSHAH JAMALIA SENIOR (ALIM) MADRASHA,119594,Madrasha,BOGRA,KAHALOO,PAIKAR,89.26589,24.86303,3185,1
BHOGOIL DAKHIL MADRASHA,119595,Madrasha,BOGRA,KAHALOO,BHUGAIL,89.27717,24.90458,3186,1
MAJGRAM M.A.SENIOR FAZIL MADRASHA,119645,Madrasha,BOGRA,NANDIGRAM,THALTA MAJHGRAM,89.26264,24.93172,3187,1
SHAR DARUS SALAM DAKHIL MADRASAH,119655,Madrasha,BOGRA,NANDIGRAM,SARADIGAR,89.28658,24.8845,3188,1
DAMGARA SIDDIQUIA FAZIL(DEGREE ) MADRASAH,119644,Madrasha,BOGRA,NANDIGRAM,DAMGARA DAULAT,89.15717,24.76992,3189,1
ISLAMPUR BHUSHKUR ALIm MADRASAH,119649,Madrasha,BOGRA,NANDIGRAM,BHUSHKUR,89.21067,24.7225,3190,1
BIZRUL PAKURIA SIDDIKIA GIRLS DAKHIL MADRASA,119651,Madrasha,BOGRA,NANDIGRAM,BIZRUL,89.22314,24.75172,3191,1
GOSAIL HAFFZAIA DAKHIL MADDRSA,119656,Madrasha,BOGRA,NANDIGRAM,GACHHAIL,89.22322,24.73383,3192,1
ISLAMPUR ALHAZA SHARIEF UDDIN AND SHRIFUN GIRLS MADRASA,119652,Madrasha,BOGRA,NANDIGRAM,BHUSHKUR,89.28314,24.68142,3193,1
KALISH PUNAIL HAMIDIA FAZIL MADRASAH,119647,Madrasha,BOGRA,NANDIGRAM,KALIS,89.21522,24.74928,3194,1
KATHOM SYED JUMUL DEWAN GIRLS DAKHIL MADRASAH,119658,Madrasha,BOGRA,NANDIGRAM,KATHAM,89.25803,24.71264,3195,1
DEOTA DAKHIL MADRASHA,119643,Madrasha,BOGRA,NANDIGRAM,DEOTA,89.27308,24.71142,3196,1
ANCHOTA SMMILITA SENIOR SEONIOR MADRASH,119646,Madrasha,BOGRA,NANDIGRAM,ANCHALTA,89.14364,24.69131,3197,1
CHALA MOKAMTOLA AULIA DAKHIL MADRASHA,119659,Madrasha,BOGRA,NANDIGRAM,CHALA,89.17161,24.70617,3198,1
HATDHUMA MOZADDID ALFESANI DAKHIL MADRASHA,119661,Madrasha,BOGRA,NANDIGRAM,HATDHUMA,89.18292,24.68778,3199,1
DAMDAMA AMINIA DAKHIL MADRASAH,119654,Madrasha,BOGRA,NANDIGRAM,DHUDAR,89.30097,24.65403,3200,2
NUNDAH FAZIL degree MADRASAh,119648,Madrasha,BOGRA,NANDIGRAM,NUNDAHA,89.31092,24.63297,3202,1
SHINGJANI D.S.S  ALIM MADRASHA,119653,Madrasha,BOGRA,NANDIGRAM,SINGJANI,89.32311,24.61944,3203,1
BATDIGHI DARUS SUNNAH DAKHIL MADRASAH,119663,Madrasha,BOGRA,NANDIGRAM,BAT DIGHI,89.1515,24.72814,3204,1
JAMALPUR PANCHPIR DAKHIL MADRASHA,119657,Madrasha,BOGRA,NANDIGRAM,JAMALPUR,89.17386,24.78672,3205,1
DUBCHANDCHIA DARUS SNNAH BOHOMUKHI fAZIL DEGREE MADRASHA,119457,Madrasha,BOGRA,DHUPCHANCHIA,MANDALPARA,89.16328,24.87864,3206,1
BERUNJA ISLAMIA DAKHIL MADRASAH,119447,Madrasha,BOGRA,DHUPCHANCHIA,BERUNJA,89.13731,24.92956,3207,1
KOLE SOHRADIPUR ALIM MADRASHA,119451,Madrasha,BOGRA,DHUPCHANCHIA,KOLGRAM,89.15853,24.94489,3209,1
JOHAL MATAI AND TEMA DAKHIL MADRASHA,119464,Madrasha,BOGRA,DHUPCHANCHIA,MATAI,89.17358,24.94025,3210,1
KHADIZA KHATUN ISLAMIA ALIM MADRASAH,119442,Madrasha,BOGRA,DHUPCHANCHIA,MUSTAFAPUR,89.14175,24.93939,3211,1
BHATAHAR DAKHIL MADRASHA,119468,Madrasha,BOGRA,DHUPCHANCHIA,BHATAHAR,89.17536,24.92747,3212,1
DAKAHAR GIRLS DAKHIL MADRASHA,119455,Madrasha,BOGRA,DHUPCHANCHIA,DAKAHAR,89.17647,24.92497,3213,1
KAMARGRAM DAKHILMADRASA,119453,Madrasha,BOGRA,DHUPCHANCHIA,KAMARGAON,89.14881,24.86036,3214,1
KARAMJI MAJIDIA FAZIL MADRASHA,119444,Madrasha,BOGRA,DHUPCHANCHIA,TENTULIA,89.14258,24.89189,3215,1
PASCHIMA ALOHAL ISLAMIA AS;BHA.DAKHIL MADRASHA,119443,Madrasha,BOGRA,DHUPCHANCHIA,ALOHALI,89.1645,24.88958,3216,1
TARAZUN MOKSEDIA FAZIL MADRASHA,119449,Madrasha,BOGRA,DHUPCHANCHIA,TARAJUN,89.16039,24.85219,3217,1
CHANDRA DIGHI ALIM MADRASHA,119461,Madrasha,BOGRA,DHUPCHANCHIA,CHANDRA DIGHI,89.10672,24.83503,3218,1
KHIHALI DARUSSALAM DAKHIL MADRASHS,119454,Madrasha,BOGRA,DHUPCHANCHIA,KHIHALI,89.11047,24.81767,3219,1
MATHURAPUR DAKHIL MADRASHA,119450,Madrasha,BOGRA,DHUPCHANCHIA,MATHURAPUR,89.12725,24.85242,3220,1
PALLA PARA DAKHIL MADRASHA,119448,Madrasha,BOGRA,DHUPCHANCHIA,RAGHU BANSIPUR (HAPINA),89.10417,24.8385,3221,1
AURJUNAGARI TAJ SIDDIQIUYA ALIM  MADRASHA,119446,Madrasha,BOGRA,DHUPCHANCHIA,ARJUNGARI,89.11119,24.89794,3222,1
DAIMPUR ESAR UDDIN DAKHIL MADRASHA,119463,Madrasha,BOGRA,DHUPCHANCHIA,DAIMPUR,89.12972,24.88022,3223,1
UNHAT SINGRA SIDDIQUIA ALIM MADRASHA,119460,Madrasha,BOGRA,DHUPCHANCHIA,SINGRA,89.12889,24.90686,3224,1
DEBKHANDA SIDDIQUIA  ALIM MADRASAH,119452,Madrasha,BOGRA,DHUPCHANCHIA,DEBKHANDA,89.17122,24.83094,3225,1
TALORA SHAH-ETEBARIA KAMIL MADRASAH,119445,Madrasha,BOGRA,DHUPCHANCHIA,TALORA,89.18106,24.82625,3226,1
NAUDAPARA DAKHIL MADRASAH,119467,Madrasha,BOGRA,DHUPCHANCHIA,TALORA,89.135,24.81753,3227,1
MADHAIMURI ADAT ALI ALIM MADRASA,119462,Madrasha,BOGRA,DHUPCHANCHIA,BARAHI,89.18014,24.86886,3228,1
MIA PARA PIRZIA UDDIN AHSAN SAHID DAKIL MADRASHA,119456,Madrasha,BOGRA,DHUPCHANCHIA,ZIANAGAR,89.11275,24.93831,3229,1
HOTIARPARA DAKHIL MADRASAH,119385,Madrasha,BOGRA,DHUNAT,HATIAR PARA,89.50803,24.64031,3230,1
NANDIARPARA RAHMANIA ALIM MADRASAH,119378,Madrasha,BOGRA,DHUNAT,SHIALI,89.53358,24.61811,3231,1
CHALAPARA DAKHIL MADRASHA,131484,Madrasha,BOGRA,DHUNAT,CHALA PARA,89.56186,24.73464,3233,1
DHUNAT ZAHIDHUL ISLAM ( JEWEL) MEMORIAL ALIM MADRASHA,119375,Madrasha,BOGRA,DHUNAT,DHUNAT,89.53953,24.68406,3234,1
DHUNAT UPAZILA H.R. DAKHIL MADRASHA,119390,Madrasha,BOGRA,DHUNAT,DHUNAT,89.53628,24.68758,3235,1
BILCHAPRI DAKHIL MADRASHA,119393,Madrasha,BOGRA,DHUNAT,BIL CHAPRI,89.53278,24.69092,3236,1
RANGAMATI KHAIRUL ULUM DAKHIL MADRASHA,119384,Madrasha,BOGRA,DHUNAT,ELANGI,89.5405,24.685,3237,1
RANGAMATI GIRLS DAKHIL MADRASHA,119392,Madrasha,BOGRA,DHUNAT,ELANGI,89.51322,24.69961,3238,1
MOHISURA DHAKHIL MADRASHA,119380,Madrasha,BOGRA,DHUNAT,BANIAGANTI,89.56578,24.615,3239,1
CHITHULIA GIRLS DHKHIL MADRASHa,119396,Madrasha,BOGRA,DHUNAT,CHITHULIA,89.57603,24.61142,3240,1
JORKHALI SENIOR FAZIL (DIGREE) MADRASHA,119376,Madrasha,BOGRA,DHUNAT,JORKHALI,89.60556,24.73994,3241,1
MANIK POTAL DAKHIL MADRASAH,119386,Madrasha,BOGRA,DHUNAT,KHOKSABARI,89.60456,24.73961,3242,1
NATABARI MONOARA NIJAMIA DHAKHIL MADRASHA,119399,Madrasha,BOGRA,DHUNAT,NATABARI,89.57972,24.71414,3243,1
HEUTNAGAR DAKHIL MADRASAH,119381,Madrasha,BOGRA,DHUNAT,ISHWARGHAT (KODALA PARA),89.53836,24.70908,3244,1
ISLAMPUR ISWARGHAT DAKHIL MADRASHA,119379,Madrasha,BOGRA,DHUNAT,ISHWARGHAT (KODALA PARA),89.54278,24.717,3245,1
KADAI  DAKHIL MADRASHA,119398,Madrasha,BOGRA,DHUNAT,KADAI,89.51608,24.72731,3246,1
KANTANAGOR DAKHIL MADRASHA,119388,Madrasha,BOGRA,DHUNAT,KANTANAGAR,89.52183,24.74078,3247,1
AMIN MOEN ALOWA MOTHURAPUR ALIM MADRASAH,119383,Madrasha,BOGRA,DHUNAT,ALOA,89.54944,24.5695,3248,1
KAHADULI MULTANI SHAJAHAN DAKHIL MADRASAH,119395,Madrasha,BOGRA,DHUNAT,KHADULI,89.54361,24.56975,3249,1
BERERBARI GIRLS DAKHIL MADRASH,119387,Madrasha,BOGRA,DHUNAT,BERERBARI,89.54481,24.56906,3250,1
NANGLU M.K.M. FAZIL MADRASHA,119382,Madrasha,BOGRA,DHUNAT,NANGALU,89.47708,24.74461,3252,1
NANGLOO GIRLS DAKHIL MADRASAH,119389,Madrasha,BOGRA,DHUNAT,NANGALU,89.49603,24.753,3253,1
BERERBARI SENIOR ALIM MADRASH,119377,Madrasha,BOGRA,DHUNAT,BERERBARI,89.50692,24.76819,3254,1
ULIPUR AMIRIA SOMOTULLAH MOHILA FAZIL DEGREE MADRASHAH,119770,Madrasha,BOGRA,SHERPUR,PASCHIM DATTA PARA,89.52714,24.75647,3255,1
KHANDOKAR TOLA MONSHIPARA BALIKA DAKHIL MADRASHA,119765,Madrasha,BOGRA,SHERPUR,KHONDAKARTALA,89.41017,24.67569,3256,1
AMINPUR SAHID MIZANIA DAKHIL MADRASHA,119772,Madrasha,BOGRA,SHERPUR,AMINPUR,89.41919,24.654,3257,1
BHABANIPUR   DaKHIL   MADRASHA,119797,Madrasha,BOGRA,SHERPUR,BHABANIPUR,89.43519,24.55789,3258,1
SHAHANAGAR ISLAMIA DAKHIL MADRASHA,119789,Madrasha,BOGRA,SHERPUR,SAHANAGAR,89.34636,24.59125,3259,1
FULBARI HAMIDIA DAKHIL MADRASHA,119775,Madrasha,BOGRA,SHERPUR,PAIK PATHALIA,89.39508,24.67783,3260,1
GARIDAHA DAKHIL MADRASHA,119769,Madrasha,BOGRA,SHERPUR,GARIDAHA,89.41269,24.71108,3261,1
HAPUNIA  DAKHIL   MADRASA,119788,Madrasha,BOGRA,SHERPUR,HAPANIA,89.40969,24.68778,3262,1
KAFURA  COMMUNITY  GIRLS  ALIM   MADRASA,119792,Madrasha,BOGRA,SHERPUR,PAIK PATHALIA,89.42053,24.67222,3263,1
KANUPUR DAKHIL MADRASHA,119781,Madrasha,BOGRA,SHERPUR,KANUPUR,89.42192,24.68242,3264,1
MOHIPUR KADERIA ISLAMIC MISSION DAKHIL MADRASHA,119779,Madrasha,BOGRA,SHERPUR,MAHIPUR,89.39858,24.69864,3265,1
RAMESHWARPUR SHAMSUL ULUM BALIKA DAKIL MADRASHA,119784,Madrasha,BOGRA,SHERPUR,RAMESHWARPUR,89.38542,24.67967,3266,1
SHERPUR SHAHIDIA ALIA MADRASHA,119774,Madrasha,BOGRA,SHERPUR,KHANDAKARA PARA,89.43381,24.67292,3267,1
SHIBPUR RASHIDIA DAKHIL MADRASHA,119766,Madrasha,BOGRA,SHERPUR,SHIBPUR,89.41417,24.71869,3268,1
GHORDOUR N P ALIM MADRASHA,119783,Madrasha,BOGRA,SHERPUR,GHORDOUR,89.40875,24.68664,3269,1
KHAMARKANDI BALIKA DAKHIL MADRASHA,119767,Madrasha,BOGRA,SHERPUR,KHAMARKANDI,89.48475,24.69931,3270,1
BEGUM SHAHJAHAN TALUKDER DAKHIL MADRASHA,119790,Madrasha,BOGRA,SHERPUR,SUBHAGACHHA,89.44186,24.69894,3271,1
SHUVOGASA DAKHIL MADRASHA,119764,Madrasha,BOGRA,SHERPUR,KHAMARKANDI,89.44144,24.66622,3272,1
KHAGA DOLONG V C C DAKHIL MADRASHA,119786,Madrasha,BOGRA,SHERPUR,KHAGA,89.45075,24.64028,3274,1
SHALFA S R CHOWDHORY DAKHIL MADRASAH,119787,Madrasha,BOGRA,SHERPUR,GOPALPUR,89.44669,24.65572,3275,1
SHALYA PARA D.N.M. RAHMAN DAKHIL MADRASHA,119785,Madrasha,BOGRA,SHERPUR,CHAUBARIA,89.46108,24.64031,3276,1
AMOIN DAKHIL MADRASHA,119803,Madrasha,BOGRA,SHERPUR,AMAN,89.34497,24.64775,3277,1
BAGRA COLONE DAKHIL MADRASHA,119798,Madrasha,BOGRA,SHERPUR,BAGRA,89.38158,24.66656,3278,1
ALTADIGHI   FAZIL   B.  A   MADRASAH,119777,Madrasha,BOGRA,SHERPUR,CHANDESHWAR,89.35342,24.69075,3279,1
JAMUR  ISLAMIA   SENIOR   ALIM MADRASA,119776,Madrasha,BOGRA,SHERPUR,JAMUR,89.34469,24.68267,3280,1
AYERA JAMEOUL ULUM DHAKHAIL MAD RA SA,119773,Madrasha,BOGRA,SHERPUR,AIRA,89.43086,24.60872,3281,1
BIROIL SHAHID TORKANIA DAKHIL MADRASHA,119780,Madrasha,BOGRA,SHERPUR,BIRAIL,89.42175,24.66306,3282,1
MIRJAPUR DAKHIN PARA DAKHIL MADRASHA,119794,Madrasha,BOGRA,SHERPUR,MIRZAPUR,89.44103,24.62875,3283,1
MIRZAPUR  DAKHIL MADRASHA,119796,Madrasha,BOGRA,SHERPUR,MIRZAPUR,89.39672,24.61692,3284,1
RAZAR DIGHI DAKHIL MADRASHA,119801,Madrasha,BOGRA,SHERPUR,MAKORKOLA,89.38744,24.63256,3285,1
FULTALA DAKHIL MADRASAH,119799,Madrasha,BOGRA,SHERPUR,KHONDAKARTALA,89.42928,24.65083,3286,1
MAMUR SHAHI DAKHIL MADRASHA,119795,Madrasha,BOGRA,SHERPUR,MAMURSAHI,89.4145,24.64269,3287,1
BETKHOIR AHIA UL ULUM DAKHIL MADRASHA,119778,Madrasha,BOGRA,SHERPUR,SHIMABARI,89.40353,24.65414,3288,1
DONKUNDI AYSHA MOWLA BOX DAKHIL MADRASHA,119791,Madrasha,BOGRA,SHERPUR,SHIMABARI,89.50717,24.55683,3289,1
GAROI MOHAMMADIA DAKHIL MADRASHA,119793,Madrasha,BOGRA,SHERPUR,GARAI,89.49975,24.56006,3290,1
NAKUA ISLAMIKA DAKHIL MADRASHA,119763,Madrasha,BOGRA,SHERPUR,NAKUA,89.48422,24.56756,3291,1
NISHINDARA    DHKHIL  MADRASA,119771,Madrasha,BOGRA,SHERPUR,NISINDARA,89.50381,24.56483,3292,1
BELGACHI MUSTIDUAN DAKHIL MADRASHA,119782,Madrasha,BOGRA,SHERPUR,BELGACHHI,89.47583,24.6175,3293,1
CHALK SADI KASHIABALA DAKHIL MADRASHA,119800,Madrasha,BOGRA,SHERPUR,CHAK SADHI,89.49978,24.61178,3294,1
DARIHASRA DAKHIL MADRASHA,119768,Madrasha,BOGRA,SHERPUR,DARI HASARA,89.47653,24.62967,3295,1
KALLANI BALIKA DAKHIL MADRASHA,119802,Madrasha,BOGRA,SHERPUR,KALLYANI,89.47864,24.60908,3296,1
MODDAYA BHAG ISLAMIA DAKHIL MADRASHA,119804,Madrasha,BOGRA,SHERPUR,MADHYABHAG,89.47986,24.61758,3297,1
TELIHARA MOHIUDDIN ALIM MADRSHA,119240,Madrasha,BOGRA,BOGRA SADAR,TELIHARA,89.47414,24.62961,3298,1
GOVT. MUSTAFABIA ALIA MADRASHA,119223,Madrasha,BOGRA,BOGRA SADAR,SULTANGANJ PARA,89.40375,24.83817,3299,1
TANTHINA NURUN ALANUR FAZIL MADRSAH,119224,Madrasha,BOGRA,BOGRA SADAR,THANTHANIA PURBA,PASCHIM,NATUN,89.36175,24.86261,3300,1
DARUL HIKMAH ( INT) CADET MADRASAH BOGRA,131350,Madrasha,BOGRA,BOGRA SADAR,MALTINAGAR PAIKER PARA,89.36789,24.851,3301,1
UTTAR CHELOPARA DAKHIL MADRASHA,119237,Madrasha,BOGRA,BOGRA SADAR,CHALO PARA,89.37728,24.84972,3302,1
JAMIA ISLAMIA ALAKABA DAKHIL MADRASHI,131366,Madrasha,BOGRA,BOGRA SADAR,SUYEJGARI,89.38367,24.83919,3303,1
BOGRA CADET INTERNATIONAL MADRASAH,131371,Madrasha,BOGRA,BOGRA SADAR,RAHMAN NAGAR,89.36939,24.85008,3304,1
KARNOPUR  M.H.  KHANDAKER  DAKHIL  MADRASHA,119228,Madrasha,BOGRA,BOGRA SADAR,KARNAPUR (PART),89.37256,24.86511,3305,1
SHAKHARIA ALIM MADRASA,119227,Madrasha,BOGRA,BOGRA SADAR,SHAKHARIA DAKSHIN,89.37067,24.82725,3306,1
BUGRUG  BARIA  GIRLS  DAKHIL  MADRASHA,119232,Madrasha,BOGRA,BOGRA SADAR,BUZRAG BARIA,89.39128,24.88831,3307,1
SHEKHPARA  ISLAMA  DAKHIL  MADRASHA,119239,Madrasha,BOGRA,BOGRA SADAR,SEKH PARA,89.39806,24.84778,3308,1
ARULIA  GIRLS  DAKHIL  MADRASHA,119242,Madrasha,BOGRA,BOGRA SADAR,ERULIA,89.38522,24.84561,3309,1
SHIKERPUR D,U. ALIM MADRASHA,119222,Madrasha,BOGRA,BOGRA SADAR,SHIKARPUR,89.40903,24.82961,3310,1
KAICHOR SIDDIKIA DAKHIL MADRASHA,119243,Madrasha,BOGRA,BOGRA SADAR,KAICHAR,89.32972,24.86172,3311,1
RAMSHAHAR PIR DR MUHAMMAD KAHRULLAH DAKHIL MADERASAH,119245,Madrasha,BOGRA,BOGRA SADAR,RAMSAHAR,89.32511,24.83903,3312,1
CHANDMUHA SARALPU DAKHIL MADRASHA,119241,Madrasha,BOGRA,BOGRA SADAR,SARALPUR,89.3225,24.83364,3313,1
BIDUPARA DR. MOKBUL HOSEN DAKHIL MADRASHA,119238,Madrasha,BOGRA,BOGRA SADAR,BIDU PARA,89.39619,24.93286,3314,1
BUZRUG MAZIRA PANCH AULIA DAHKHIL MADRASAH,119235,Madrasha,BOGRA,BOGRA SADAR,THANTHANIA HAZI PARA,89.36403,24.95281,3315,1
SATSHIMULIA  B.  UDDIN  DAKHIL  MADRASHA,119236,Madrasha,BOGRA,BOGRA SADAR,SAT SHIMULIA,89.37872,24.93825,3317,1
NAMUJA S.S.I. FAZIL MADRASHA,119230,Madrasha,BOGRA,BOGRA SADAR,NAMUJA,89.37683,24.93369,3318,1
NOWDAPARA NOBIGONJ DAKHIL MADRASAH,119229,Madrasha,BOGRA,BOGRA SADAR,BARBAKPUR (PART),89.27114,24.95786,3319,1
DARIAL  MOHI  UL  ULUM  DaKHIL  MADRASHA,119231,Madrasha,BOGRA,BOGRA SADAR,DARIAL,89.35861,24.88219,3320,1
HAJI DANESH ALETON DAKHIL MADRASHA,119244,Madrasha,BOGRA,BOGRA SADAR,KUKRUL,89.33481,24.91178,3321,1
BUZARGADHAMA RAHMANIA FAZIL MADRASAH,119226,Madrasha,BOGRA,BOGRA SADAR,BUZRAG DHAMA,89.32225,24.90303,3322,1
ARIFA ALI SEFALI DAKHIL MADRASHA CHALK ALAM,131410,Madrasha,BOGRA,BOGRA SADAR,CHAK ALAM,89.34183,24.90025,3323,1
PANCHBARIAHAT S. AHAMADIA DAKHIL MADRASAH,119234,Madrasha,BOGRA,BOGRA SADAR,KATNER PARA,89.42439,24.84006,3324,1
SHOBDAL DHIGHI GIRLS DAKHIL MADRASHA,119906,Madrasha,BOGRA,SHIBGANJ,SABDAL DIGHI,89.36994,25.05628,3325,1
SHIBGONJ  FAZIL DEGRE MADRASHA,119884,Madrasha,BOGRA,SHIBGANJ,BANAIL,89.31697,24.98369,3326,1
ALIARHAT  FAZIL DEGRE MADRASHA,119871,Madrasha,BOGRA,SHIBGANJ,BETGARI,89.22364,25.009,3327,1
ATMOOL BIRAJ UDDIN DAKHIL MADRASHA,119880,Madrasha,BOGRA,SHIBGANJ,ATMUL,89.28178,25.01639,3328,1
BORO BEL GHORIA JAMIA ISLAMIA DHAKHIL MADRASHA,119886,Madrasha,BOGRA,SHIBGANJ,BARA BELGHARIA,89.27114,25.01997,3329,1
KATGARA JONABIA DAKHIL MADRASah,119890,Madrasha,BOGRA,SHIBGANJ,KATGARA,89.27217,25.00489,3330,1
KURAHAR ISLAMIA ALIM MADRASAH,119872,Madrasha,BOGRA,SHIBGANJ,KURAHAR,89.29025,25.01217,3331,1
NANDURA FAZIL DEGRE  MADRASHA,119869,Madrasha,BOGRA,SHIBGANJ,NANDURA,89.22261,25.00819,3332,1
SADURIA RAHAMANIA ALIM MADRASHA,119867,Madrasha,BOGRA,SHIBGANJ,SADURIA,89.25006,25.01456,3333,1
ALIGRAM ISLAMIA ALIM MADRASHA,119873,Madrasha,BOGRA,SHIBGANJ,ALIGRAM,89.29322,24.9965,3335,1
JAMURHAT DAKHIL MADRASHA,119864,Madrasha,BOGRA,SHIBGANJ,BARAIL,89.26831,24.95986,3336,1
DEULY ALIM MADRASA,119878,Madrasha,BOGRA,SHIBGANJ,DEULI,89.36764,25.04117,3337,1
GANGNAGAR DAKHIL MADRASA,119893,Madrasha,BOGRA,SHIBGANJ,DURLABHPUR,89.38744,25.03775,3338,1
BELAI SUNNATUL ULUM DAKHIL MADRASA,119892,Madrasha,BOGRA,SHIBGANJ,UTTAR BELAI,89.36953,25.05975,3339,1
CHALLISH CHHATRA MATIN RM MOHILA MADRASHA,119900,Madrasha,BOGRA,SHIBGANJ,CHALLISH CHHATRA,89.38175,25.03397,3340,1
DHARIA GANGOIT ISLAMIA DAKHIL MADRASA,119904,Madrasha,BOGRA,SHIBGANJ,DHARIA,89.40467,25.06089,3341,1
PATAIR DHULAJHARA A. U. DAKHIL MADRASHA,119877,Madrasha,BOGRA,SHIBGANJ,PATAIR,89.26928,25.03817,3342,1
SHOLAGARI SHAH LASKAR ZILANI (R:) DAKHIL MADRASA,119899,Madrasha,BOGRA,SHIBGANJ,SHOLAGARI,89.26178,25.04686,3343,1
CHANDER BAKSON M.S.M DAKHIL MADRASA,119895,Madrasha,BOGRA,SHIBGANJ,CHANDAR,89.33058,25.09386,3344,1
DARIDAHA AMINIA FAJIL (DEGREE) MADRASA,119874,Madrasha,BOGRA,SHIBGANJ,DARIDAHA,89.33181,25.09469,3345,1
MASHIMPUR CHALUnJA DAKHIL MADRASHA,119888,Madrasha,BOGRA,SHIBGANJ,MASIMPUR CHALUNJA,89.3295,25.09436,3346,1
GOBINDAPUR DAKHIL MADRASAH,119898,Madrasha,BOGRA,SHIBGANJ,GOBINDAPUR,89.24622,24.94517,3347,1
BAGMARA DAKHIL MADRASHA,119902,Madrasha,BOGRA,SHIBGANJ,BAGHMARA,89.19786,24.93547,3348,1
HARIPUR CHALNA KATHI FAZIL DEGREE MADRASA,119865,Madrasha,BOGRA,SHIBGANJ,LASKARPUR,89.32764,25.05083,3349,1
MOKAMTOLA S.M.A DAKHIL MADRASHA,119891,Madrasha,BOGRA,SHIBGANJ,LAKSHMIPUR,89.36811,25.01394,3350,1
CHAKPARA WAHABUL ULUM ALIM MADRASHA,119868,Madrasha,BOGRA,SHIBGANJ,CHAK PARA,89.36733,25.01372,3351,1
KHAYRAR PUKUR SOLEMANIA B.L. DAKHIL MADRASHA,119887,Madrasha,BOGRA,SHIBGANJ,CHAPACHIL,89.19731,24.97547,3352,1
JANGRAM SHA SULTAN DAKHIL MADRASHA,119885,Madrasha,BOGRA,SHIBGANJ,JANGAON,89.37014,24.99181,3353,1
SHEHALI CHETONPIR DAKHIL MADRASHA,119897,Madrasha,BOGRA,SHIBGANJ,SEHALI,89.22106,24.97786,3354,1
MOHASTAN SHAH SULTAN BALKHI (R) ALIM MADRASAH,119889,Madrasha,BOGRA,SHIBGANJ,MAHASTHANGAR,89.3145,24.96228,3355,1
RAINAGAR DS (ALIM) MADRASHA,119870,Madrasha,BOGRA,SHIBGANJ,ROYNAGAR,89.35917,24.9755,3356,1
SAKINDRABAD D.S DAKHIL MADRASA,119866,Madrasha,BOGRA,SHIBGANJ,SEKANDARABAD,89.34869,24.951,3357,1
ABHIRAM PUR SIDDIQUIA DAKHIL MADRASHA,119882,Madrasha,BOGRA,SHIBGANJ,KHERUA PARA,89.41764,25.03747,3358,1
DAHAPARA DARUL ULUM  DAKHIL MADRASHA,119876,Madrasha,BOGRA,SHIBGANJ,DAHA PARA,89.41689,25.01703,3359,1
BARIAHAT ABEDIA DHAKIL MADRASAH,119881,Madrasha,BOGRA,SHIBGANJ,BARIA,89.40681,25.01311,3360,1
SAYEDPUR DAKHIL MADRASHA,119863,Madrasha,BOGRA,SHIBGANJ,PURBA SAIDPUR,89.43483,25.05197,3361,1
BALA BOTTRISH ISLAMIA DAKHIL MADRASHA,119901,Madrasha,BOGRA,SHIBGANJ,BATRISH,89.42656,25.06097,3362,1
MEDENIPARA MOZADDEDIA DAKHIL MADRASA,119896,Madrasha,BOGRA,SHIBGANJ,MEDINI PARA,89.44633,25.04831,3363,1
UTTAR SHAMPUR GAZI SHAH SALAUDDIN DAKHIL MADRASHA,119894,Madrasha,BOGRA,SHIBGANJ,UTTAR SHYAMPUR,89.43531,25.05189,3364,1
RAJBARI RAHMANIA ALIM MADRASAH,119313,Madrasha,BOGRA,SHAJAHANPUR,BANSHBARIA,89.31828,25.0615,3365,1
NAGAR AZIRON RABEYA MOHILA ALIM MADRASA,119310,Madrasha,BOGRA,SHAJAHANPUR,NAGARKANDI,89.40928,24.74094,3366,1
SHIOL DHUKRI A.U.I. DHAKHIL MADRASAH,119312,Madrasha,BOGRA,SHAJAHANPUR,SAILDHUKURI,89.41108,24.74083,3367,1
BAMUNIA DARUL ULUM DAKHIL MADRASHA,119308,Madrasha,BOGRA,SHAJAHANPUR,BAMUNIA,89.36297,24.82231,3368,1
BAMUNIA SAMABAYA ALIM MADRASA,119233,Madrasha,BOGRA,SHAJAHANPUR,BAMUNIA,89.398,24.74022,3369,1
MANIKDEPA DARUS SUNNAH DAKHIL MADRASA,119325,Madrasha,BOGRA,SHAJAHANPUR,MANIKDIPA,89.37744,24.69844,3370,1
TALPUKUR DARUL ISLAM DAKHIL MADRASA,119323,Madrasha,BOGRA,SHAJAHANPUR,ARIA,89.36947,24.74506,3371,1
BAR ARJUL AMAN GIRLS DHAKIL MADRASHA,119318,Madrasha,BOGRA,SHAJAHANPUR,SONAI DIGHI,89.39764,24.72725,3372,1
BARO ANJUL DARUL AMAN BALAK DHAKIL MADRASHA,119319,Madrasha,BOGRA,SHAJAHANPUR,SONAI DIGHI,89.38689,24.72281,3373,1
JORA NAZMUL ULUM FAZIL MADRASHA,119298,Madrasha,BOGRA,SHAJAHANPUR,JORA,89.36611,24.79594,3374,1
PARTAKHUR DAKHIL MADRASHA,119321,Madrasha,BOGRA,SHAJAHANPUR,PARTEKUR,89.36181,24.82081,3375,1
SABRUL ASTAN SARIF DAKHIL MADRASAH,119314,Madrasha,BOGRA,SHAJAHANPUR,SABRUL,89.36786,24.77744,3376,1
BIRIKULLA DARUL ULUM DAKHIL MADRASAH,119317,Madrasha,BOGRA,SHAJAHANPUR,BIRKULLA,89.42894,24.76758,3377,1
BEHIGRAM ADM CENTRAL FAZIL DEGREE MADRASHA,119299,Madrasha,BOGRA,SHAJAHANPUR,BIHIGRAM,89.40719,24.76378,3378,1
JOYNTIBARI DARUL HUDA BALIKA DHAKIL MADRASHA,119322,Madrasha,BOGRA,SHAJAHANPUR,JOYANTIBARI,89.42178,24.75536,3379,1
MADLA TANJIMUL ULUM DAKHIL MADRASAH,119316,Madrasha,BOGRA,SHAJAHANPUR,MADLA,89.41825,24.75975,3380,1
NISCHINTAPUR DARUL ULUM DAKHIL MADRASAH,119309,Madrasha,BOGRA,SHAJAHANPUR,NISCHINTAPUR,89.43564,24.75875,3381,1
ATAIL FAZIL DEGREE MADRASAH,119300,Madrasha,BOGRA,SHAJAHANPUR,RATOL,89.40683,24.80525,3382,1
GOHAIL SHALIKHA  DAKHIL MADRASHA,119302,Madrasha,BOGRA,SHAJAHANPUR,GOHAIL,89.40486,24.82167,3383,1
KABASHOTTI DAKHIL MADRASAH,131612,Madrasha,BOGRA,SHAJAHANPUR,KAPASURI,89.37872,24.81725,3384,1
BONVETY  SULTAN ARIFIA (RA) DAKHIL MADRASHA,119326,Madrasha,BOGRA,SHAJAHANPUR,BANABHITA,89.28039,24.69964,3385,1
DARIGACHA DARUS SALAM DAKHIL MADRASHA,119304,Madrasha,BOGRA,SHAJAHANPUR,DARIGACHHA,89.30819,24.70333,3386,1
JOGANNATHPUR DAKHIL MADRASAH,131607,Madrasha,BOGRA,SHAJAHANPUR,JAGANNATHPUR,89.35606,24.72497,3387,1
GHASHIRA AHEYAUL ULOM DAKHIL MADRASHA,119305,Madrasha,BOGRA,SHAJAHANPUR,GHASIARA,89.35636,24.72561,3388,1
KHOTTA PARA SI. FAZIL MADRASAH,119296,Madrasha,BOGRA,SHAJAHANPUR,KHOTTA PARA,89.43878,24.76903,3389,1
MOSTAIL PACHPIRTALA GIRLS DAKHIL MADRASA,119320,Madrasha,BOGRA,SHAJAHANPUR,MASTAIL,89.42794,24.78481,3390,1
NARILLA ITALI S.U. DAKHIL MADRASAH,119315,Madrasha,BOGRA,SHAJAHANPUR,NARILA,89.35717,24.79797,3391,1
MALIPARA  DAKHIL MADRASHA,119306,Madrasha,BOGRA,SHAJAHANPUR,SHERKOLE,89.40119,24.77283,3392,1
DOMON PUKUR AMINIA KAMIL MADRASHA,119297,Madrasha,BOGRA,SHAJAHANPUR,DAMAN PUKUR,89.43217,24.81656,3393,1
SAJAPUR FULTOLA  A. FAZIL MADRASAH,119303,Madrasha,BOGRA,SHAJAHANPUR,SAJAPUR,89.42597,24.81181,3394,1
SUJABAD UTTARPARA DAKHIL MADRASHA,119307,Madrasha,BOGRA,SHAJAHANPUR,SUJABAD DAHA,UTTAR,SARAK PARA,89.39675,24.82203,3395,1
CHHAGHLDHARA ISLALMIA DAKHIL MADRASHA,119709,Madrasha,BOGRA,SARIAKANDI,CHHAGALDHARA,89.39983,24.80461,3396,1
FUL BARI DAKHIL MADRASHA,119712,Madrasha,BOGRA,SARIAKANDI,FULBARI,89.54608,24.81731,3397,1
GANAK PARA DAKHIL MADRASAH,131807,Madrasha,BOGRA,SARIAKANDI,KHAMAR BALALI,89.58519,24.78614,3398,1
CHAIHATA B. M. DAKHIL MADRASAH,119705,Madrasha,BOGRA,SARIAKANDI,CHHAIHATA,89.54247,24.90969,3399,1
JOREGACHHA SENIOR FAZIL MADRASAH,119701,Madrasha,BOGRA,SARIAKANDI,DAKSHIN JORGACHHA,89.54172,24.92811,3400,1
BIBIR PARA J. U DAKHIL MADRASHA,119702,Madrasha,BOGRA,SARIAKANDI,BIBIR PARA,89.59856,24.80208,3401,1
DARIPARA PAIKARTOLI DAKHIL MADRASHA,119711,Madrasha,BOGRA,SARIAKANDI,PAKURTALI,89.56939,24.85353,3402,1
CHANDANBAISA KAMALPUR ABU ABDULLAH DAKHIL MADRASHA,119710,Madrasha,BOGRA,SARIAKANDI,RAUHADAHA,89.52997,24.87864,3403,1
SOTANARA CHAMKASHA NUR ALA NUR DAKHIL MADRASHA,119698,Madrasha,BOGRA,SARIAKANDI,SUTANARA,89.60325,24.75881,3404,1
BURAIL HIGH SCHOOL,119634,School,BOGRA,NANDIGRAM,BURAIL,89.30097,24.65403,11488,2
MOHIPUR COLONY HIGH SCHOOL,119732,School,BOGRA,SHERPUR,MAHIPUR,89.40667,24.68897,11489,2
SONDABARI AZAD HIGH SCHOOL,119497,School,BOGRA,GABTALI,SONDABARI (PART),89.4264876,24.87296691,11490,1
KALAKOPA  ATOPJAN MEMORIAL HIGH SCHOOL,119501,School,BOGRA,GABTALI,BALIA DIGHI,89.4933566,24.80225829,11491,1
KALI HATA HIGH SCHOOL,119492,School,BOGRA,GABTALI,KALAIHATA,89.52215785,24.79237961,11492,1
KALEMABAD HIGH SCHOOL,119498,School,BOGRA,GABTALI,BALIA DIGHI,89.50691021,24.80212194,11493,1
KRISHNA CHANDRA PUR HIGH SCHOOL,119491,School,BOGRA,GABTALI,KRISHNACHANDRAPUR,89.43711197,25.00465266,11494,1
UZGRAM PINTU GIRLS HIGH SCHOOL,119506,School,BOGRA,GABTALI,UJGRAM,89.42856795,24.98821201,11495,1
BOTIABHANGA HIGH SCHOOL,119511,School,BOGRA,GABTALI,DURGAHATA,89.53407878,24.83986014,11496,1
DURGAHATA HIGH SCHOOL,119488,School,BOGRA,GABTALI,DURGAHATA,89.52342383,24.84265794,11497,1
HATIBANDA HIGH SCHOOL,119477,School,BOGRA,GABTALI,HATIBANDHA,89.5030852,24.85972474,11498,1
MAHISHABAN M.L. HIGH SCHOOL,119480,School,BOGRA,GABTALI,MAHISHABAN,89.4731141,24.81611514,11499,1
MORIA R.M. P HIGH SCHOOL,119489,School,BOGRA,GABTALI,MARIA,89.47096017,24.83215356,11500,1
BAGBARI MISIRON NESA Z.K. GIRLS HIGH SCHOOL,119478,School,BOGRA,GABTALI,NASIPUR,89.48055494,24.78404047,11501,1
NEPAL TALI HIGH SCHOOL,119494,School,BOGRA,GABTALI,NEPALTALI,89.49355631,24.87833271,11502,1
RAMESWAR PUR HIGH SCHOOL,119495,School,BOGRA,GABTALI,GABTALI (PART),89.41865436,24.92994874,11503,1
KADAMTALI HIGH SCHOOL,119502,School,BOGRA,GABTALI,KADAMTALI,89.52671239,24.90513124,11504,1
DOULATUZZAMAN ML. HIGH SCHOOL,119499,School,BOGRA,GABTALI,CHAK DOAR,89.47698242,24.91296073,11505,1
BURUZ ADARSHOGRAM GIRLS HIGH SCHOOL,119508,School,BOGRA,GABTALI,BURUJ,89.51382894,24.90323706,11506,1
KAGAIL KARUNAKANTA HIGH SCHOOL,119486,School,BOGRA,GABTALI,KAGAIL,89.4018527,24.98330248,11507,1
SANTAHAR HARVEY GOVT.GIRLS HIGH SCHOOL,119111,School,BOGRA,ADAMDIGHI,SHANTAHAR BAZAR,88.98844411,24.80262953,11508,1
SHAHID SIRAJ KHAN MEMORIAL ACADEMY,119141,School,BOGRA,ADAMDIGHI,SANDIRA,88.98921908,24.78983588,11509,1
UTHRAIL HIGH  SCHOOL,119124,School,BOGRA,ADAMDIGHI,UTHRAIL,89.02043286,24.80958547,11510,1
SANTAHAR H.A POURA GIRLS HIGH SCHOOL,119130,School,BOGRA,ADAMDIGHI,BOSHIPUR,88.98387247,24.81179928,11511,1
S.M.I. ACADEMY SANTAHAR,119114,School,BOGRA,ADAMDIGHI,BOSHIPUR,88.99183272,24.80796499,11512,1
SHAOL BILATERAL HIGH SCHOOL,119122,School,BOGRA,ADAMDIGHI,SANAIL,89.06432833,24.85676837,11513,1
SANTAHAR B.P. HIGH SCHOOL,119113,School,BOGRA,ADAMDIGHI,KALSA,88.99093724,24.81010747,11514,1
KALSHA AHASANULLA INSTITUTION,119116,School,BOGRA,ADAMDIGHI,HALUDGHAR,88.99083926,24.803356,11515,1
KADMA HIGH SCHOOL,119134,School,BOGRA,ADAMDIGHI,KADMA,89.02104975,24.78297258,11516,1
ADAMDIGHI  ISWAR  PURNA  JOY  PILOT SCHOOL,119112,School,BOGRA,ADAMDIGHI,TALSON,89.04178331,24.81843138,11517,1
G M IDEAL JUNIOR SCHOOl,119136,School,BOGRA,ADAMDIGHI,GORGAON,89.03973683,24.82755009,11518,1
BIHIGRAM HIGH SCHOOL,119120,School,BOGRA,ADAMDIGHI,BIHIGRAM,89.09708135,24.75884338,11519,1
KANCHANPUR MADHYAMIK VIDYALAYA,119117,School,BOGRA,ADAMDIGHI,JHAKHAR,89.13408375,24.74832744,11520,1
CHHATIN GRAM HIGH SCHOOL,119118,School,BOGRA,ADAMDIGHI,CHHATIANGRAM,88.99244552,24.84563863,11521,1
KAIKURI R.M.HIGH SCHOOL,119128,School,BOGRA,ADAMDIGHI,KAIKURI,89.02205976,24.84398585,11522,1
KARAI MD KABEL HIGH SCHOOL,119127,School,BOGRA,ADAMDIGHI,KARAI,89.09454956,24.78117655,11523,1
KUNDAGRAM BI LATERAL HIGH SCHOOL,119121,School,BOGRA,ADAMDIGHI,KUNDAGRAM,89.13260031,24.79919923,11524,1
KUNDAGRAM GIRL'S HIGH SCHOOL,119125,School,BOGRA,ADAMDIGHI,KUNDAGRAM,89.13359904,24.79919401,11525,1
TARTA JUNIOR SCHOOL,119137,School,BOGRA,ADAMDIGHI,TARTA,89.13245675,24.77287776,11526,1
BINAHALI GIRLS HIGH SCHOOL,119129,School,BOGRA,ADAMDIGHI,BINAHALI,89.08267042,24.87024431,11527,1
NASARATPUR KHALEDA HOBIBULLAH GIRLS HIGH SCHOOL,119132,School,BOGRA,ADAMDIGHI,PURBA DALAMBA,89.08082224,24.81597026,11528,1
NASRATPUR  M.L  HIGH SCHOOL,119115,School,BOGRA,ADAMDIGHI,NASRATPUR,89.07549494,24.81561099,11529,1
CHHATNI DEKHRA HIGH SCHOOL,119119,School,BOGRA,ADAMDIGHI,CHHATNI,88.9777561,24.76666891,11530,1
PRANNATHPUR  BOHOMOKI  HIGH SCHOOL,119126,School,BOGRA,ADAMDIGHI,PRANNATHPUR,88.96613817,24.75786624,11531,1
SABUJ SATHI JUNIOR HIGH SCHOOL,119932,School,BOGRA,SONATOLA,GAR FATEHPUR (PART),89.49962634,25.03684656,11532,1
BAGBARI JUNIOR GIRLS SCHOOL,119935,School,BOGRA,SONATOLA,AGABARGACHHA,89.4606603,25.04912235,11533,1
BALUAHAT HIGH SCHOOL,119920,School,BOGRA,SONATOLA,BARABALUA,89.46726933,25.02736918,11534,1
DAUDPUR JUNIOR SECONDARY SCHOOL,119936,School,BOGRA,SONATOLA,AGABARGACHHA,89.4562463,25.04042248,11535,1
KARPUR BL HIGH SCHOOL,119922,School,BOGRA,SONATOLA,KOALIKANDI,89.46795822,24.99593942,11536,1
MOHICHARAN ML HIGH SCHOOL,119918,School,BOGRA,SONATOLA,MAHICHARAN,89.46800033,24.96135227,11537,1
LUTFOR RAHMAN  GIRLS HIGH  SCHOOL,119930,School,BOGRA,SONATOLA,HUAKUA,89.53771816,24.9887272,11538,1
SUKHAN PUKUR GIRlS HIGH SCHOOL,119929,School,BOGRA,SONATOLA,SIHIPUR,89.49297746,24.94059229,11539,1
SUKHANPUKUR HIGH SCHOOL,119916,School,BOGRA,SONATOLA,SIHIPUR,89.49376712,24.94047979,11540,1
BOYRA HIGH SCHOOL,119927,School,BOGRA,SONATOLA,BOYRA,89.52730717,24.95950866,11541,1
ENAYET ALI HIGH SCHOOL,119926,School,BOGRA,SONATOLA,HALDIABAGA,89.50926553,24.98764859,11542,1
UNITED HIGH SCHOOL SHEKHATI,119923,School,BOGRA,SONATOLA,PURBA KARAMJA,89.52436653,24.93377278,11543,1
SHICHARPARA BULJAN HIFH SCHOOL,119919,School,BOGRA,SONATOLA,SICHAR PARA,89.50524726,24.99996395,11544,1
VIKONER PARA HIGH CHOOL,119931,School,BOGRA,SONATOLA,CHHATIANTALA,89.55888377,25.02569299,11545,1
SHALIKHA HIGH SCHOOL,119928,School,BOGRA,SONATOLA,SALIKA,89.54361163,25.03300403,11546,1
SONATOLA PILOT HIGH SCHOOL,119915,School,BOGRA,SONATOLA,SONATALA PURATAN BANDAR,89.50043484,25.04398113,11547,1
HUAKUA BI-LATERAL HIGH SCHOOL,119682,School,BOGRA,SONATOLA,HUAKUA,89.54447865,24.97559713,11548,1
PAKULLA MULTI LATERAL HIGH SCHOOL,119924,School,BOGRA,SONATOLA,PAKULLA,89.55719697,24.98539714,11549,1
ABDUL MANNAN GIRLS HIGH SCOOL,119934,School,BOGRA,SONATOLA,MAHESH PARA,89.56305333,25.02423122,11550,1
SHAHID MUKTIJODDAA MONTU BIDYALAYA,119697,School,BOGRA,SARIAKANDI,SHARIAKANDI,89.57452856,24.8874539,11551,1
KHORDA BALAIL HIGH SCHOOL,119689,School,BOGRA,SARIAKANDI,KHORD BALALI,89.56981357,24.9296924,11552,1
KUPTALA  ADARSHA HIGH SCHOOL,119693,School,BOGRA,SARIAKANDI,NARCHI,89.55963755,24.88793582,11553,1
SARIAKANDI  GOVT.  HIGH  SCHOOL,119675,School,BOGRA,SARIAKANDI,PAIK PARA,89.57031803,24.88671424,11554,1
HAT SHERPUR HIGH SCHOOL,119680,School,BOGRA,SARIAKANDI,NIJ BALALI,89.56268511,24.94633152,11555,1
NIZBOLAIL HIGH SCHOOL,119687,School,BOGRA,SARIAKANDI,NIJ BALALI,89.55487455,24.94488631,11556,1
UTTAR TANGRAKURA  SECONDARY SCHOOL,119669,School,BOGRA,SARIAKANDI,TENGARAKURA,89.66685951,24.96418523,11557,1
MATHUAPARA A.J.M GIRLS HIGH SCHOOL,119690,School,BOGRA,SARIAKANDI,DEBDANGA,89.58366685,24.85111355,11558,1
NIZAM UDDIN HIGH SCHOOL KARNIBARI,119670,School,BOGRA,SARIAKANDI,KARNIBARI,89.58772539,24.82986995,11559,1
BANSHATA  SHOMSHER  NAGOR  HIGH  SCHOOL,119668,School,BOGRA,SARIAKANDI,DAKSHIN BANSHATA,89.56165552,24.80052626,11560,1
AHUCAR PARA JUNIOR HIGH SCHOOL,119695,School,BOGRA,SARIAKANDI,AUCHAR PARA,89.58839882,25.01185156,11561,1
SHONPOCHA    HIGH  SCHOOL,119692,School,BOGRA,SARIAKANDI,CHHANPACHA,89.66311327,24.86681992,11562,1
GABTATI GOVT GIRLS HIGH SCHOOL,119484,School,BOGRA,GABTALI,JOYBHOGA (PART),89.23295,23.46295,11563,1
NARUAMALA HIGH SCHOOL,119481,School,BOGRA,GABTALI,NARUAMALA (PART),89.25521,23.48269,11564,1
GABTALI PILOT HIGH SCHOOL,119483,School,BOGRA,GABTALI,GABTALI (PART),89.45014,24.88061,11565,1
GABTAL ISHAHID ZIA HIGH SCHOOL,119476,School,BOGRA,GABTALI,BAIKHAN (PART),89.45883,24.90347,11566,1
SAGATIA HIGH  SCHOOL,119503,School,BOGRA,GABTALI,SAGATIA,89.44983,24.87494,11568,1
JAMIR BARIA K.H. HIGH SCHOOL,119500,School,BOGRA,GABTALI,JAMIRBARIA,89.43883,24.90944,11569,1
PIRGACHHA HIGH SCHOOL,119496,School,BOGRA,GABTALI,SABEK PARA,89.40772,24.93711,11570,1
SHAHID ZIAUR RAHMAN GIRLS HIGH SCHOOL,119479,School,BOGRA,GABTALI,KISMAT SIHIPUR,89.44083,24.96072,11571,1
MOSTAFIZAR RAHMAN MEMORIAL HIGH SCHOOL,119504,School,BOGRA,GABTALI,DOAR (DONAR),89.40267,24.95311,11572,1
TINDIGHI HIGH SCHOOL,119570,School,BOGRA,KAHALOO,BHADAHAR,89.48528,24.92717,11573,1
KAHALU T.N. GIRLS HIGH SCHOOL,119554,School,BOGRA,KAHALOO,AKHUNJA,89.23842,24.90947,11574,1
SHAKAHER HIGH SCHOOL,119562,School,BOGRA,KAHALOO,KAZIR PARA,89.26236,24.83133,11575,1
DEOGRAM HIGH SCHOOL,119565,School,BOGRA,KAHALOO,DEOGAON,89.26856,24.83031,11576,1
KAZIPARA DI MUKHI HIGH SCHOOL,119563,School,BOGRA,KAHALOO,KAZIR PARA,89.21728,24.86894,11577,1
ALLAMAER TAKIA HIGH SCHOOL,119568,School,BOGRA,KAHALOO,LOKNATH PARA,89.19861,24.87611,11578,1
PANCHPIR MAZAR  GIRLS high SCHOOL,119580,School,BOGRA,KAHALOO,SAKATIA,89.20672,24.85336,11579,1
JAMGRAM HIGH SCHOOL,119566,School,BOGRA,KAHALOO,JAMGAON,89.22467,24.844,11580,1
KALI PARA ismail hossain HIGH SCHOOL,119558,School,BOGRA,KAHALOO,NIMAR PARA,89.21967,24.79722,11581,1
KRISHNOPUR ANTAHAR JR HIGH SCHOOL,119577,School,BOGRA,KAHALOO,ANTAHAR,89.18575,24.81678,11582,1
DR. ABDUS SOBHAN HIGH SCHOOL,119578,School,BOGRA,KAHALOO,KHAJLAL,89.24344,24.74633,11583,1
KALAI KARNIPARA JUNIOR GIRLS SCHOOL,119575,School,BOGRA,KAHALOO,KALAI,89.25133,24.74239,11584,1
KALAI GHON PARA  HIGH SCHOOL,119567,School,BOGRA,KAHALOO,KALAI,89.23389,24.80756,11585,1
PANCHGRAM HIGH SCHOOL,119560,School,BOGRA,KAHALOO,KALAI,89.25692,24.80614,11586,1
AGHORE MALANCHA HIGH SCHOOL,119559,School,BOGRA,KAHALOO,AGHOR,89.20658,24.89778,11587,1
BHALSON HIGH SCHOOL,119557,School,BOGRA,KAHALOO,BHALSON,89.25853,24.90775,11588,1
BAKHRA GIRLS HIGH SCHOOL,119576,School,BOGRA,KAHALOO,BAKHARA,89.27192,24.77075,11589,1
BAKHRA CUM-BELGHORIA HIGH SCHOOL,119569,School,BOGRA,KAHALOO,BELGHARIA,89.30717,24.76886,11590,1
MURAIL ADARSHA HIGH SCHOOL,119571,School,BOGRA,KAHALOO,MURAIL,89.25458,24.78375,11591,1
ZIAKHUR HIGH SCHOOL,119581,School,BOGRA,KAHALOO,OLHALI,89.27264,24.79122,11592,1
PIRAPAT DIGIRHAT GIRLS HIGH SCHOOL,119572,School,BOGRA,KAHALOO,PIRAPAT,89.29994,24.83786,11593,1
BINOD KALAYANPUR HIGH SCHOOL,119579,School,BOGRA,KAHALOO,KALYANPUR,89.29744,24.815,11594,1
NARHATTA BAHUMUKHI HIGH SCHOOL,119556,School,BOGRA,KAHALOO,NARAHATTA,89.29053,24.91911,11595,1
NISCHINTAPUR HIGH SCHOOL,119574,School,BOGRA,KAHALOO,NISCHINTA CHANDANI,89.29539,24.85425,11596,1
BIBIR PUKUR ADARSHA GIRL'S HIGH SCHOOL,119573,School,BOGRA,KAHALOO,SILKONAR,89.29306,24.83331,11597,1
AROLA HIGH SCHOOL,119564,School,BOGRA,KAHALOO,AROLA,89.24539,24.86556,11598,1
UCHAL BARIA DIMUKHI HIGH SCHOOL,119561,School,BOGRA,KAHALOO,BARANGA SANI,89.24267,24.86064,11599,1
VOGuIL JUNIOR SCHOOL,119583,School,BOGRA,KAHALOO,BHUGAIL,89.25097,24.87631,11600,1
KAZI ABDUL WAZED GIRLS HIGH SCHOOL,119627,School,BOGRA,NANDIGRAM,NANDIGRAM PASCHIM PARA,89.25572,24.65433,11601,1
NANDIGRAM PILOT HIGH SCHOOL,119615,School,BOGRA,NANDIGRAM,NANDIGRAM PASCHIM PARA,89.25656,24.64667,11602,1
BIZRUL BILATERAL HIGH SCHOOL,119623,School,BOGRA,NANDIGRAM,BIZRUL,89.25303,24.64183,11603,1
CHAKALMA  HIGH SCHOOL,119640,School,BOGRA,NANDIGRAM,CHAK ALMA,89.24844,24.64572,11604,1
DAMRUL GIRLS HIGH SCHOOL,119633,School,BOGRA,NANDIGRAM,DAMRUL GOALGARI,89.25311,24.64456,11605,1
KARAI HAT MULTILATERAL HIGH SCHOOL,119618,School,BOGRA,NANDIGRAM,HATKARAI,89.24847,24.64681,11606,1
LUSKUR IDEAL JUNIOR SCHOOL,119641,School,BOGRA,NANDIGRAM,LUSHKUR,89.25969,24.71517,11607,1
RAYPUR KUSTA JUNIOR HIGH SCHOOL,119628,School,BOGRA,NANDIGRAM,ROYPUR,89.25106,24.68397,11608,1
KUNDARHAT INSAN ALI  HIGH SCHOOL,119617,School,BOGRA,NANDIGRAM,BHATGRAM,89.237,24.72325,11609,1
BHARTENTULIA HIGH SCHOOL,119621,School,BOGRA,NANDIGRAM,TENTULIA BHAR,89.24569,24.69908,11610,1
BHATRA KHAN CHOWDHURY HIGH SCHOOL,119616,School,BOGRA,NANDIGRAM,BHATRA,89.27486,24.66872,11611,1
RAMKISTOPUR CHOWDIGHI HIGH SCHOOL,119637,School,BOGRA,NANDIGRAM,RAMKRISHNAPUR,89.22508,24.70239,11612,1
DAMDMA BI LATERAL HIGH SCHOOL,119635,School,BOGRA,NANDIGRAM,DAMDAMA,89.21269,24.72394,11613,1
KOSHAS MULTI LATERAL HIGH SCHOOL,119629,School,BOGRA,NANDIGRAM,KOSAS,89.15794,24.63364,11614,1
KUMIRA  PANDIT PUKUR BI-LATERAL HIGH SCHOOL,119620,School,BOGRA,NANDIGRAM,KUMIRA,89.205,24.66483,11615,1
MATIHASH JUNIOR GIRLS SCHOOL,130922,School,BOGRA,NANDIGRAM,MATIHAS,89.16875,24.66819,11616,1
DASGRAM JUNIOR HIGH SCHOOL,119638,School,BOGRA,NANDIGRAM,DASGRAM,89.17228,24.68256,11618,1
DHUNDAR HIGH SCHOOL,119619,School,BOGRA,NANDIGRAM,DHUDAR,89.17008,24.66019,11619,1
PENG HAZARKI HIGH SCHOOL,119639,School,BOGRA,NANDIGRAM,PENG,89.22189,24.68439,11620,1
DERAHAR HIGH SCHOOL,119625,School,BOGRA,NANDIGRAM,DERAHAR,89.30553,24.64122,11621,1
RANBAGHA HIGH SCHOOL,119622,School,BOGRA,NANDIGRAM,RANBAGHA,89.32039,24.66161,11622,2
BANSO MADHYAMIC VIDDALOY,119626,School,BOGRA,NANDIGRAM,BANSO,89.30433,24.69353,11623,1
BARO CHANGOIR DIMUKHI HIGH SCHOOL,119624,School,BOGRA,NANDIGRAM,BARA CHANGAIR,89.29092,24.68128,11624,1
GULIA KRISHNAPUR M.H. HIGH SCHOOL,119636,School,BOGRA,NANDIGRAM,GULIA KRISHNAPUR,89.21683,24.62822,11625,1
NIMAI DIGHI HIGH SCHOOL,119630,School,BOGRA,NANDIGRAM,NIMAI DIGHI,89.23814,24.59244,11626,1
PATHAN A.S.A HIGH SCHOOL,119632,School,BOGRA,NANDIGRAM,PATHAN,89.18833,24.73867,11627,1
THALTA MAJGRAM ADARSHA BILATERAL HIGH SCHOOL,119631,School,BOGRA,NANDIGRAM,THALTA,89.17403,24.75925,11628,1
DIMSHAHAR HIGH SCOOL,119416,School,BOGRA,DHUPCHANCHIA,KHOLAS,89.20308,24.76325,11630,1
DUPCHANCHIA PAURO  GIRL'S HIGH SCHOOL,119440,School,BOGRA,DHUPCHANCHIA,DHAP,89.18567,24.78525,11631,1
SHAPLA HIGH SCHOOL,119438,School,BOGRA,DHUPCHANCHIA,OFFICER'S COLONY,89.16092,24.73133,11632,1
ALTAFNAGAR K. M ALI HIGH SCHOOL,119412,School,BOGRA,DHUPCHANCHIA,MAUKURI,89.12894,24.81986,11633,1
B. D. M. ADARSHA HIGH SCHOOL,119434,School,BOGRA,DHUPCHANCHIA,MASINDA,89.17383,24.87383,11634,1
ATGRAM KALI BARI BOHUMUKHI HIGH SCHOOL,119431,School,BOGRA,DHUPCHANCHIA,ATGAON,89.17478,24.88092,11635,1
BERUNJA HIGH SCHOOL,119422,School,BOGRA,DHUPCHANCHIA,BERUNJA,89.17075,24.87169,11636,1
CHAMRUL  AZIMUDDIN MEMORIAL HIGH SCHOOL,119424,School,BOGRA,DHUPCHANCHIA,CHAMRUL,89.17444,24.87747,11637,1
JOHAL MATAI JUNIOR SCHOOL,119439,School,BOGRA,DHUPCHANCHIA,JOHALI,89.18811,24.86406,11638,1
KOLE GRAM HIGH SCHOOL,119418,School,BOGRA,DHUPCHANCHIA,KOLGRAM,89.18839,24.90956,11639,1
POTHATTI GIRLS HIGH SCHOOL,119428,School,BOGRA,DHUPCHANCHIA,POTHATTI,89.14089,24.94128,11640,1
HAT SAJAPUR HIGH SCHOOL,119429,School,BOGRA,DHUPCHANCHIA,SAJAPUR,89.16236,24.9355,11641,1
KARAMJEE  HIGH SCHOOL,119414,School,BOGRA,DHUPCHANCHIA,TENTULIA,89.15797,24.91983,11642,1
DHUPCHANCHIA  PILOT  HIGH  SCHOOL,119409,School,BOGRA,DHUPCHANCHIA,BHATAHAR,89.15317,24.86914,11643,1
ASHUNJA BANIYADIGHI  HIGH SCHOOL,119427,School,BOGRA,DHUPCHANCHIA,BARAHIPUR,89.14014,24.89231,11644,1
GOBINDAPUR HIGH SCHOOL,119415,School,BOGRA,DHUPCHANCHIA,GOBINDAPUR,89.17861,24.85842,11645,1
MOTHURAPUR HIGH SCHOOL,119432,School,BOGRA,DHUPCHANCHIA,MATHURAPUR,89.15167,24.84972,11646,1
CHAUMUHANI ADARSHA HIGH SCHOOL,119430,School,BOGRA,DHUPCHANCHIA,BELHALI,89.17967,24.84058,11647,1
SHAHAR PUKUR JUNIOR  GIRL'S  HIGH SCHOOL,119436,School,BOGRA,DHUPCHANCHIA,GOBINDAPUR,89.13294,24.85822,11648,1
ATUIL  GIRLS  HIGH  SCHOOL,119426,School,BOGRA,DHUPCHANCHIA,ATAIL,89.12178,24.82389,11649,1
TALUCH  O.H.K.M  HIGH  SCHOOL,119411,School,BOGRA,DHUPCHANCHIA,GUNAHAR,89.10917,24.81778,11650,1
P S B A IDEAL JUNIOR HIGH SCHOOL,119435,School,BOGRA,DHUPCHANCHIA,PUKURGACHHA,89.13114,24.86872,11651,1
PAOGACHA GIRL'S HIGH SCHOOL,119423,School,BOGRA,DHUPCHANCHIA,PAOGACHHA,89.13397,24.81769,11652,1
TALUCH PACHPIR SECIENCE AND TECHNOLOGY JUNIOR GIRL'S SCHOOL,119408,School,BOGRA,DHUPCHANCHIA,TALOCH,89.12719,24.91844,11653,1
UNAHAT SINGRA HIGH SCHOOL,119425,School,BOGRA,DHUPCHANCHIA,GUNAHAR,89.12733,24.90692,11654,1
DEBKHANDA REAZUL ISLAM HIGH SCHOOL,119421,School,BOGRA,DHUPCHANCHIA,DEBKHANDA,89.14408,24.88497,11655,1
KHANDAKER ABUL KASHIM  HIGH SCHOOL,119437,School,BOGRA,DHUPCHANCHIA,SAGARPUR,89.10356,24.87378,11656,1
TALORA ALTAF ALI HIGH SCHOOL,119407,School,BOGRA,DHUPCHANCHIA,SABLA,89.13406,24.91925,11657,1
ALTAFNAGAR  IBEN-E-SAYED HIGH SCHOOL,119413,School,BOGRA,DHUPCHANCHIA,KAIL,89.12853,24.90678,11658,1
TALORA GIRL'S HIGH SCHOOL,119419,School,BOGRA,DHUPCHANCHIA,SABLA,89.15672,24.82381,11659,1
DUPCHANCHIA PILOT GIRLS HIGH SCHOOL,119410,School,BOGRA,DHUPCHANCHIA,KAMARGAON,89.18397,24.837,11660,1
JIANAGAR HIGH SCHOOL,119417,School,BOGRA,DHUPCHANCHIA,ZIANAGAR,89.16778,24.84236,11661,1
MORTUZAPUR  HIGH SCHOOL,119475,School,BOGRA,DHUPCHANCHIA,MURTAJAPUR,89.17956,24.82589,11662,1
ZIANOGAR GIRLS HIGH SCHOOL,119433,School,BOGRA,DHUPCHANCHIA,BARAHI,89.13233,24.82211,11663,1
BAISHAKHI JUNIOR HIGH SHCOOL,119348,School,BOGRA,DHUNAT,CHAUBER,89.10847,24.94164,11664,1
BISWAHARIGACHHA BOHALGACHHA HIGH SCHOOL,119344,School,BOGRA,DHUNAT,BISHWAHARIGACHHA,89.11036,24.94631,11665,1
BHANDER BARI SALEHA ZAHURA HIGH SCHOOL,119336,School,BOGRA,DHUNAT,BHANDARBARI,89.10781,24.93364,11666,1
BILKAJULY PENCHI BARI HIGH SCHOOL,119353,School,BOGRA,DHUNAT,SAKDAHA,89.61478,24.74608,11667,1
JALSUKA MOjAHAR ALI MEMORIAL HIGH SCHOOL,119369,School,BOGRA,DHUNAT,JALSUKHA,89.52936,24.62853,11668,1
BERER BARI B L HIGH SCHOOL,119340,School,BOGRA,DHUNAT,BERERBARI,89.55172,24.64544,11669,1
PANCHTHUPI NIAMOTIA GIRLS HIGH SCHOOL,119362,School,BOGRA,DHUNAT,CHAUKIBARI,89.60333,24.69622,11670,1
RUDROBARIA BILPATHIA HIGH SCHOOL,119359,School,BOGRA,DHUNAT,RUDRABARIA,89.50469,24.55272,11671,1
JORESHIMUL HIGH SCHOOL,119339,School,BOGRA,DHUNAT,PAR LAKSHMIPUR,89.51583,24.61214,11672,1
SONAR GAON HIGH SCHOOL,119343,School,BOGRA,DHUNAT,CHIKASI MOHANPUR,89.51067,24.5985,11673,1
DHUNAT N.U. PILOT HIGH SCHOOL,119332,School,BOGRA,DHUNAT,DHUNAT OFFICERPARA,89.55733,24.77231,11674,1
DHUNAT ADARSHA HIGH SCHOOL,119358,School,BOGRA,DHUNAT,DHUNAT OFFICERPARA,89.54731,24.75694,11675,1
MATHPARA GIRLS HIGH SCHOOL,119356,School,BOGRA,DHUNAT,CHALA PARA,89.56989,24.78842,11676,2
RANGAMATI ABUL HOSSAIN ZOHURA HIGH SCHOOL,119357,School,BOGRA,DHUNAT,ELANGI,89.53661,24.69569,11677,1
BASHPATA HIGH SCHOOL,119365,School,BOGRA,DHUNAT,BANIAGANTI,89.494,24.72336,11678,1
GOPALNAGOR AZIRONNESA GIRL'S HIGH SCHOOL,119360,School,BOGRA,DHUNAT,GOPALNAGAR,89.50478,24.70356,11679,1
KHATIAMARI HIGH SCHOOL,119338,School,BOGRA,DHUNAT,GOPALNAGAR,89.49972,24.71,11680,1
GOPALNAGAR U A K HIGH SCHOOL,119337,School,BOGRA,DHUNAT,BANIAGANTI,89.49425,24.72467,11681,1
GOSSAIN BARI K.O GIRLS HIGH SCHOOL,119354,School,BOGRA,DHUNAT,GOSAINBARI,89.586,24.59372,11682,1
GOSSAIN BARI A. A. HIGH SCHOOL,119331,School,BOGRA,DHUNAT,GOSAINBARI,89.58672,24.58672,11683,1
NATABARI B L HIGH SCHOOL,119349,School,BOGRA,DHUNAT,NATABARI,89.57786,24.60792,11684,1
ANARPUR JUNIOR SHCOOL,119373,School,BOGRA,DHUNAT,ANARPUR,89.57206,24.71086,11685,1
KALER PARA B L HIGH SCHOOL,119342,School,BOGRA,DHUNAT,LAKSHMIPUR,89.60317,24.74239,11686,1
KANTANAGOR HIGH SCHOOL,119364,School,BOGRA,DHUNAT,KANTANAGAR,89.59356,24.73783,11687,1
SHORUGRAM ML HIGH SCHOOL,119334,School,BOGRA,DHUNAT,SARUGRAM,89.60625,24.74111,11688,1
CHHATIANI ROKEYA OBEDUL HAQUE HIGH SCHOOL,119350,School,BOGRA,DHUNAT,CHHATIANI,89.509,24.73056,11689,1
CHIKASHI  INTER  UNION  HIGH  SCHOOL,119345,School,BOGRA,DHUNAT,CHIKASI MOHANPUR,89.5275,24.72869,11690,1
HIJULI SAGATIA HIGH SCHOOL,119368,School,BOGRA,DHUNAT,HIZALI,89.518,24.72172,11691,1
BOGA B,L HIGH SCHOOL,119341,School,BOGRA,DHUNAT,KONAGANTI,89.51544,24.72556,11692,1
KHADULI SAPA JUNIOR GIRLS SCHOOL,119371,School,BOGRA,DHUNAT,KHADULI,89.57322,24.56708,11693,1
KHADULI HIGH SCHOOL,119333,School,BOGRA,DHUNAT,PRATAP KHADULI,89.56622,24.73703,11694,1
MULTANI PARVIN SHAHJAHAN TALUKDER HIGH SCHOOL,119352,School,BOGRA,DHUNAT,MATHURAPUR,89.51989,24.58806,11695,1
PIRHATI GIRLS HIGH  SCHOOL,119363,School,BOGRA,DHUNAT,PIRHATI,89.5735,24.55083,11696,1
NIMGACHI JUNIOR SCHOOL,119370,School,BOGRA,DHUNAT,NIMGACHHI,89.54514,24.59392,11698,1
BOMGARA  HIGH  SCHOOL,119367,School,BOGRA,DHUNAT,NANGALU,89.47042,24.75656,11699,1
SONAHATA HIGH SCHOOL,119347,School,BOGRA,DHUNAT,SHIALI,89.52486,24.75586,11700,1
SONAHATA ALHAZ KIAMATULLAH GIRLS HIGH SCHOOL,119355,School,BOGRA,DHUNAT,SHIALI,89.50375,24.77436,11701,1
JABAL-E RAHMAT ADARSHA HIGH SCHOOL,130935,School,BOGRA,SHERPUR,KHONDAKARTALA,89.51192,24.7735,11702,1
FULJORE  HIGH SCHOOL,119739,School,BOGRA,SHERPUR,PHULJOR,89.52561,24.75606,11703,1
PANCHDEWALI POLASH MEMORIAL HIGH SCHOOL,119718,School,BOGRA,SHERPUR,PANCH DEULI,89.41764,24.65978,11705,1
SHERPUR TOWN COLONY A.J. HIGH SCHOOL,119731,School,BOGRA,SHERPUR,DHARKI PARA (PART),89.35544,24.58,11706,1
BHAWANIPUR HIGH SCHOOL,119746,School,BOGRA,SHERPUR,BHABANIPUR,89.41522,24.67325,11707,1
BISWA HIGH SCHOOL,119720,School,BOGRA,SHERPUR,BISHWA,89.41558,24.67294,11708,1
CHHONKA BL HIGH SCHOOL,119738,School,BOGRA,SHERPUR,CHHANKA,89.41456,24.6685,11709,1
BIRAKOIR ADARSHA HIGH SCHOOL,119754,School,BOGRA,SHERPUR,BIRAKAIR,89.44414,24.60289,11710,1
BISHAL PUR HIGH SCHOOL,119750,School,BOGRA,SHERPUR,BISHALPUR,89.45083,24.57961,11711,1
KACHUAPARA HIGH SCHOOL,119722,School,BOGRA,SHERPUR,KACHUA PARA,89.43772,24.55475,11712,1
DOYAL SARA SECONDARY SCHOOL,119719,School,BOGRA,SHERPUR,DAYALSARA,89.44336,24.59867,11713,1
MOJIBUR RAHAMAN MOLNU GIRLS HIGH SCHOOL,119733,School,BOGRA,SHERPUR,RAMCHANDRAPUR,89.39239,24.57103,11714,1
PENCHUL HIGH SCHOOL,119756,School,BOGRA,SHERPUR,DAKSHIN PECHUL,89.38583,24.5905,11715,1
HAPUNIA MOHABAG HIGH SCHOOL,119758,School,BOGRA,SHERPUR,HAPANIA,89.41592,24.67267,11716,1
KALSHIMATI HIGH SCHOOL,119744,School,BOGRA,SHERPUR,KALSIMATI,89.371,24.60828,11717,1
THE SUMMIT INTERNATION SCHOOL,130961,School,BOGRA,SHERPUR,MAHIPUR,89.35669,24.59197,11718,1
SHERPUR  PILOT  GIRLS  HIGH  SCHOOL,119736,School,BOGRA,SHERPUR,UTTAR SAHA PARA,89.41686,24.66542,11719,1
JHAJOR PANCHA SHAKTI HIGH SCHOOL,119751,School,BOGRA,SHERPUR,KHAMARKANDI,89.42311,24.66383,11720,1
KHARARKANDI UNION HIGH SCHOOL,119748,School,BOGRA,SHERPUR,KHAMARKANDI,89.43119,24.70647,11721,1
HOSNABAD  ADARSHA HIGH  SCHOOOL,119757,School,BOGRA,SHERPUR,HASNABAD,89.395,24.70614,11722,1
BEGUM SONA VAN nedu PRAMANIK JUNIOR SCHOOL,119725,School,BOGRA,SHERPUR,KHANPUR,89.46925,24.71047,11723,1
KHANPUR B L HIGH SCHOOL,119742,School,BOGRA,SHERPUR,KHANPUR,89.43878,24.69922,11724,1
BHIMZANI  HIGH  SCHOOL,119729,School,BOGRA,SHERPUR,BHIMJANI,89.43494,24.71853,11725,1
CHHATIANI  HIGH  SCHOOL,119755,School,BOGRA,SHERPUR,CHHATIANI,89.44717,24.67472,11726,1
SHUBLI JUNIOR SCHOOL,119727,School,BOGRA,SHERPUR,GOPALPUR,89.47481,24.63769,11727,1
JAMUR ISLAMIA HIGH SCHOOL,119737,School,BOGRA,SHERPUR,JAMUR,89.45017,24.64836,11728,1
KeLLA HIGH SCHOOL,119726,School,BOGRA,SHERPUR,KELLA,89.47256,24.6695,11729,1
MALIHATA GIRLS HIGH SCHOOL,119761,School,BOGRA,SHERPUR,MALIHATA,89.46447,24.65403,11730,1
TANTRA HIGH SCHOOL,119745,School,BOGRA,SHERPUR,TATRA,89.46358,24.66967,11731,1
BHADRA SECCONDARY SCHOOL,119749,School,BOGRA,SHERPUR,BIRAIL,89.39997,24.67386,11732,1
ANOWARA SIRAJ SCHOOL,130980,School,BOGRA,SHERPUR,KHANDAKARA PARA,89.35922,24.67592,11733,1
YOUSUF UDDIN HIGH SCHOOL, MIRZAPUR,119747,School,BOGRA,SHERPUR,MIRZAPUR,89.34222,24.64636,11734,1
TALTA HIGH SCHOOL,119753,School,BOGRA,SHERPUR,TALTA,89.34589,24.64819,11735,1
DHARMOKAM HIGH SCHOOL,119752,School,BOGRA,SHERPUR,SERUA (PART),89.44328,24.61094,11736,1
KANAIKANDOR HIGH SCHOOL,119760,School,BOGRA,SHERPUR,KRISHNAPUR (PART),89.44989,24.61769,11737,1
SHERUA ADARSHA HIGH SCHOOL,119734,School,BOGRA,SHERPUR,SERUA (PART),89.44536,24.62319,11738,1
UCHRANG BANDE ALI HIGH SCHOOL,119741,School,BOGRA,SHERPUR,UCHRANG,89.41433,24.62544,11739,1
BETKHAIR HIGH SCHOOL,119721,School,BOGRA,SHERPUR,BETKHAIR (NANDIAR PARA),89.42897,24.65769,11740,1
SHIMABARI SETARA RABBANI GIRLS HIGH SCHOOL,119743,School,BOGRA,SHERPUR,SHIMABARI,89.40092,24.64564,11741,1
DHANKUNDI SAHANAJ SIRAJ HIGH SCHOOL,119723,School,BOGRA,SHERPUR,DHANKUNDI,89.41822,24.651,11742,1
JORGACHHA HIGH SCHOOL,119759,School,BOGRA,SHERPUR,JORGACHHA,89.53142,24.57331,11743,1
GUAGACHHI JOYLA HIGH SCHOOL,119740,School,BOGRA,SHERPUR,GUAGACHHI,89.52722,24.557,11744,1
KALYANI HIGH SCHOOL,119724,School,BOGRA,SHERPUR,KALLYANI,89.50081,24.55728,11745,1
SUTRAPUR ADARSHA HIGH SCHOOL,119735,School,BOGRA,SHERPUR,SUTRAPUR,89.47289,24.57711,11746,1
GHUNIATALA HIGH SCHOOL,119202,School,BOGRA,BOGRA SADAR,RABIBARIA,89.49292,24.61972,11748,1
BIAM LABORATORY SCHOOL AND COLLEGE BOGRA,131045,School,BOGRA,BOGRA SADAR,ARMD POLICE BAT./TENNARI,89.47686,24.63003,11749,1
GOKUL TASLIM UDDIN HIGH SCHOOL,119195,School,BOGRA,BOGRA SADAR,GOKUL,89.36317,24.92367,11750,1
GOKUL TAMIRUN NESSA GIRLS HIGH SCHOOL,119201,School,BOGRA,BOGRA SADAR,GOKUL,89.36558,24.84908,11751,1
ALORMELA K.G. AND HIGH SCHOOL,119179,School,BOGRA,BOGRA SADAR,KATNAR PARA DAKSHIN,89.362,24.85953,11752,1
KATNER CENTRL GIRLS HIGH SCHOOL,119173,School,BOGRA,BOGRA SADAR,KATNER PARA,89.38897,24.78475,11753,1
HASNA JAHAN GIRLS HIGH SCHOOL,119185,School,BOGRA,BOGRA SADAR,SHIBBATI,89.37906,24.81431,11754,1
NEW HOLYCROSS PRE-CADET SCHOOL AND COLLEGE,132125,School,BOGRA,BOGRA SADAR,DATTABARI,89.37061,24.85564,11755,1
BOGRA ISLAMIC MISSION GIRLS' HIGH SCHOOL,119187,School,BOGRA,BOGRA SADAR,NATAI PARA,89.35678,24.85481,11756,1
MALOTINAGAR HIGH SCHOOL Bogra,119182,School,BOGRA,BOGRA SADAR,MALTINAGAR (PART),89.37308,24.85619,11757,1
DARUL ISLAM NIGHT HIGH SCHOOL,119205,School,BOGRA,BOGRA SADAR,MALATINAGAR (P-2),89.36942,24.85575,11758,1
THE BOGRA CITY GIRLS HIGH SCHOOL,119186,School,BOGRA,BOGRA SADAR,THANTHANIA PURBA,PASCHIM,NATUN,89.37847,24.84164,11759,1
KARATOA MULTIMEDIA SCHOOl and college,130994,School,BOGRA,BOGRA SADAR,MALGRAM (PART),89.36133,24.84269,11760,1
BOGRA GOVT GIRLS HIGH SCHOOL,119177,School,BOGRA,BOGRA SADAR,SUTAPUR PURBA,89.37417,24.83711,11761,1
BOGRA ZILLA SCHOOL,119176,School,BOGRA,BOGRA SADAR,SUTRAPUR GHORA PATTI,89.37622,24.84247,11762,1
STUDY POINT PUBLIC SCHOOL,130995,School,BOGRA,BOGRA SADAR,SUYEJGARI,89.37436,24.83456,11763,1
PRE- CADET HIGH SCHOOL,119191,School,BOGRA,BOGRA SADAR,SUTAPUR PURBA,89.37383,24.84781,11764,1
BOGRA CENTRAL HIGH SCHOOL,119188,School,BOGRA,BOGRA SADAR,SUTRAPUR (PART),89.36883,24.84619,11765,2
BOGRA POURA HIGH SCHOOL,119175,School,BOGRA,BOGRA SADAR,SUTRAPUR (PART),89.37264,24.84722,11766,1
BADURTALA GIRL'S HIGH SCHOOL,119170,School,BOGRA,BOGRA SADAR,CHAK SUTRAPUR,89.36883,24.84619,11767,2
YAQBIA  GIRLS  HIGH  SCHOOL  , BOGRA,119183,School,BOGRA,BOGRA SADAR,SUTAPUR PURBA,89.36967,24.846,11768,1
TAPasi  RABEYA  GIRLS  high    SCHOOL,119193,School,BOGRA,BOGRA SADAR,SUYEJGARI,89.37308,24.84372,11769,1
FAIZULLAH HIGH SCHOOL,119171,School,BOGRA,BOGRA SADAR,LATIFPUR (PART-1),89.37589,24.83667,11770,1
ISLAMPUR GIRLS HIGH SCHOOL,119216,School,BOGRA,BOGRA SADAR,BELAIL,89.37833,24.82497,11771,1
CHHOYPUKURIA GIRL'S HIGH SCHOOL,119209,School,BOGRA,BOGRA SADAR,CHHAY PUKURIA(GHODARPARA,89.37806,24.82458,11772,1
CHOTO KUMIRA JUNIOR HIGH SCHOOL,130990,School,BOGRA,BOGRA SADAR,BARA KUMIRA,89.36944,24.82506,11773,1
FAPORE UNION PALLI MANGAL HIGH SCHOOL,119165,School,BOGRA,BOGRA SADAR,PURAN BOGRA (PART),89.35711,24.82528,11774,1
SUBIL HIGH SCHOOL,119180,School,BOGRA,BOGRA SADAR,PHULBARI,89.3445,24.85881,11775,1
BHANDARI GIRLS' HIGH SCHOOL,119169,School,BOGRA,BOGRA SADAR,PHULBARI,89.37269,24.84939,11776,1
MANIKHCAK HIGH SCHOOL,119200,School,BOGRA,BOGRA SADAR,MANIK CHAK,89.37178,24.86611,11777,1
RAZAPUR ANSWAR & SOMAJ UNNAYAN HIGH SCHOOL,119166,School,BOGRA,BOGRA SADAR,RAJAPUR,89.37264,24.86533,11778,1
UTTARAN HIGH SCHOOL,119189,School,BOGRA,BOGRA SADAR,NARALI,89.38478,24.87939,11779,1
GHOLAGARI DARGATOLA MODEL HIGH SCHOOL,119199,School,BOGRA,BOGRA SADAR,BAGULAHAR,89.39203,24.85611,11780,1
ERULLA HIGH SCHOOL,119208,School,BOGRA,BOGRA SADAR,ERULIA,89.39011,24.85519,11781,1
KAICHOR GIRL'S HIGH SCHOOL,119214,School,BOGRA,BOGRA SADAR,KAICHAR,89.31681,24.89169,11782,1
CHANDMUHA SHARALPUR HIGH SCHOOL,119213,School,BOGRA,BOGRA SADAR,CHANDMUA HARIPUR,89.32769,24.86036,11783,1
KHATEMON ADARSHA JUNIOR HIGH SCHOOL,130984,School,BOGRA,BOGRA SADAR,SUYEJGARI,89.32342,24.88431,11784,1
PIRGACHHA  A. F. GIRLS HIGH SCHOOL,119212,School,BOGRA,BOGRA SADAR,BATHUABARI,89.35383,24.90811,11785,1
JOSHOPARA HIGH SCHOOL,119217,School,BOGRA,BOGRA SADAR,JASO PARA,89.35028,24.90256,11786,1
BHAWANIGANJ BL HIGH SCHOOL,119197,School,BOGRA,BOGRA SADAR,LAHIRI PARA,89.372,24.86375,11787,1
RAYMAJHIR HIGH SCHOOL,119219,School,BOGRA,BOGRA SADAR,ROY MAJHIRA,89.35086,24.95122,11788,1
SATSHIMULIA BI-LATERAL HIGH SCHOOL,119198,School,BOGRA,BOGRA SADAR,SAT SHIMULIA,89.40119,24.94725,11789,1
BAMON PARA HIGH SCHOOL,119207,School,BOGRA,BOGRA SADAR,BAMAN PARA,89.36756,24.96558,11790,1
NAMUJA HIGH SCHOOL,119194,School,BOGRA,BOGRA SADAR,NAMUJA,89.39278,24.83375,11791,1
ALHAJ ABDUL KARIM GIRLS SCHOOL,119178,School,BOGRA,BOGRA SADAR,BARBAKPUR (PART),89.3085,24.95878,11792,1
MATIDALI HIGH SCHOOL,119172,School,BOGRA,BOGRA SADAR,MATIDALI,89.28197,24.95228,11793,1
ASHoKOLA GIRL'S HIGH SCHOOL,119168,School,BOGRA,BOGRA SADAR,ASOKOLA,89.33522,24.95025,11794,1
NOONGOLA HIGH SCHOOL,119196,School,BOGRA,BOGRA SADAR,DASTIKA,89.34433,24.89236,11795,1
RAJAKPUR BILATARAI HIGH SCHOOL,119218,School,BOGRA,BOGRA SADAR,RAZZAKPUR,89.36267,24.88322,11796,1
MEGHAGASA ADARSHA JUNIOR SCHOOL,119221,School,BOGRA,BOGRA SADAR,MEGHAGACHHA,89.30817,24.91617,11797,1
PALLIMONGAL BARUIPARA UNITED HIGH SCHOOL,119203,School,BOGRA,BOGRA SADAR,BANAMALI PARA,89.22639,24.91917,11798,1
PANCHBARIA ELAM UDDIN HIGH SCHOOL,119167,School,BOGRA,BOGRA SADAR,SUTRAPUR (PART),89.40925,24.87897,11799,1
SHIKARPUR KRISHNAPUR HIGH SCHOOL,119215,School,BOGRA,BOGRA SADAR,SHIKARPUR,89.37689,24.90447,11800,1
BHANDAR PAIKA S.M HIGH SCHOOL,119206,School,BOGRA,BOGRA SADAR,BHANDAR PAIKA,89.40072,24.90033,11801,1
DHAKHIN BHAG HIGH SCHOOL,119204,School,BOGRA,BOGRA SADAR,DAKSHINBHAG,89.40119,24.90031,11802,1
MOHISHBATHAN S M JR GIRLS HIGH SCHOOL,119210,School,BOGRA,BOGRA SADAR,DATTABARI,89.403,24.90025,11803,1
RAHABAL BILETERAL HIGH SCHOOL,119816,School,BOGRA,SHIBGANJ,RAHABAL,89.33533,24.88325,11804,1
ROKEYA SATTAR SECONDARY SCHOOL,119862,School,BOGRA,SHIBGANJ,CHAK GOPAL,89.37167,24.92756,11805,1
KICHAK BI-LATERAL HIGH SCHOOL,119823,School,BOGRA,SHIBGANJ,PALIHAR,89.38756,24.93922,11806,1
SHABDOL DIGHI ADARSHA HIGH SCHOOL,119855,School,BOGRA,SHIBGANJ,SABDAL DIGHI,89.36097,24.91903,11807,1
SHIBGANJ PILOT HIGH SCHOOL,119819,School,BOGRA,SHIBGANJ,NATMARICHA (PART),89.28997,25.01461,11808,1
SHIBGANJ PILOT GIRLS SGHOOL,119842,School,BOGRA,SHIBGANJ,BANAIL,89.27481,25.04517,11809,1
ATMOOL BILATERAL HIGH SCHOOL,119829,School,BOGRA,SHIBGANJ,ATMUL,89.32128,25.00086,11810,1
BETGARY MIR SHAHA ALM GIRL'S HIGH SCHOOL,119860,School,BOGRA,SHIBGANJ,BETGARI,89.32167,25.00061,11811,1
CHANDANPUR UNITED BILATERAL HIGH SCHOOL,119854,School,BOGRA,SHIBGANJ,CHANDANPUR,89.31628,25.00667,11812,1
DOPARA ABDUL HANNAN HIGH SCOOL,119847,School,BOGRA,SHIBGANJ,DOPARA,89.31714,25.01089,11813,1
BEHAR M. A. HIGH SCHOOL,119827,School,BOGRA,SHIBGANJ,BIHAR,89.25922,24.99542,11814,1
MOLAM GARI HIGH SCHOOL,119843,School,BOGRA,SHIBGANJ,DHAMAHAR,89.23414,24.99575,11815,1
SOLAGARI ADARSHA JUNIOR SCHOOL,119814,School,BOGRA,SHIBGANJ,SHOLAGARI,89.25036,25.04058,11816,1
BURIGONJ HIGH SCHOOL,119844,School,BOGRA,SHIBGANJ,BILHAMLA,89.29617,24.99761,11817,1
KHADOIL UNITED HIGH SCHOOL,119815,School,BOGRA,SHIBGANJ,KHADAIL,89.27844,25.07597,11818,1
PANCHADAS (JAMTOLEE) HIGH SCOOL,119813,School,BOGRA,SHIBGANJ,PANCHA DAS,89.29733,24.96439,11819,1
GANGNAGAR A.M. MULTILATERAL HIGH SCHOOL,119821,School,BOGRA,SHIBGANJ,BASILA,89.25867,24.97406,11820,1
VARIA HIGH SCHOOL,119835,School,BOGRA,SHIBGANJ,BHAIRA,89.28236,24.97731,11821,1
DEULI BEGUM JAHURA JUNIOR GIRLS HIGH SCHOOL,119848,School,BOGRA,SHIBGANJ,DEULI,89.29906,24.97739,11822,1
DEULY HIGH SCHOOL,119839,School,BOGRA,SHIBGANJ,DEULI,89.28522,24.96247,11823,1
RAHABAL  GIRLS HIGH SCHOOL,119851,School,BOGRA,SHIBGANJ,RAHABAL,89.40542,25.06344,11824,1
KICHAK ADARSHA JUNIOR GIRLIS SCHOOL,119858,School,BOGRA,SHIBGANJ,PALIHAR,89.38908,25.03736,11825,1
BAKSON HIGH SCHOOL,119846,School,BOGRA,SHIBGANJ,BAKSAN,89.28972,25.04317,11826,1
DARIDAHA GIRLS BAHUMUKHI HIGH SCHOOL,119845,School,BOGRA,SHIBGANJ,DARIDAHA,89.25969,25.06569,11827,1
DARIDAHA DWI MUKHI HIGH SCHOOL,119820,School,BOGRA,SHIBGANJ,DARIDAHA,89.27531,25.05222,11828,1
KALITOLA JUNIOR GIRLS SCHOOL,119856,School,BOGRA,SHIBGANJ,KHORDA SOKRA,89.27778,25.07669,11829,1
MOHABBOT NONDIPUR ML HIGH SCHOOL,119853,School,BOGRA,SHIBGANJ,MAHABAT NANDIPUR,89.29583,25.07575,11830,1
DAMPARA SYED MINA HIGH SCHOOL,119828,School,BOGRA,SHIBGANJ,DAMGARA,89.33092,25.09478,11831,1
MAJHI HATTA B. L. HIGH SCHOOL,119841,School,BOGRA,SHIBGANJ,MAJHIHATTA,89.32189,25.09633,11832,1
CHALUNJA KALITOLA B.L HIGH SCHOOL,119812,School,BOGRA,SHIBGANJ,MASIMPUR CHALUNJA,89.32942,25.09461,11833,1
GUZIA GIRLS HIGH SCHOOL,119817,School,BOGRA,SHIBGANJ,INAYETPUR,89.23281,24.94181,11834,1
MOKAMTOLA GIRLS HIGH SCHOOL,119834,School,BOGRA,SHIBGANJ,LAKSHMIPUR,89.20814,24.93353,11835,1
MOKAMTALA HIGH SCHOOL,119824,School,BOGRA,SHIBGANJ,LAKSHMIPUR,89.21469,24.94283,11836,1
PALIKANDA AShRAFPUR BILATERAL HIGH SCHOOL,119822,School,BOGRA,SHIBGANJ,ASRAFPUR,89.34692,25.01422,11837,1
TRIMAHANI HAT HIHG SCHOOL,119861,School,BOGRA,SHIBGANJ,BAKTHOTA,89.35914,25.03022,11838,1
SHIHALI HIGH SCHOOL,119826,School,BOGRA,SHIBGANJ,SEHALI,89.36928,25.01144,11839,1
CHANDIHARA GIRLS HIGH SCHOOL,119837,School,BOGRA,SHIBGANJ,CHANDIHARA,89.20278,24.98375,11840,1
FASHITOLA NBR UNITED HIGH SCHOOL,119852,School,BOGRA,SHIBGANJ,DAULATPUR,89.19975,24.95658,11841,1
KARAT KOLA JANAB ALI ISLAMIA HIGH SCHOOL,119832,School,BOGRA,SHIBGANJ,KARATKOLA,89.22367,24.98794,11842,1
MOHASTHAN HIGH SCHOOL,119833,School,BOGRA,SHIBGANJ,MAHASTHANGAR,89.22078,24.97867,11843,1
RAYNAGOR ADARSA JUNIOR SCHOOL,119818,School,BOGRA,SHIBGANJ,ROYNAGAR,89.36603,24.97225,11844,1
JAGONNATH PUR HIGH SCHOOL,119838,School,BOGRA,SHIBGANJ,JAGANNATHPUR,89.34867,24.95194,11845,1
ABHIRAM PUR HIGH SCHOOL,119831,School,BOGRA,SHIBGANJ,KHERUA PARA,89.33783,24.98469,11846,2
GANGANAGOR  GIRL'S HIGH SCHOOL,119849,School,BOGRA,SHIBGANJ,GANGNAGAR MAJH PARA,89.32436,24.97011,11847,1
SAYEDPUR ISLAMIA HIGH SCHOOL,119830,School,BOGRA,SHIBGANJ,PURBA SAIDPUR,89.35017,24.95236,11848,1
CANTONMENT BOARD HIGH DCHOOL JAHANGIRABAD,BAGURA,119268,School,BOGRA,SHAJAHANPUR,JAHANGIRABAD CANTT.,89.30764,25.04808,11849,1
BONVETY ANOWARA HIGH SCHOOL,119284,School,BOGRA,SHAJAHANPUR,DESMA,89.29169,25.01517,11850,1
BOGRA CANTONMENT BOARD HIGH SCHOOL,119174,School,BOGRA,SHAJAHANPUR,ARIA,89.3625,24.82111,11851,1
NOGAR GIRLS' HIGH SCHOOL,119280,School,BOGRA,SHAJAHANPUR,NAGARKANDI,89.34144,24.74019,11852,1
DEMAJANI S.M. R. HIGH SCHOOL,119270,School,BOGRA,SHAJAHANPUR,DEMAJANI,89.38089,24.81133,11853,1
ASSATUN NESSA GIRL'S HIGH SCHOOL,119275,School,BOGRA,SHAJAHANPUR,DEMAJANI,89.33217,24.75386,11854,1
FULKOT NOBODAY TECHNICAL HIGH SCHOOL,119287,School,BOGRA,SHAJAHANPUR,FULKOT,89.39108,24.75836,11855,1
NOGAR SHAH MOZAMMEL HAQUE HIGH SCHOOL,119281,School,BOGRA,SHAJAHANPUR,NAGARKANDI,89.44436,24.72608,11856,1
ARIA RAHIMABAD HIGH SCHOOL,119274,School,BOGRA,SHAJAHANPUR,ARIA,89.43358,24.74264,11857,1
JAMUNNA PALLI BANDHU HIGH SCHOOL,119277,School,BOGRA,SHAJAHANPUR,JAMUNA,89.48561,24.73353,11858,1
MANIK DIPA B/L HIGH SCHOOL,119276,School,BOGRA,SHAJAHANPUR,MANIKDIPA,89.40836,24.73908,11859,1
RANIR HAT HIGH SCHOOL,119291,School,BOGRA,SHAJAHANPUR,BAIRA DIGHI,89.38422,24.74317,11860,1
ASHEKPUR C. P. HIGH SCHOOL,119273,School,BOGRA,SHAJAHANPUR,CHAK JORA,89.36597,24.70908,11861,1
DAKHIN PARTAKHUR HIGH SCHOOL,119285,School,BOGRA,SHAJAHANPUR,PARTEKUR,89.39558,24.76056,11862,1
SHABRUL HIGH SCHOOL,119272,School,BOGRA,SHAJAHANPUR,SABRUL,89.35464,24.75761,11863,1
BARA PATHAR HIGH SCHOOL,119288,School,BOGRA,SHAJAHANPUR,BARA PATHAR,89.3635,24.80511,11864,1
CHOPINAGAR HIGH SCHOOL,119279,School,BOGRA,SHAJAHANPUR,CHOPINAGAR,89.35486,24.80772,11865,1
KAMARPARA HIGH SCHOOL,119289,School,BOGRA,SHAJAHANPUR,KAMAR PARA,89.35153,24.78744,11866,1
SHAH NAGOR GIRLS HIGH SCHOOL,119265,School,BOGRA,SHAJAHANPUR,CHOPINAGAR,89.37919,24.81639,11867,1
BEJORA HIGH SCHOOL,119290,School,BOGRA,SHAJAHANPUR,KHARNA,89.41808,24.78794,11868,1
BEJORA DAKKHIN PARA  HIGH SCHOOL,119292,School,BOGRA,SHAJAHANPUR,BEJORA,89.43792,24.77858,11869,1
SULTANGANJ HIGH SCHOOL,119267,School,BOGRA,SHAJAHANPUR,GONDAGRAM (KAMAR,BIHARI,STAR),89.39153,24.82367,11870,1
POALGACHHA MUSLIM HIGH SCHOOL,119271,School,BOGRA,SHAJAHANPUR,PALGACHHA,89.38853,24.81014,11871,1
DARIGACHA ISLAMIA HIGH SCHOOL,119294,School,BOGRA,SHAJAHANPUR,DARIGACHHA,89.283,24.73031,11872,1
KHARNA NADUR PUKUR ISLAMIA HIGH SCHOOL,119293,School,BOGRA,SHAJAHANPUR,KHARNA,89.32089,24.72617,11873,1
BOHAIL HIGH SCHOOL,119283,School,BOGRA,SHAJAHANPUR,BOHAIL,89.35028,24.75733,11874,1
JALSHUKA UTTAR PARA HIGH SCHOOL,119282,School,BOGRA,SHAJAHANPUR,JALSUKHA,89.32911,24.75897,11875,1
CHANCHAITARA MADLA UNITED HIGH SCHOOL,119269,School,BOGRA,SHAJAHANPUR,CHANCHAITARA,89.42944,24.76397,11876,1
LAXMIKOLA S. R. J. HIGH SCHOOL,119278,School,BOGRA,SHAJAHANPUR,LAKSHMIKHOLA,89.42019,24.78178,11877,1
R.R.M.U HIGH SCHOOL,119286,School,BOGRA,SHAJAHANPUR,RAMCHANDRAPUR,89.45364,24.77883,11878,1
MAJHIRA HIGH SCHOOL,119266,School,BOGRA,SHAJAHANPUR,MAJHIRA,89.40819,24.80414,11879,1
SHAJAPUR BALPUKUR HIGH SCHOOL,119295,School,BOGRA,SHAJAHANPUR,SAJAPUR,89.44322,24.81153,11880,1
CHHAI HATTA K. M. BL. HIGH SCHOOL,119685,School,BOGRA,SARIAKANDI,CHHAIHATA,89.37939,24.77672,11881,1
JORGACHA M.L. HIGH SCHOOL,119679,School,BOGRA,SARIAKANDI,DAKSHIN JORGACHHA,89.37064,24.77133,11882,1
KARITALA S H DIMUKHI HIGH SCHOOL,119684,School,BOGRA,SARIAKANDI,RAUHADAHA,89.54358,24.80108,11883,1
KUTUBPUR HIGH SCHOOL,119683,School,BOGRA,SARIAKANDI,KUTUBPUR,89.55308,24.865,11884,1
GANAKPARA SCHOOL and college,119696,School,BOGRA,SARIAKANDI,KHAMAR BALALI,89.56892,24.85311,11885,1
MAZEDA RAHMAN HIGH SCHOOL,119672,School,BOGRA,SARIAKANDI,SHARIAKANDI DAKSHIN,89.52672,24.88003,11886,1
JORE GACHHA GIRLS HIGH SCHOOL,119694,School,BOGRA,SARIAKANDI,DAKSHIN JORGACHHA,89.54139,24.92958,11887,1
AYEShA OSMAN GIRLS HIGH SCHOOL,119688,School,BOGRA,SARIAKANDI,CHANDAN BAISHA,89.54208,24.80258,11888,1
NAOKHILA P N HIGH SCHOOL,119677,School,BOGRA,SARIAKANDI,CHANDAN BAISHA,89.54333,24.81869,11889,1
CHAGAL DHARA HIGH SCHOOL,119691,School,BOGRA,SARIAKANDI,CHHAGALDHARA,89.54575,24.81822,11890,1
FULLBARI gAMIRUDDIN BAHUMUKHI HIGH SCHOOL,119674,School,BOGRA,SARIAKANDI,FULBARI,89.59989,24.79881,11891,1
AOWLAKANDI E M HIGH SCHOOL,119681,School,BOGRA,SARIAKANDI,AOLAKANDI,89.60225,24.79983,11892,1
ADAMDIGHI (PILOT) GIRLS HIGH SCHOOL AND COLLEGE,119163,School and College,BOGRA,ADAMDIGHI,TALSON,89.0440663,24.81771409,25749,1
ASIR UDDIN CHISTY MEMOREAL SCHOOL & COLLEGE,119420,School and College,BOGRA,DHUPCHANCHIA,MUSTAFAPUR,89.17283,24.91708,25751,1
DHUNAT PILOT GIRLS SCHOOL & COLLEGE,119406,School and College,BOGRA,DHUNAT,DHUNAT,89.53958,24.68331,25752,1
GOHAIL ISLAMIA HIGH SCHOOL & COLLEGE,119330,School and College,BOGRA,SHAJAHANPUR,GOHAIL,89.53228,24.69125,25753,1
POLLI UNNAYAN ACADEMY LABRATORY SCHOOL & COLLEGE,119811,School and College,BOGRA,SHERPUR,GARIDAHA,89.40992,24.69119,25754,1
SHALFA TECHNICAL SCHOOL AND BM COLLEGE,132119,School and College,BOGRA,SHERPUR,GOPALPUR,89.45619,24.66975,25755,1
AREMD POLICE BATTALION PUBLIC SCHOOL & COLLEGE,119261,School and College,BOGRA,BOGRA SADAR,ARMD POLICE BAT./TENNARI,89.3465,24.93372,25756,1
BIAM MODEL SCHOOL & COLLEGE,132097,School and College,BOGRA,BOGRA SADAR,UPASHAHAR,89.34728,24.93294,25757,1
CAMBRIDGE PRE CADET SCHOOL AND COLLEGE,132148,School and College,BOGRA,BOGRA SADAR,SUTRAPUR (PART),89.36339,24.85808,25758,1
BOGRA CORONATION INSTITUTION & COLLEGE,119262,School and College,BOGRA,BOGRA SADAR,KATNER PARA,89.37539,24.85858,25759,1
POLICE LINES HIGH SCHOOL AND COLLEGE, BOGRA,119258,School and College,BOGRA,BOGRA SADAR,LATIFPUR (PART-1),89.38158,24.84333,25760,1
NISHINDARA FAKIR UDDIN SCHOOL & COLLEGE,119259,School and College,BOGRA,BOGRA SADAR,BARBAKPUR (PART),89.34308,24.84475,25761,1
S.O.S HERMAN GMEINER COLLEGE,132281,School and College,BOGRA,BOGRA SADAR,BARPUR,89.34281,24.84547,25762,1
BAGHOPARA SHAHeeD DANESH UDDIN SCHOOL AND COLLEGE,119263,School and College,BOGRA,BOGRA SADAR,BAGHO PARA,89.35497,24.90411,25763,1
HAZRADIGHI HIGH SCHOOL AND COLLEGE, BOGRA,119264,School and College,BOGRA,BOGRA SADAR,HAZRA DIGHI,89.30592,24.92683,25764,1
HABIBPUR HIGH SCHOOL & COLLEGE,119914,School and College,BOGRA,SHIBGANJ,HABIBPUR,89.41756,25.01808,25765,1
BOGRA CANTONMENT PUBLIC SCHOOL AND COLLGE,119251,School and College,BOGRA,SHAJAHANPUR,RAHIMABAD,89.37247,24.74022,25766,1
MILLENNIUM SCHOLASTIC SCHOOL & COLLEGE,133723,School and College,BOGRA,SHAJAHANPUR,GONDAGRAM (PART),89.36697,24.70819,25767,1
RAMCHANDRAPUR SCHOOL AND COLLEGE,119686,School and College,BOGRA,SARIAKANDI,FULBARI,89.38622,24.794,25768,1
