inst name, eiin, inst_type, district, thana, mauza, long, lat, serial,isUnique
CHITTAGONG GOVT. WOMENS COLLEGE,104710,College,CHITTAGONG,KHULSHI,KAIBALLYA DHAM,91.823456,22.361052,293,1
OMARGANI M. E. S. COLLEGe,104300,College,CHITTAGONG,DOUBLE MOORING,UTTAR PATHANTULI (PART),91.817284,22.360235,294,1
HATHAZARI COLLEGE,104464,College,CHITTAGONG,HATHAZARI,FATIKA,91.813103,22.501629,295,1
BOALKHALI HAZI MD.NURUL HOQUE DEGREE COLLEGE,104153,College,CHITTAGONG,BOALKHALI,SAKPURA,91.920074,22.357021,296,1
ANWARA DEGREE COLLEGE,104038,College,CHITTAGONG,ANOWARA,ANOWARA,91.90715,22.221909,297,1
SHAH MOHSEN AULIA DEGREE COLLEGE,104037,College,CHITTAGONG,ANOWARA,BATTALI,91.85981,22.203625,298,1
NIZAMPUR COLLEGE,104662,College,CHITTAGONG,MIRSHARAI,MAIJGAON,91.573235,22.773804,299,1
PAHATALI COLLEGE,104537,College,CHITTAGONG,KHULSHI,WIRELESS COLONY,91.775581,22.34527,300,1
ASAKANE AOULIA DEGREE COLLEGE,104709,College,CHITTAGONG,BAYEJID BOSTAMI,JANGAL DAKSHIN PAHAR,91.828178,22.393682,301,1
JARINA MOFZAL CITY CORPORATIN COLLEGE,104260,College,CHITTAGONG,CHITTAGONG PORT,MUNSHI PARA,91.775772,22.300194,302,1
HEAKHOW BANANI DEGREE COLLEGE,104393,College,CHITTAGONG,FATIKCHHARI,DANTMARA,91.70547,22.83008,304,1
FATICKCHARI DEGREE COLLEGE,104389,College,CHITTAGONG,FATIKCHHARI,UTTAR DHURUNG (PART),91.67681,22.899,305,1
ISAPUR B.M.C. COLLEGE,104390,College,CHITTAGONG,FATIKCHHARI,JAHANPUR,91.80739,22.61958,306,1
NANUPUR LAILA KABIR COLLAGE,104392,College,CHITTAGONG,FATIKCHHARI,NANUPUR,91.84294,22.63328,307,1
NARAYAN HAT ADARSH DEGREE COLLEGE,104391,College,CHITTAGONG,FATIKCHHARI,JUJKHALA,91.84569,22.62825,308,1
SATKANIA GOVT. COLLEGE,105061,College,CHITTAGONG,SATKANIA,DAKSHIN CHARPARA,92.04878,22.08294,309,1
COLONEL (RTD) OLI AHMED BIR BIKROM COLLEGE,105060,College,CHITTAGONG,SATKANIA,BAZALIA,92.03447,22.09725,310,1
AL HELAL ADARSHA DEGREE COLLEGE,105058,College,CHITTAGONG,SATKANIA,TULATALI,92.12944,22.12844,311,1
UTTAR SATKANIA ZAFAR AHMED CHY COLLAGE,105057,College,CHITTAGONG,SATKANIA,RASULABAD,91.99456,22.13919,312,1
SATKANIA ADARSHA  MAHILA  COLLEGE,105059,College,CHITTAGONG,SATKANIA,UTTAR CHARPARA,92.07431,22.01611,313,1
BAKALIA SHAHEED N.M.M.J. COLLEGE,104236,College,CHITTAGONG,BAKALIA,DAKSHIN BAKULIA,92.06956,22.02328,314,1
FATEYABAD COLLEGE,104050,College,CHITTAGONG,HATHAZARI,MADHYA PAHARTALI,91.80056,22.42558,315,1
K.C.SHAHEED ZIAUR RAHAMAN COLLEGE,104467,College,CHITTAGONG,HATHAZARI,KHANDAKIYA,91.83406,22.43128,316,1
KATIR HAT MOHILA COLLEGE,104463,College,CHITTAGONG,HATHAZARI,PASCHIM DHALAI,91.79464,22.60125,317,1
NAZIRHAT COLLEGE,104466,College,CHITTAGONG,HATHAZARI,PURBBA MANDAKINI,91.79497,22.47447,318,1
QUAISH BURISCHAR  SK. MOHD. CITY CORPORATION COLLEGE,104465,College,CHITTAGONG,HATHAZARI,KUAIS,91.79197,22.55461,319,1
GOVT. SIR ASHUTOSH COLLEGE,104152,College,CHITTAGONG,BOALKHALI,DHARALA,91.97783,22.36592,320,1
KADHUR KHIL JALIL AMBIA COLLEGE,104154,College,CHITTAGONG,BOALKHALI,KANDHURKHIL,91.92256,22.37494,321,1
BOALKHALI SIRAJUL ISLAM DEGREE COLLEGE,104155,College,CHITTAGONG,BOALKHALI,PURBA GOMDANDI,91.92217,22.38839,322,1
AMANAT SAFA BADR UNNESA MOHILLA DEGREE COLLEGE,104201,College,CHITTAGONG,CHANDANAISH,CHANDANAISH (PART),91.90406,22.357,324,1
BARAIYA HAT COLLEGE,104659,College,CHITTAGONG,MIRSHARAI,AZAMNAGAR(PART),91.98831,22.40317,325,1
PROFESSOR KAMAL UDDIN CHOWDHURY COLLEGE,104660,College,CHITTAGONG,MIRSHARAI,PASCHIM MAYANI,91.50286,22.81139,326,1
MIRSARAI COLLEGE,104661,College,CHITTAGONG,MIRSHARAI,PURBA MAGHADIA (PART),91.55572,22.7455,327,1
ZORWARGONG MOHILA COLLEGE,104658,College,CHITTAGONG,MIRSHARAI,SONAPAHAR,91.62183,22.68283,328,1
LATIFA SIDDIQUI DEGREE COLLEGE,105114,College,CHITTAGONG,SITAKUNDA,MACHIGIDDA,91.65561,22.60047,329,1
BIJOY SMARANI DEGREE COLLEGE,105113,College,CHITTAGONG,SITAKUNDA,BHATIARI,91.70253,22.52122,330,1
SITAKUND DEGREE COLLEGE,105112,College,CHITTAGONG,SITAKUNDA,CHOWDHURY PARA (PREMTALA),91.68103,22.56464,331,1
KHALILUR RAHMAN MOHILA COLLEGE,104777,College,CHITTAGONG,PATIYA,SUCHAKRADANDI (PART),91.66975,22.62611,332,1
PATIYA GOVT COLLEGE,104778,College,CHITTAGONG,PATIYA,PATIYA PURBA (PART),91.64922,22.64006,333,1
HULAIN SALEH NOOR DEGREE COLLAGE,104779,College,CHITTAGONG,PATIYA,HULAIN,91.94897,22.32261,334,1
MUZAFARABAD COLLEGE,104782,College,CHITTAGONG,PATIYA,MUZAFARABAD,91.94583,22.27428,335,1
MUZAFARABAD JASHODA NAGENDRA NANDI RESIDENTIAL WOMEN COLLEGE,104780,College,CHITTAGONG,PATIYA,MUZAFARABAD,91.92103,22.27892,336,1
PASCHIM PATIYA A.J.CHOWDHURY DEGREE COLLEGE,104485,College,CHITTAGONG,PATIYA,SIKALBAHA,91.90511,22.31589,337,1
KHALIL MIR DEGREE COLLEGE,104783,College,CHITTAGONG,PATIYA,SAIDAIR,91.85992,22.28292,338,1
BARAMA COLLEGE,104199,College,CHITTAGONG,CHANDANAISH,BARAMA,91.96644,22.19256,339,1
GACHHBARIA GOVT COLLEGE,104200,College,CHITTAGONG,CHANDANAISH,GACHHBARIA (PART),92.06889,22.16733,340,1
SATBARIA OLI AHMED BIR BIKRAM COLLEGE,104202,College,CHITTAGONG,CHANDANAISH,SATBARIA,92.01778,22.24764,341,1
SOUTH RANGUNIA SHILAK GIRLS COLLEGE,104852,College,CHITTAGONG,RANGUNIA,SILAK,92.01636,22.17708,342,1
M. SHAH ALAM CHOWDHURY DEGREE COLLEGE,104849,College,CHITTAGONG,RANGUNIA,SILAK,92.03733,22.17514,343,1
GOHIRA COLLEGE,104933,College,CHITTAGONG,RAOZAN,DALAINAGAR,92.02422,22.17331,344,1
KUNDESWARI BALIKA MOHAVIDYALAYA,104928,College,CHITTAGONG,RAOZAN,GOHIRA (PART),92.01694,22.17592,345,1
RAOZAN COLLEGE,104931,College,CHITTAGONG,RAOZAN,SULTANPUR (PART),91.86903,22.52222,346,1
HAJEE BADSHA MABEYA COLLEGE,104936,College,CHITTAGONG,RAOZAN,BAGOAN,91.943,22.53753,347,1
AGRASARA GIRL'S DEGREE COLLEGE,104934,College,CHITTAGONG,RAOZAN,PURBA GUZARA,91.94525,22.48039,348,1
HAZRAT YASIN SHAH PUBLIC COLLEGE,104929,College,CHITTAGONG,RAOZAN,YACHHIN NAGAR,91.89539,22.60236,349,1
NOAPARA DEGREE COLLEGE,104932,College,CHITTAGONG,RAOZAN,NOAPARA,91.86333,22.55511,350,1
IMAM GAZZALI DEGREE COLLEGE,104930,College,CHITTAGONG,RAOZAN,PAHARTALI,91.89053,22.41822,351,1
ASHALATA COLLEGE,104935,College,CHITTAGONG,RAOZAN,URKIRCHAR,91.88567,22.43869,352,1
RANGUNIA HASINA JAMAL degree  COLLEGE,104850,College,CHITTAGONG,RANGUNIA,RANGUNIA,91.88831,22.44539,353,1
RAJANAGAR RANIRHAT DEGREE COLLEGE,104848,College,CHITTAGONG,RANGUNIA,MADHYA GHAGRA,92.11836,22.55047,354,1
UTTAR RANGUNIA COLLEGE,104845,College,CHITTAGONG,RANGUNIA,LALANAGAR,92.04219,22.57172,355,1
RANGGUNIA MOHILA COLLEGE,104851,College,CHITTAGONG,RANGUNIA,PASCHIM SAIDBARI,92.07297,22.5625,356,1
RANGUNIA COLLEGE,104844,College,CHITTAGONG,RANGUNIA,SAIDBARI,92.07886,22.45625,357,1
SOUTH RANGUIA PADUA COLLAGE,104846,College,CHITTAGONG,RANGUNIA,PADUA,92.07353,22.46064,358,1
SYEDA SELIMA QADER CHOWDHURY MOHILA COLLEGE,104847,College,CHITTAGONG,RANGUNIA,POMARA,92.05094,22.52439,359,1
MUSTAFIZUR RAHMAN (DEG)COLLEGE,104982,College,CHITTAGONG,SANDWIP,BAURIA,91.46175,22.48925,360,1
ABUL QUASEM HAIDER MOHILA COLLEGE,104981,College,CHITTAGONG,SANDWIP,HARAMIA,91.46783,22.50547,361,1
UTTAR SANDVIP COLLEGE,104979,College,CHITTAGONG,SANDWIP,KALAPANIA,91.44156,22.51075,362,1
SOUTH SANDWIP COLLEGE,104978,College,CHITTAGONG,SANDWIP,MAITBHANGA,91.51092,22.42672,363,1
GOVT. HAJI A.B. COLLEGE,104980,College,CHITTAGONG,SANDWIP,MUSAPUR,91.49231,22.43469,364,1
HAZERA TAJU DEGREE COLLEGE,104237,College,CHITTAGONG,CHANDGAON,DAKSHIN CHANDGAON KAZIR DEYEA,91.87906,22.40147,365,1
ALaOL DEGREE COLLEGE,104102,College,CHITTAGONG,BANSHKHALI,UTTAR NEAJOR PARA,91.92075,21.90044,367,1
BANSKHALI (DEGREE) COLLEGE,131885,College,CHITTAGONG,BANSHKHALI,JUNGLE GUNAGARI,91.94931,22.01083,368,1
MASTER NAZIR AHAMED COLLEGE,131852,College,CHITTAGONG,BANSHKHALI,SEKHERKHIL,91.88561,22.10347,369,1
BARA AULIA DEGREE  COLLEGE,104589,College,CHITTAGONG,LOHAGARA,AMIRABAD,92.11242,22.02681,370,1
CHUNaTI MOHILA COLLeGE,104590,College,CHITTAGONG,LOHAGARA,CHUNATI,92.06269,21.99522,371,1
ALHAJ MOSTAFIZUR RAHMAN COLLEGE,104588,College,CHITTAGONG,LOHAGARA,LOHAGARA,92.13539,22.00383,372,1
BARRISTER SULTAN AHMEDCHOWBHURY DEGREE COLLEGE,104261,College,CHITTAGONG,CHITTAGONG PORT,DAKSHIN HALISHAHAR (PART),91.80611,22.36669,373,1
ISLAMIA DEGREE GOLLEGE,104299,College,CHITTAGONG,DOUBLE MOORING,DAROGA HAT,91.80239,22.32375,374,1
GOVT. COLLEGE OF COMMERCE,104302,College,CHITTAGONG,DOUBLE MOORING,BANGLADESH BANK COLONY,91.81261,22.33317,375,2
GOVT.  CITY  COLLEGE,CTG (DAY  AND  NIGHT),104301,College,CHITTAGONG,DOUBLE MOORING,UTTAR NALAPARA,91.81647,22.33017,376,1
AGRABAD MOHILA COLLeGE,104303,College,CHITTAGONG,DOUBLE MOORING,C. D. A.,91.82647,22.32933,377,1
UTTAR KATLI AL-HAJ MOSTAFA -HAKIM DEGREE COLLEGE,104688,College,CHITTAGONG,PAHARTALI,UTTAR KATTALI,91.77572,22.37083,378,1
DR.FAZLUL HAJERA DEGREE COLLEGE,104687,College,CHITTAGONG,PAHARTALI,DAKSHIN KAT TALI(PART),91.77114,22.37386,379,1
GOVT.CHITTAGONG COLLEGE,104532,College,CHITTAGONG,KOTWALI,CHAK BAZAR,91.83667,22.35147,380,1
KAPASGOLA CITY CORPARATION MOHILA COLLEGE,132060,College,CHITTAGONG,KOTWALI,CHAK BAZAR,91.83819,22.3515,381,1
GOVT HAJI MOHD MOHSIN COLLEGE CTG,104527,College,CHITTAGONG,KOTWALI,CHAK BAZAR,91.835,22.35058,382,1
CHITAGONG METROPOLITON COMMERCE COLLEGE,104531,College,CHITTAGONG,KOTWALI,BAG MONIRAM,91.83525,22.35275,383,1
Mahila college chattagram,104528,College,CHITTAGONG,KOTWALI,TERI BAZAR (FORHAD BAGBAG LALE,91.8345,22.34789,384,1
PATHARGHATA MOHILA COLLEGE,104529,College,CHITTAGONG,KOTWALI,POLO GROUND,91.83717,22.33139,385,1
NATUN BAZAR  ISLAMIA DAHKIL MADRASAH,104375,Madrasha,CHITTAGONG,FATIKCHHARI,JUNGLE DANTMARA,91.20942,23.45933,3635,1
MUNIRUL ULUM BARIA ISLAMAI DAHKIL MADRASAH,131756,Madrasha,CHITTAGONG,FATIKCHHARI,UTTAR RANGAMATIA (PART),91.22939,23.47631,3636,1
IMAM ABU HANIFA  R; DHKIL MADRASAH,131862,Madrasha,CHITTAGONG,FATIKCHHARI,UTTAR DHURUNG (PART),91.13494,23.43893,3637,1
MADRASHA -F-GAUSUL AZAM  AMIZBHANARI,131826,Madrasha,CHITTAGONG,FATIKCHHARI,MAIJBHANDAR,91.12556,23.43286,3638,1
KORALIA TAKIA NESARIA SUNNIA DAKHIL MADRASHA,104377,Madrasha,CHITTAGONG,FATIKCHHARI,LOT 98 ANDHARMANIK,91.80611,22.69044,3639,1
BANGLA BAZER ISLAMIA DAKIL MADRASAH,104381,Madrasha,CHITTAGONG,FATIKCHHARI,JUNGLE DANTMARA,91.8355,22.63475,3640,1
FAROQUE -E-AZAM R; ISLAMIA SUAAIA MADRASAH,104387,Madrasha,CHITTAGONG,FATIKCHHARI,BAKTAPUR,91.71003,22.98117,3641,1
HASNUBAD AHSANUL ULUM ISLAMIA DAKHIL MADRASHA,104359,Madrasha,CHITTAGONG,FATIKCHHARI,HASNABAD,91.74131,22.74864,3642,1
HEAKO RAHMANIA DAKHIL MADRASAH,104361,Madrasha,CHITTAGONG,FATIKCHHARI,DANTMARA,91.72831,22.77319,3643,1
DANTAMARIA MAINUL ULUM DAKHIL MADRASAH,104367,Madrasha,CHITTAGONG,FATIKCHHARI,UTTAR BARAMASIA,91.72775,22.75161,3644,1
SHANTIR HAT MISHKATUNNABI DAKHIL MADRASHA,104380,Madrasha,CHITTAGONG,FATIKCHHARI,UTTAR BARAMASIA,91.69947,22.86975,3645,1
SOUTH DHARMAPUR RAHAMANIA MOHAMMADIA DAKHIL MADRASHA,104376,Madrasha,CHITTAGONG,FATIKCHHARI,DHARMAPUR,91.67517,22.89219,3646,1
DARUSSNNAH KHADRIA DAHKIL MADRASAH,104384,Madrasha,CHITTAGONG,FATIKCHHARI,PURBA FARHADABAD,91.81186,22.64056,3648,1
NUR KAZI HALIMIA MOHILA DAHKIL MADRASAH,104374,Madrasha,CHITTAGONG,FATIKCHHARI,PURBA FARHADABAD,91.792,22.68983,3649,2
GAWSIA RAHMANI SULTANA DAKHIL MADRASA,104371,Madrasha,CHITTAGONG,FATIKCHHARI,HARWALCHHARI,91.79586,22.63808,3650,1
FATEHPUR J B NURIA DAKHIL MADRASAH,104386,Madrasha,CHITTAGONG,FATIKCHHARI,FATEHPUR,91.80672,22.63211,3651,1
SHAMSUL ULLUM GAUSIA SUNNIA ALIM MADRASHA,104382,Madrasha,CHITTAGONG,FATIKCHHARI,ABDULLAPUR,91.74781,22.71647,3652,1
KANCHAN NAGAR HAT ISLAMIA DAKHIL MADRASHA,104369,Madrasha,CHITTAGONG,FATIKCHHARI,MADHYA KANCHAN NAGAR,91.85761,22.57569,3653,1
KANCHAN NAGAR AHMADIA KARAMOTIHA MOHILA DAKHIL MADRASAH,131773,Madrasha,CHITTAGONG,FATIKCHHARI,MANIKPUR,91.85792,22.57467,3654,1
KHIRAM QUADERIA MOYEENIA DAKHIL MADRASHA,104383,Madrasha,CHITTAGONG,FATIKCHHARI,KRISHNANAGAR,91.86283,22.58661,3655,1
BONDE RAZA A MOHILA DAKIL MANRASHA,104385,Madrasha,CHITTAGONG,FATIKCHHARI,LELANG,91.82903,22.73619,3656,1
NOOR -UL- ULUM GAWCHIA MUNIRIA DAHKIL MADRASAH,104373,Madrasha,CHITTAGONG,FATIKCHHARI,GOPALGHATA,91.84506,22.74186,3657,1
NANPUR MOHILA ALIM MADRASHA,104358,Madrasha,CHITTAGONG,FATIKCHHARI,NANUPUR,91.84375,22.6625,3658,1
MAJHARUL UL.GAU.FAZIL MADRASAH,104365,Madrasha,CHITTAGONG,FATIKCHHARI,NANUPUR,91.83194,22.66644,3659,1
NURUL ULUM AHMAIDA REZVIA  DAHKIL MADRASAH,104357,Madrasha,CHITTAGONG,FATIKCHHARI,PASCHIM KHIRAM,91.82328,22.67269,3660,1
NARAYAN HAT ISLAMIA MOHILA DAKIL MADRASHA,104388,Madrasha,CHITTAGONG,FATIKCHHARI,JUJKHALA,91.84517,22.61803,3661,1
NARAYAN HAT ISLAMIA ALIM MADRASAH,104366,Madrasha,CHITTAGONG,FATIKCHHARI,HAPANIA,91.90706,22.64869,3662,1
BERAZALI MOZIDIA  ISLAMIA DAHKIL MARASAH,104368,Madrasha,CHITTAGONG,FATIKCHHARI,UTTAR PAINDANG,91.72439,22.78406,3663,1
PAINDONG HEDAYTUL ISLAM DAKHIL MADRASHA,104360,Madrasha,CHITTAGONG,FATIKCHHARI,HAIDCHAKSHIYA,91.71856,22.81278,3664,1
FATICCHARI JAMEUL ULUM KAMIL DEGREE MADRASA,104364,Madrasha,CHITTAGONG,FATIKCHHARI,UTTAR RANGAMATIA (PART),91.71908,22.81283,3665,1
SUABIL GAWSIA TAMADIA TAYEBIA SUNNIA DAHKIL MADRASAH,104379,Madrasha,CHITTAGONG,FATIKCHHARI,SUABIL,91.79453,22.6895,3666,1
SHAMITIR HAT ISLAMIA ALIM MADRASAH,104372,Madrasha,CHITTAGONG,FATIKCHHARI,PURBA DHALAI,91.79783,22.68658,3667,1
HARINADIGHEE ISLAMIA DAKHIL MADRASHA,131778,Madrasha,CHITTAGONG,FATIKCHHARI,CHHILANIA,91.76481,22.49044,3668,1
SATKANIA ADARSHA MOHILA MADRASHA,131793,Madrasha,CHITTAGONG,SATKANIA,ICHHAMATI,91.81922,22.59147,3669,1
SARKANIA MAHMUDUL ULUM FAZIL MADRASHA,105034,Madrasha,CHITTAGONG,SATKANIA,DAKSHIN CHARPARA,91.83189,22.58772,3670,1
RUPKANIA AHMADIA DAKHIL MADRASHA,105026,Madrasha,CHITTAGONG,SATKANIA,RUPKANIA (PART)DAKSHIN RUPKANI,91.83972,22.56639,3671,1
PASCHIM GATIA DANGA ISLAMIA DAKHIL MADRASHA,105031,Madrasha,CHITTAGONG,SATKANIA,PASCHIM GATIADANGA,92.04822,22.09186,3672,1
BAITUS SHARAF AKHTARIA ADARSHA ALIM MADRASHA,105046,Madrasha,CHITTAGONG,SATKANIA,SITUR PARA,92.05767,22.07656,3673,1
BAZALIA HEDAYATUL ISLAM FAZIL MADRASHA,105036,Madrasha,CHITTAGONG,SATKANIA,BAZALIA,92.07461,22.08856,3674,1
BRADONA AL-AMIN ADARSHA MOHILA DAKHIL MADRASHA,105045,Madrasha,CHITTAGONG,SATKANIA,BARADONA,92.02242,22.08544,3675,1
CHARATI MOHAMMADIA (SM) DAKHIL MADRASAH,105042,Madrasha,CHITTAGONG,SATKANIA,DURDURI,92.03261,22.09814,3676,1
SOUTH CHARATI MAZIDIA DAKHIL MADRASHA,105028,Madrasha,CHITTAGONG,SATKANIA,CHARATI,92.04667,22.09042,3677,1
ICHAMATI MUHAMMADIA ADARSHA DAKHIL MADRASAH,105048,Madrasha,CHITTAGONG,SATKANIA,ICHHAMATI,92.13158,22.12647,3678,1
RASULABAD ISLAMIA SENIOR FAZIL MADRASA,105037,Madrasha,CHITTAGONG,SATKANIA,KALIAIS,91.95122,22.15708,3679,1
SOUTH KANCHANA SHAH RASHIDIA ISLAMIA DAKHIL MADRASHA,105047,Madrasha,CHITTAGONG,SATKANIA,KANCHANA,92.03339,22.10589,3680,1
DARUL IHSAN MOHILA DHKHIL MADRASHA,105055,Madrasha,CHITTAGONG,SATKANIA,KANCHANA,92.06806,22.14411,3681,1
KERANIHAT JAMEUL ULOOM ISLAMIA FAZIL MADRASA,105033,Madrasha,CHITTAGONG,SATKANIA,JANAR KEOCHIA,92.01344,22.09372,3682,1
KEOCHIA MUZHERUL HOQUE ISLAMIA DAKHIL MADRSAH,105052,Madrasha,CHITTAGONG,SATKANIA,KEOCHIA,92.00125,22.09528,3683,1
CHAR KHAGARIA RASULPUR AL.N.J. DAKHIL MADRASAH,105108,Madrasha,CHITTAGONG,SATKANIA,CHAR KHAGARIA,92.09403,22.11694,3684,1
KHAGORIA ISLAMIA SUNNIA DHAKIL MADRASHA,131836,Madrasha,CHITTAGONG,SATKANIA,CHAR KHAGARIA,92.08872,22.09817,3685,1
MADRASAH E- ABU HURAIRAH (R) DAKHIL,105053,Madrasha,CHITTAGONG,SATKANIA,MADARSA,92.07439,22.10264,3686,1
BAITUSH SHARAF JABBARIA ADARSHA MADRASAH,105056,Madrasha,CHITTAGONG,SATKANIA,DAKSHIN RAMPUR (PART),92.09664,22.12419,3687,1
EAST GATIA DENGA HABIBUL ULUM ISLAMIA DAKHIL MADRASHA,105044,Madrasha,CHITTAGONG,SATKANIA,PURBA GATIADANGA,92.04111,22.14403,3688,1
SADAHA ADARSHA MOHILA DAKHIL MADRASHA,105030,Madrasha,CHITTAGONG,SATKANIA,SADAHA,92.04261,22.08475,3689,1
SADAHA MOHAMMADIA KHAIRIA ALIM MADRASHA,105040,Madrasha,CHITTAGONG,SATKANIA,SADAHA,92.03219,22.13833,3690,1
SAYEDBAD EMDADUL ULUM DUDU FOKIR AHMADIA SINIOR ALIM MADRASAH,105041,Madrasha,CHITTAGONG,SATKANIA,CHHAIDABAD (PART),92.02514,22.12617,3691,1
DAKKHIN CHIBBARI MAHILA DAKHIL MADRASA,105050,Madrasha,CHITTAGONG,SATKANIA,SHIBBARI,92.09572,22.08994,3692,1
BARADONA REFAIYA SHA AKBARIA ISLAMIA MADRASHA,105043,Madrasha,CHITTAGONG,SATKANIA,BARADONA,92.09997,22.09269,3693,1
SHAH MAZIDIA ISLAMIA DAKHIL MADRSAH,105029,Madrasha,CHITTAGONG,SATKANIA,SHIBBARI,92.0735,22.07503,3694,1
GARANGIA ISLAMIA RABBANI MOHILLA MADRASHA,105049,Madrasha,CHITTAGONG,SATKANIA,GARANGIYA,92.09497,22.06917,3695,1
MIRZAKHIL ANOWARAY RAHMANIA IDEAL DAKHIL MADRASHA,105027,Madrasha,CHITTAGONG,SATKANIA,SONAKANIA (PART),92.09064,22.05375,3696,1
SOUTH GARANGIA MODEL MOHILA DAKHIL MADRASAH,105111,Madrasha,CHITTAGONG,SATKANIA,GARANGIYA,92.07961,22.04611,3697,1
GAraNGIA   ISLAMIA  KAMIL MADRASAh,105035,Madrasha,CHITTAGONG,SATKANIA,GARANGIYA,92.086,22.06197,3698,1
SONSKANIA MAZIDIA DAKHIL MADRASAH,105038,Madrasha,CHITTAGONG,SATKANIA,UTTAR SONAKANIA,92.04264,22.05336,3699,1
MAHANAGOR MIR NURUL ISLAM A: DAKHIL MADRASHA,105106,Madrasha,CHITTAGONG,SITAKUNDA,BAGKHALI,92.04761,22.04003,3700,1
BAGAN BAZAR FARUKIA DAHKIL MADRASAH,104370,Madrasha,CHITTAGONG,FATIKCHHARI,RAMGAR,92.06336,22.04428,3701,1
KAMALE ISHQ-E MUSTAFA (SM) ALIM MADRASHA,104108,Madrasha,CHITTAGONG,BAKALIA,PURBA BAKALIA(PART-1),91.70764,22.98047,3702,1
LALIARHAT HOSAINIA SENIOR (ALIM) MADRASHA,104048,Madrasha,CHITTAGONG,HATHAZARI,CHITTAGANG CNT.(HATHAZARI (P)),91.85144,22.35133,3703,2
FATEHABAD GAUSIA TAYABIA DAKHIL MADRASHA,104679,Madrasha,CHITTAGONG,HATHAZARI,MOHAMMADABAD,91.84786,22.33939,3704,2
BURISCHAR ZIAUL ULUM FAZIL MADRASHA,104452,Madrasha,CHITTAGONG,HATHAZARI,BURISH CHAR,91.81325,22.46,3705,1
CHIPATALI JAMIA GAUSIA MUINIA KAMIL MADRASAH,104455,Madrasha,CHITTAGONG,HATHAZARI,CHHIBATALI,91.81858,22.42553,3706,1
K.C. AKHTARUL ULOOM MOHILA MADRASAH,131832,Madrasha,CHITTAGONG,HATHAZARI,KHANDAKIYA,91.83681,22.53403,3707,1
BATTTALI ISLAMIA ALIM MADRASAH,104457,Madrasha,CHITTAGONG,HATHAZARI,MADHYA MADARSHA,91.83039,22.44803,3708,1
HAZRAT AKBAR SHAH SUNNIYA DAKHIL MADRASA,104449,Madrasha,CHITTAGONG,HATHAZARI,MADHYA MADARSHA,91.83058,22.42264,3709,1
KATIRHAT MOFIDUL ISLAM FAZIL MADRASAH,104450,Madrasha,CHITTAGONG,HATHAZARI,PASCHIM DHALAI,91.82997,22.42297,3710,1
AHMADIA TAJBIDUL QURAN MOHILA DAKHIL MADRASAH,104445,Madrasha,CHITTAGONG,HATHAZARI,PASCHIM DHALAI,91.85956,22.55472,3711,1
FATEHPUR M I SENIOR MADRASAH,104454,Madrasha,CHITTAGONG,HATHAZARI,MAIZPATTY (FATEHPUR),91.79375,22.59944,3712,1
GUMAN MARDAN PESHKARHAT ISLAMIA SUNNIA DAKHIL MADRASA,104448,Madrasha,CHITTAGONG,HATHAZARI,GUMANMARDAN,91.81464,22.47425,3713,1
JAMEA ADUDIA SUNNIA FAZIL MADRASHA,104451,Madrasha,CHITTAGONG,HATHAZARI,DEWANNAGAR,91.85975,22.49861,3714,1
HATHAZARI ANWARRUL ULUM NOMANIA ALIM MADRASHA,104460,Madrasha,CHITTAGONG,HATHAZARI,FATIKA,91.82786,22.57131,3715,1
MIRZAPUR JAINUL ULUM ALIM MADRASAH,104444,Madrasha,CHITTAGONG,HATHAZARI,MIRZAPUR,91.84769,22.48214,3716,1
MIRZAPUR  GOWSIA  BAKERIA  MOHILA  DAKHIL  MADRASHA,104459,Madrasha,CHITTAGONG,HATHAZARI,DEWANNAGAR,91.80039,22.52142,3717,1
NANGAL MORA SAMSUL ULUM FAZIL MADRASHA,104453,Madrasha,CHITTAGONG,HATHAZARI,NANGALMORA,91.79497,22.53097,3718,1
MOHAMMADIA HASHEMIA SUNNIA DAKHIL MADRASHA,131856,Madrasha,CHITTAGONG,HATHAZARI,UTTAR MADARSA,91.83767,22.42258,3719,1
AMUCHIA SHAH MAZIDIA DAKHIL MADRASHA,104148,Madrasha,CHITTAGONG,BOALKHALI,AMUCHIA,91.85944,22.47483,3720,1
CHARANDWIP RAJAVIA ISLAMIA FAZIL MADRASHA,104139,Madrasha,CHITTAGONG,BOALKHALI,CHARANDWIP,91.97978,22.36111,3721,1
MUHAMMADIA ISLAMIA DAKHIL MADRASHA,104147,Madrasha,CHITTAGONG,BOALKHALI,CHARANDWIP,91.96839,22.38367,3722,1
PURBA  GOMDANDI  AHMADIA  AZIZIA  SUNNIA  DAKHIL MADRASHA,104151,Madrasha,CHITTAGONG,BOALKHALI,PURBA GOMDANDI,91.96906,22.38447,3723,1
HAZRAT AYESHA (R) MAHILA DAKHIL MADRASHA,104149,Madrasha,CHITTAGONG,BOALKHALI,PURBA GOMDANDI,91.93411,22.41731,3724,1
GOMDONDI ISLAMIA DAKHIL MADRASAH,104138,Madrasha,CHITTAGONG,BOALKHALI,PURBA GOMDANDI,91.92286,22.41378,3725,1
AL QURAN ACADEMY,131864,Madrasha,CHITTAGONG,BOALKHALI,KANDHURKHIL,91.91719,22.37503,3726,1
HAWLA KUTUBIA SENIOR (ALIM) MADRASHA,104142,Madrasha,CHITTAGONG,BOALKHALI,AKUPDANDI,91.92881,22.38242,3727,1
KHITAPCHAR  AZIZIA  MABUDIA  ALIM MADRASAH,104141,Madrasha,CHITTAGONG,BOALKHALI,KHITAPCHAR,91.96431,22.40081,3728,1
Bengura Senior Madrasah,104137,Madrasha,CHITTAGONG,BOALKHALI,BENGURA,91.95653,22.39244,3729,1
SHAKPURA  DARUSSUNNAT KAMIL MADRASHA,104144,Madrasha,CHITTAGONG,BOALKHALI,SAKPURA,91.937,22.39253,3730,1
SHAKPURA HAZRAT RABAYA BASRI GIRLS DAKIL MADRASHA,104146,Madrasha,CHITTAGONG,BOALKHALI,SAKPURA,91.94197,22.36631,3731,1
WEST SHAKPURA TAZADIA AMINIA DAKHIL MADRASHA,104145,Madrasha,CHITTAGONG,BOALKHALI,SAKPURA,91.96458,22.34989,3732,1
JAISTAPURA ISLAMIA HAMEDIA DAKHIL MADRASHA,104140,Madrasha,CHITTAGONG,BOALKHALI,JAISTHAPURA,91.93408,22.35194,3733,1
ZORARJONG  ISLAMIA DAKHIL MADRASAH,131880,Madrasha,CHITTAGONG,MIRSHARAI,SONAPAHAR,91.98317,22.39969,3735,1
HINGULI KADAMTALA ISLAMIA DAKHIL MADRASAH,104642,Madrasha,CHITTAGONG,MIRSHARAI,PURBA HINGULI,91.91253,22.35297,3736,1
MANDER  BARIA  SHAH  OLIA  GIRLS  DAKHIL MADRASHA,104648,Madrasha,CHITTAGONG,MIRSHARAI,KISMAT JAFARABAD,91.53583,22.89578,3737,1
NAHERPUR RAHMANIA  ISLAMIA DAKHIL MADRASHA,104643,Madrasha,CHITTAGONG,MIRSHARAI,NAHERPUR,91.51675,22.88783,3738,1
SHANTER HAT ISLAMIA ALIM MADRASHA,104640,Madrasha,CHITTAGONG,MIRSHARAI,JAMALPUR,91.57161,22.77608,3739,1
TATAIYA DAWATUL ISLAMIA DAKHIL MADRASHA,104646,Madrasha,CHITTAGONG,MIRSHARAI,TEMUHANI MURADPUR,91.55569,22.79042,3740,1
JAMEA RAHMANIA FAZIL MADRASAH,104645,Madrasha,CHITTAGONG,MIRSHARAI,GOPALPUR,91.50342,22.89322,3741,1
MADBARHAT ISLAMIA SENIOR FAZIL  MADRASHA,104634,Madrasha,CHITTAGONG,MIRSHARAI,UTTAR ICHHAKHALI,91.54758,22.83694,3742,1
ABURHAT RAHMANIA  DAKHIL MADRASHA,104654,Madrasha,CHITTAGONG,MIRSHARAI,UTTAR ICHHAKHALI,91.57911,22.71217,3743,1
GONIATUL ULUM HOSSAINIA ALIM MADRASAH,104641,Madrasha,CHITTAGONG,MIRSHARAI,CHHATTARUA,91.49078,22.83903,3744,1
CHISTIA BAZAL AHMED ISLAMIA SUNNIA DAKHIL MADRASHA,131827,Madrasha,CHITTAGONG,MIRSHARAI,JOYPUR PURBA JOAR,91.48056,22.82017,3745,1
BARIA  KHALI  MOULANA  LOKIAT  ULLAH  ISLAMIA  DAKHIL MADRASHA,104644,Madrasha,CHITTAGONG,MIRSHARAI,BARIN KHALI,91.55403,22.93017,3746,1
MIRSARAI LATIFIA KAMIL MADRASHA,104636,Madrasha,CHITTAGONG,MIRSHARAI,PURBA MAGHADIA (PART),91.59028,22.75083,3747,1
MITHACHARA ISLAMIA FAZIL MADRASAH,104635,Madrasha,CHITTAGONG,MIRSHARAI,MOTBARIA,91.55753,22.74617,3748,1
BARATAKIA ZAHEDIA DAKHIL MADRASHA,104657,Madrasha,CHITTAGONG,MIRSHARAI,HASADYN PURBA MAGHADIA (PART),91.54214,22.73422,3749,1
SUFIA NURIA FAZIL MADRASHA,104637,Madrasha,CHITTAGONG,MIRSHARAI,MITHANALA RAJAPUR,91.55656,22.78931,3750,1
BAMON  SUNDAR  FARIKIA  DAKHIL MADRASHA,104656,Madrasha,CHITTAGONG,MIRSHARAI,BAMAN SUNDAR,91.55753,22.80456,3751,1
SYEDPUR  SUFINUR  MOHAMMADIA SIDDQUIA  DAKHIL  MADRASHA,104650,Madrasha,CHITTAGONG,MIRSHARAI,SAIDPUR,91.58675,22.75697,3752,1
BAHER  CHOWDHORY  NORIA  DAKHIL  MADRASHA,104655,Madrasha,CHITTAGONG,MIRSHARAI,MADHYA MAGHADIA,91.57283,22.77811,3753,1
ABUTORAB FAJIL MADRASHA,104639,Madrasha,CHITTAGONG,MIRSHARAI,MADHYA MAGHADIA,91.51678,22.78106,3754,1
OSMANPUR  NURIA  ISLAMIA  DAKHIL MADRASHA,104651,Madrasha,CHITTAGONG,MIRSHARAI,OSMANPUR,91.54531,22.78642,3755,1
KHEAR HAT NURIA SIDDIQUIA DAKHIL MADRASAH,104649,Madrasha,CHITTAGONG,MIRSHARAI,DOMKHALI,91.57064,22.7775,3756,1
AHMADIA HABIBIA GONIA DAKHIL MADRASHA,104647,Madrasha,CHITTAGONG,MIRSHARAI,SAHERKHALI,91.53061,22.75911,3757,1
NURUL  ULUM  IDRISIA  DAKHIL MADRASHA,131821,Madrasha,CHITTAGONG,MIRSHARAI,DOMKHALI,91.48433,22.84533,3758,1
MIRZABAZAR ISLAMIA DAKHIL MADRASHA,104638,Madrasha,CHITTAGONG,MIRSHARAI,WAHEDPUR,91.48603,22.86083,3759,1
MOULOVI NAZIR AHMAD IDEAL DAKHIL MADRSHA,131835,Madrasha,CHITTAGONG,MIRSHARAI,AZAMNAGAR (PART),91.57175,22.69342,3760,1
SITALPUR GAUSIA ISLAMIA DAKHIL MADRASHA,105104,Madrasha,CHITTAGONG,SITAKUNDA,SITALPUR,91.61403,22.64569,3761,1
HAZRAT KHAZA KALUSHA (R) SUNNIA ALIM MADRASAh,105101,Madrasha,CHITTAGONG,SITAKUNDA,UTTAR SALIMPUR,91.594,22.6565,3762,1
MURAD PUR BAITNNUR DAKHIL MADRASA,131859,Madrasha,CHITTAGONG,SITAKUNDA,MURADPUR,91.75361,22.40954,3763,1
HAZRAT OMAR FARUK (R) DAKHIL MADRASHA,105095,Madrasha,CHITTAGONG,SITAKUNDA,GOLABARIA,91.73194,22.45417,3764,1
AL AMIN ISLAMIA SUNNIA DAKHIL MADRASHA,105096,Madrasha,CHITTAGONG,SITAKUNDA,UTTAR SONAICHHARI,91.76033,22.39047,3765,1
MADRASHA-A- MOHAMMADIA AHMODIA SUNNIA  D/MAD.,105107,Madrasha,CHITTAGONG,SITAKUNDA,BHATIARI,91.64517,22.61108,3766,1
KADAMRASUL GHOWSIA TAYABIA SUNNIA DAKHIL MADRASHA,131787,Madrasha,CHITTAGONG,SITAKUNDA,JAHANABAD,91.71294,22.49944,3767,1
LALA NAGAR ISLAMIA DAKHIL MADRASHA,105109,Madrasha,CHITTAGONG,SITAKUNDA,DAKSHIN TERAIL,91.70339,22.52136,3768,1
MUJADDADIA NURIA ISLAMIA DAKHIL MADRASHA,105110,Madrasha,CHITTAGONG,SITAKUNDA,KATGHAR,91.74889,22.42356,3769,1
BARO DAROGA HAT S U I D MADRASHA,105102,Madrasha,CHITTAGONG,SITAKUNDA,FARADPUR,91.61386,22.65833,3770,1
KAZI PARA BAITUN NUR DAKHIL MADRASHA,131808,Madrasha,CHITTAGONG,SITAKUNDA,NODALIA,91.68519,22.58019,3771,1
JUBAIDIA ISLAMIA MOHILA ALIM MADRASAH,105097,Madrasha,CHITTAGONG,SITAKUNDA,DAKSHIN EDILPUR,91.62639,22.68144,3772,1
BANSH BARIA ISLAMIA DAKHIL MADRASHA,105103,Madrasha,CHITTAGONG,SITAKUNDA,BANSHBARIA,91.62464,22.68094,3773,1
SITAKUND  KAMIL MADRASAH,105099,Madrasha,CHITTAGONG,SITAKUNDA,DAKSHIN MOHADEBPUR,91.67136,22.58636,3774,1
PANTICHILLA ISLAMIA DAKHIL MADRASHA,105098,Madrasha,CHITTAGONG,SITAKUNDA,MADHYA YAKUBNAGAR (PART),91.66161,22.61719,3775,1
CHARLAKSHA  SIRAJUL MAMUN  Y.Z  DAKHIL MADRASHA,104765,Madrasha,CHITTAGONG,PATIYA,CHAR LAKSHYA,91.65856,22.62106,3776,1
SAHCHAND AOWLIA KAMIL MADRASHA,104757,Madrasha,CHITTAGONG,PATIYA,BAHULI,91.84472,22.30944,3777,1
HAIDGAON  GOBINDERKHIL   GOWSIA  SOBHANIA  ADARSHA  DAKHIL  MADRASHA,131819,Madrasha,CHITTAGONG,PATIYA,GOBINDARKHIL UTTOR,91.98097,22.29369,3778,1
PATIYA AMIRUL ANOWALIA SONNIA DKAHIL MADRASAHA,104756,Madrasha,CHITTAGONG,PATIYA,ALLAI,91.98097,22.29269,3779,1
SOUTH ASHIYA GOUSIA SUNNIA DAKHIL MADRASHA,131833,Madrasha,CHITTAGONG,PATIYA,ASIA,91.98411,22.29017,3780,1
BARALIA SHAH SAYED ABDUSSALAM AULIA DAKHIL MADRASAH,131831,Madrasha,CHITTAGONG,PATIYA,BARALIA,91.98986,22.30356,3781,1
OKANNYRA MOHAMMADIA SUNNIA DHAKIL MADRASHA,104758,Madrasha,CHITTAGONG,PATIYA,OKAINAYRA,91.94242,22.27411,3782,1
H. MIRZA ALILEDU S. M. DAKHIL MADRASHA,104775,Madrasha,CHITTAGONG,PATIYA,BHATIKHAIN,91.92681,22.29814,3783,1
HAZRAT CHIKON KHALIFA SIDDIQUE AHMED DAKHIL MADRASHA,104754,Madrasha,CHITTAGONG,PATIYA,CHANHARA,91.84853,22.2775,3784,1
RAHMANIA  MUHAMMADIA  QUADERIA   DAKHIL MADRASHA,104774,Madrasha,CHITTAGONG,PATIYA,KARANKHAIN,91.98131,22.25258,3785,1
HULAIN  HAZRAT  YASIN  AOLIA  HAMIDA  ABEDIA  S/MAD,104767,Madrasha,CHITTAGONG,PATIYA,HULAIN,91.94089,22.34022,3786,1
SHAH AKBARIYA  DAKHIL MADRASHA,131817,Madrasha,CHITTAGONG,PATIYA,HAIDGAON,91.90164,22.33075,3787,1
AL-HAJ S.M NASIMA BEGUM DAKHIL MADRASAH,104776,Madrasha,CHITTAGONG,PATIYA,ASIA,91.99256,22.30947,3788,1
FAKIR  PARA  BADAR  AULIA  S.  DAKHIL  MADRASHA,104764,Madrasha,CHITTAGONG,PATIYA,KHARANA,91.92642,22.26133,3789,1
KOLAGONG GAWSIA T B A DAKHIL MADRASHA,104755,Madrasha,CHITTAGONG,PATIYA,KOLAGAON,91.98672,22.34511,3790,1
NALANDHA  GAUSIA  BADARIA  DAKHIL MADRASHA,104480,Madrasha,CHITTAGONG,PATIYA,NALANDHA,91.99947,22.25122,3791,1
MONSHA   ISLAMIA  SENIOR  MADRASA,104759,Madrasha,CHITTAGONG,PATIYA,MANASA,92.01403,22.25186,3792,1
MEHERATI NURUDDIN SHAH ( R) DAKHIL MADRASAH,104763,Madrasha,CHITTAGONG,PATIYA,MEHERATI,91.87889,22.32078,3793,1
SIKALBAHA  OHIDIA  SENIOR MADRASHA,104482,Madrasha,CHITTAGONG,PATIYA,SIKALBAHA,91.912,22.30517,3794,1
RASHIDBAD MOHAMMADIA SUNNIA DAKHIL MADRASHA,104762,Madrasha,CHITTAGONG,PATIYA,RASIDABAD,91.90533,22.31639,3795,1
FAYZUL BARI SENIOR  FAZIL   MADRASA,104760,Madrasha,CHITTAGONG,PATIYA,SHAH MIRPUR,91.86886,22.31058,3796,1
EAST  KAIGRAJ   SABERIA  KHALILA  ISLAMIA  SUNIA  DMAD,104769,Madrasha,CHITTAGONG,PATIYA,KAIGRAM,91.99286,22.22414,3797,1
SHAINDAIR GAUSIA TAYABIA DILOWARA BEGUM SUNNIA ALIM MADRASAH,104771,Madrasha,CHITTAGONG,PATIYA,SAIDAIR,91.99333,22.23981,3798,1
JOARA ISLAMIA FAZIL MADRASAH,104194,Madrasha,CHITTAGONG,CHANDANAISH,CHANDANAISH (PART),91.97811,22.31294,3799,1
BARKAL SALMATIA SUNNIA senior MADRASHA,104196,Madrasha,CHITTAGONG,CHANDANAISH,BARKAL,92.02992,22.21311,3800,1
 TAHERIA SABERIA SUNNIA DAKHIL MADRASAH,104192,Madrasha,CHITTAGONG,CHANDANAISH,PATHANDANDI,91.99997,22.15286,3801,1
KANAIMADARI ISLAMIA KADERIA SUNNIA DAKHIL MADRASHA,104189,Madrasha,CHITTAGONG,CHANDANAISH,KANAIMADARI,92.01831,22.15397,3802,1
BARAMA ISLAMIA DAKHIL MADRASHA,104197,Madrasha,CHITTAGONG,CHANDANAISH,SOBANDI,91.98364,22.22281,3803,1
CHAGACHAR MOSABIA NASIMIA FAZIL MADRASHA,104193,Madrasha,CHITTAGONG,CHANDANAISH,CHAGACHAR,91.98203,22.17889,3804,1
JAMIRJURI RAZABIA AZIZIA RAHAMANIA SUNNIA FAZIL MADRASAH,104186,Madrasha,CHITTAGONG,CHANDANAISH,JAMIRJURI,92.13203,22.20783,3805,1
HASHIMPUR MOQBULIA FAZIL MADRASHA,104187,Madrasha,CHITTAGONG,CHANDANAISH,HASHIMPUR,92.07303,22.17131,3806,1
DAKKIN HASHIMPUR VANDARI PARA H.M.K.B   DAKIL   M.,104185,Madrasha,CHITTAGONG,CHANDANAISH,HASHIMPUR,92.06161,22.16336,3807,1
JAHANGIRA SOFIA SUNNIA  DHAKIL MADRASHA,104181,Madrasha,CHITTAGONG,CHANDANAISH,KANCHAN NAGAR,92.06881,22.16808,3808,1
PASCHIM ALAHABAD AHMADIA SUNNIA FAZIL MADRASAH,104190,Madrasha,CHITTAGONG,CHANDANAISH,PASCHIM ELAHABAD,92.02822,22.21369,3809,1
HASANDANDI MOHAMMADIA MOTIOR RAHMAN SENIOR MADRASHA,104188,Madrasha,CHITTAGONG,CHANDANAISH,SATBARIA,92.02289,22.23633,3810,1
SATBARIA BARA AOWLIA HAMEDIA ALIM MADRASHA,104183,Madrasha,CHITTAGONG,CHANDANAISH,SATBARIA,92.01872,22.24575,3811,1
SATBARIA SAH AMANAT (R.) DAKHIL MADRASHA,104184,Madrasha,CHITTAGONG,CHANDANAISH,SATBARIA,92.04375,22.17189,3812,1
RAOZAN DARUL ISLAM FAZIL MADRASAH,104912,Madrasha,CHITTAGONG,RAOZAN,SULTANPUR (PART),91.88319,22.52722,3813,1
RAOZAN  MOHILA  MADRASHA,104927,Madrasha,CHITTAGONG,RAOZAN,PASCHIM RAOZAN (PART),91.7595,22.54008,3814,1
PANCHKHAIN  MUHI  ULUM  DAKHIL  MADRASHA,104926,Madrasha,CHITTAGONG,RAOZAN,PANCHKHAIN,91.91175,22.54069,3815,1
GOHIRA F. K JAMEUL ULUM MALTILATERAL KAMIL MADARASHA,104916,Madrasha,CHITTAGONG,RAOZAN,DAKSHIN SARTA,91.95828,22.43142,3816,1
ADHER MANIK ISLAMIA DAKHIL MADRASHA,104910,Madrasha,CHITTAGONG,RAOZAN,ANDHARMANIK,91.91908,22.45897,3817,1
EAST GOZRA MOHAMMEDIA SENIOR MADRASHA,104917,Madrasha,CHITTAGONG,RAOZAN,PURBA GUZARA,91.91783,22.49853,3818,1
ADHER  MANIK    HAFAJIA  MONIRUL  MUSTAFA  DAKHIL  MADRASHA,104918,Madrasha,CHITTAGONG,RAOZAN,UTTAR GUJARA,91.97858,22.4595,3819,1
GARJANIA RAHMANIA  FAZIL MADRASHA,104923,Madrasha,CHITTAGONG,RAOZAN,YACHHIN NAGAR,91.92067,22.46031,3820,1
UTTAR SARTA GAOSIA HAFIZI ALIM MADRASHA,104906,Madrasha,CHITTAGONG,RAOZAN,UTTAR SARTA,91.86153,22.53431,3821,1
DAMADAMA NURUL ULUM AHMEDIA AZIZIA DAKHIL MADRASHA,104908,Madrasha,CHITTAGONG,RAOZAN,UTTAR SARTA,91.84739,22.53397,3822,1
KADALPUR HAMIDIA FAZIL MADRASAH,104915,Madrasha,CHITTAGONG,RAOZAN,KADALPUR,91.88058,22.58636,3823,1
FATEH NAGAR WADUDIA  FAZIL MADRASAH,104919,Madrasha,CHITTAGONG,RAOZAN,FATENAGAR,91.88458,22.58492,3824,1
KHALILABAD  MONIRIA  ALAVIA  DAKHIL  MADRASHA,104907,Madrasha,CHITTAGONG,RAOZAN,KADALPUR KHANKNANABAD,91.97017,22.44047,3825,1
MOHAMAD PUR  MOHIUL  ULUM  DAKHIL MADRASHA,104921,Madrasha,CHITTAGONG,RAOZAN,PASCHIM RAOZAN(PART),91.97306,22.45981,3826,1
HAZRAT RUSTAM SHAH DAKHIL MADRASHA,104922,Madrasha,CHITTAGONG,RAOZAN,MAISKARAM,91.92019,22.51819,3827,1
MOHAMMADIA  SUNIA  DAKHIL MADRASHA,104911,Madrasha,CHITTAGONG,RAOZAN,KACHUKHAIN,91.94244,22.50839,3828,1
URKIRCHAR MOHAMMADIA GAUSIA SUNNIA SENIOR MADRASHA,104913,Madrasha,CHITTAGONG,RAOZAN,URKIRCHAR,91.92689,22.52028,3829,1
WEST GUZRA MONIRIA DARUSSANNAH ALIM MADRASAH,104924,Madrasha,CHITTAGONG,RAOZAN,PASCHIM GUZARA,91.88456,22.46317,3830,1
MOHAMMADIA ADARSHA DAKHIL MADRASHA,104925,Madrasha,CHITTAGONG,RAOZAN,PASCHIM GUZARA,91.89283,22.46831,3831,1
KAGATIA ESATUL ULUM KAMIL MADARSAH,104914,Madrasha,CHITTAGONG,RAOZAN,UTTAR GUZARA,91.88022,22.441,3832,1
UTTAR GUZRA BAITUL ULUM DAKHIL MADRASHA,104909,Madrasha,CHITTAGONG,RAOZAN,UTTAR GUZARA,91.89731,22.418,3833,1
AHMADEA ISLAMIA DAKHIL MADRASHA,104840,Madrasha,CHITTAGONG,RANGUNIA,RANGUNIA,91.89458,22.478,3834,1
BETAGI RAHMANIA JAMAUL ULUM DAKHIL MADRASHA,104832,Madrasha,CHITTAGONG,RANGUNIA,GUNGUNIA BETAGI,92.07125,22.47994,3835,1
MADRASHA A TAYAIA WADUDIA SUNNIA FAZIL,104837,Madrasha,CHITTAGONG,RANGUNIA,CHANDRAGHONA,92.061,22.47825,3836,1
SONARGAON DAKHIL MADRASHA,104841,Madrasha,CHITTAGONG,RANGUNIA,LALANAGAR,91.97411,22.42172,3837,1
RANGUNIA ALAMSHAPARA KAMIL MADRASHA,104831,Madrasha,CHITTAGONG,RANGUNIA,HOSNABAD(PART),92.13019,22.46914,3838,1
HAZRAT KHADIZA (RA) GIRLS MADRASHA,104842,Madrasha,CHITTAGONG,RANGUNIA,LALANAGAR,92.13044,22.46806,3839,1
RANIRHAT AL-AMIN HAMADIA FAZAL MADRASHA,104828,Madrasha,CHITTAGONG,RANGUNIA,MADHYA GHAGRA,92.06981,22.55206,3840,1
MARIAM NAGAR ISLAMIA ALIM MADRASAH,104836,Madrasha,CHITTAGONG,RANGUNIA,KATAKHALI,92.04178,22.57117,3841,1
RANGUNIA NURUL ULUM FAZIL MADRASAh,104829,Madrasha,CHITTAGONG,RANGUNIA,PURBA ICHAMATI,92.06292,22.46622,3842,1
UTTAR PADUA MADINATUL ULUM DAKHIL MADRASHA,104833,Madrasha,CHITTAGONG,RANGUNIA,PADUA,92.06542,22.46667,3843,1
JAMIA NAIMIA TAYBIA FAZIL MADRASHA,104834,Madrasha,CHITTAGONG,RANGUNIA,POMARA,92.08583,22.38881,3844,1
POMRA JAMEUL ULUM FAZIL MADRASAH,104830,Madrasha,CHITTAGONG,RANGUNIA,POMARA,92.05908,22.492,3845,1
HAZRAT ABDUL KADER JELANI (R.) DAKHIL MADRASAH,104838,Madrasha,CHITTAGONG,RANGUNIA,SARAPBHATA,91.99306,22.46158,3846,1
DHAKIN SHILAK TAYVIA NORIA SATTARIA DHAKIL MADRASHA,104839,Madrasha,CHITTAGONG,RANGUNIA,DARIKOP,92.05667,22.46472,3847,1
KATGHOR ISLAMIA FAZIL MADRASAH,104968,Madrasha,CHITTAGONG,SANDWIP,GACHHUA,91.48242,22.51969,3848,1
PURBA Sandwip SHAH ALAMIA ISLAMIA DAKHIL MADRASAH,104972,Madrasha,CHITTAGONG,SANDWIP,HARAMIA,91.45331,22.45908,3849,1
HAZI ABDUL MALEK ISLAMIA DAKHIL MADRASHA,104976,Madrasha,CHITTAGONG,SANDWIP,HARISHPUR (PART),91.47583,22.54042,3850,1
SEKANDER SAFIA ISLAMIA DAKHIL MADRASHA,104977,Madrasha,CHITTAGONG,SANDWIP,MAGDHARA,91.44411,22.52856,3851,1
SANDWIP KARAMOTIA FAZIL MADRASAH,104971,Madrasha,CHITTAGONG,SANDWIP,MAITBHANGA,91.42928,22.52797,3852,1
MUSAPUR ShaIKH MOHAMMAD ISLAMIA DAKHIL MADRASHA,104973,Madrasha,CHITTAGONG,SANDWIP,MUSAPUR,91.49425,22.43239,3853,1
BASHIRIA AHMADIA ALHAJ ABUBAKAR FAZIL MADRASHA,104969,Madrasha,CHITTAGONG,SANDWIP,RAHMATPUR,91.49317,22.43836,3854,1
SONTSHPUR ADARSHA DAKHIL MADRASAH,104975,Madrasha,CHITTAGONG,SANDWIP,SANTOSHPUR,91.46864,22.48433,3855,1
AL-AMIN BARIA FAZIL MADRASAH,104231,Madrasha,CHITTAGONG,CHANDGAON,UTTAR CHANDGAON CHOW. PARA,91.46972,22.47986,3856,1
NAZIRIA NAYMIA MAHMUDIA  ALIM  MADRASHA,104235,Madrasha,CHITTAGONG,CHANDGAON,CHAR RANGAMATIA,91.86653,22.39308,3857,1
AL-HUMAYRA (R.A.) MOHILA DAKHIL MADRASHA,104234,Madrasha,CHITTAGONG,CHANDGAON,UTTAR CHANDGAON CHOW. PARA,91.81192,22.31964,3858,1
SAFA MOTALEB AMIN ISLAM SUNNIA DAKHIL MADRASHA,104232,Madrasha,CHITTAGONG,CHANDGAON,CHAR MOHARA,91.81225,22.32667,3859,1
WOAICIAH DAKHIL SUNNAH DAKHIL MADRASHA,104230,Madrasha,CHITTAGONG,CHANDGAON,CHAR MOHARA,91.81222,22.34386,3860,1
MAZIDIA ISLAMIA ALIM MADRASAH,104229,Madrasha,CHITTAGONG,CHANDGAON,PASCHIM BAKALIA (PART),91.85378,22.37828,3861,1
WASIA AHMADIA SUNNA MADRASHA,104233,Madrasha,CHITTAGONG,CHANDGAON,PURBA SHOLA SHAHAR (PART 1 &,91.86986,22.36394,3862,1
BANSHKHALI HAMEDIA RAHMIMA ALIA MADRAHA,104086,Madrasha,CHITTAGONG,BANSHKHALI,CHECHURIA,91.89025,22.06064,3864,1
CHANBAL HAZRAT KHADIZATUL KOBRA (RA) MOHILA DAKHIL MADRASAH,131767,Madrasha,CHITTAGONG,BANSHKHALI,PASCHIM CHAMBAL,91.88958,22.08242,3865,1
SHAH AMANAT DHAKHIL MADRASHA,104100,Madrasha,CHITTAGONG,BANSHKHALI,PASCHIM CHAMBAL,91.88658,22.08172,3866,1
UPAKULIA SANUA K.H.D.MADRASHA,104099,Madrasha,CHITTAGONG,BANSHKHALI,KHUDUKKHALI,91.90322,22.08203,3867,1
PASCHIM BANSKHALI GONDAMARA RAHMANIA  FAZIL MADRASHA,104087,Madrasha,CHITTAGONG,BANSHKHALI,GANDAMARA,91.95947,21.96208,3868,1
JALDI HOSSAINIA FAZIL MADRASHA,104090,Madrasha,CHITTAGONG,BANSHKHALI,UTTAR NEAJOR PARA,91.9355,21.9615,3869,1
KOKDONDI ISLAMIA  DAKHIL MADRASAH,104084,Madrasha,CHITTAGONG,BANSHKHALI,JUNGLE KOKDANDI,91.95164,22.00136,3870,1
PALEGRAM HAKIM MIAH SHAH ALIM MADRASAH,104097,Madrasha,CHITTAGONG,BANSHKHALI,PALEGRAM,91.94978,22.0115,3871,1
AHMADIA DALAMPIR (R) SENIOR MADRASAH,104079,Madrasha,CHITTAGONG,BANSHKHALI,GUNAGARI,91.94647,22.01153,3872,1
BAGMARA OLI SHAH (RA) SUNNIA DAKHIL MADRASAH,104085,Madrasha,CHITTAGONG,BANSHKHALI,KATHARIA,91.92844,22.08089,3873,1
JATA NOORAIN FAZIL MADRASHA,104091,Madrasha,CHITTAGONG,BANSHKHALI,ROYCHHATA,91.93383,22.08719,3874,1
KADAM RASUL HAMEDIA DAKHIL MADRASHA,104092,Madrasha,CHITTAGONG,BANSHKHALI,KHAN KHANABAD,91.943,22.08294,3875,1
DAKKIN PUISARI MADINATUL ULOM MOHAMMADIA MADRASA,104096,Madrasha,CHITTAGONG,BANSHKHALI,PUICHHARI,91.90411,22.04564,3876,1
PUICHARI ISLAMIA FAZIL MADRASHA,104081,Madrasha,CHITTAGONG,BANSHKHALI,PUICHHARI,91.89161,22.11578,3877,1
CHANDPUR Q.H.R.D.U. ALIM MADRASAH,104093,Madrasha,CHITTAGONG,BANSHKHALI,CHANDPUR,91.95914,21.93339,3878,1
PUKURIA ANSARUL ULUM FAZIL MADRASHA,104080,Madrasha,CHITTAGONG,BANSHKHALI,PUKURIA,91.95422,21.89003,3879,1
RANGIA GHONA MONSURIA FAZIL MADRASHA,104083,Madrasha,CHITTAGONG,BANSHKHALI,RONGIAGHONA,91.96039,21.92608,3880,1
MINJIRITALA  ISLAMIA HAKIMIA DAKHIL MADRASAH,104094,Madrasha,CHITTAGONG,BANSHKHALI,MINJITOLA,91.90381,22.14781,3881,1
SHEKHER KHIL DARUSSALAM ADARSHA ALIM MADRASHA,104098,Madrasha,CHITTAGONG,BANSHKHALI,SEKHERKHIL,91.94494,22.16069,3882,1
SHEKHERKHIL ISLAMIA DAKHIL MADRASHA,104095,Madrasha,CHITTAGONG,BANSHKHALI,SEKHERKHIL,91.91519,22.10314,3883,1
WEST BARAGHONA RAHMANIA DAKHIL MADRASA,104089,Madrasha,CHITTAGONG,BANSHKHALI,PASCHIM BARAGHONA,91.92042,22.12464,3884,1
SUFIFATEH ALI WASY MOHILA DAKHIL MADRASHA,104587,Madrasha,CHITTAGONG,LOHAGARA,MALLIK CHHOANG,91.93536,21.98336,3885,2
AMIRABAD SUFIA ALIA MADRASAH,104570,Madrasha,CHITTAGONG,LOHAGARA,AMIRABAD,91.89511,21.96081,3886,2
SUKCHARI RAHMANIA ADORSAH DAKHIL MADRASHA,104568,Madrasha,CHITTAGONG,LOHAGARA,AMIRABAD,92.08364,22.02872,3887,1
ADHUNAGAR ISLAMIA FAZIL MADRASAH,104571,Madrasha,CHITTAGONG,LOHAGARA,HARINA,92.09169,22.0225,3888,1
ADHUNAGAR AKTHERIA DAKHIL MADRASHA,104578,Madrasha,CHITTAGONG,LOHAGARA,ADHUNAGAR,92.10764,22.019,3889,1
BARAHATIA MALPUKURIA SISKATUL ULUM MADRASHA,104567,Madrasha,CHITTAGONG,LOHAGARA,BARAHATIA,92.07639,21.99408,3890,1
BARAHATIA HAZRAT AYESHA SIDDIQAH (R)MAHILA MADRAS,104585,Madrasha,CHITTAGONG,LOHAGARA,BARAHATIA,92.05744,21.98619,3891,1
BOROHATIA ESHAATUL ULUM FAZIL MADRASAH,104573,Madrasha,CHITTAGONG,LOHAGARA,BARAHATIA,92.08503,21.99033,3892,1
NOARBILA KADARIA ADARSHA DAKHIL MADRASHA,104566,Madrasha,CHITTAGONG,LOHAGARA,NOABILA,92.05425,22.00867,3893,1
CHUNATI HAKIMIA KAMIL M A MADRASAH,104569,Madrasha,CHITTAGONG,LOHAGARA,CHUNATI,92.05447,22.01778,3894,1
FATIMA BATUL WOMEN ALIM MADRASHA,104583,Madrasha,CHITTAGONG,LOHAGARA,CHUNATI,92.06192,21.99567,3895,1
PASCHIM KALAUZAN KHATIBIAH DAKHIL MADRASHA,104582,Madrasha,CHITTAGONG,LOHAGARA,PASCHIM KALAUJAN,92.07339,21.96811,3896,1
KALAUZAN DARUSSUNNAH ALIM MADRASHA,104574,Madrasha,CHITTAGONG,LOHAGARA,PURBA KALAUJAN,92.0735,21.9695,3897,1
KHADIJATUL KOBRA MOHILA DAKHIL MADRASHA,104101,Madrasha,CHITTAGONG,LOHAGARA,PASCHIM KALAUJAN,92.07475,21.96861,3898,1
KALAUZAN SHAH RASHIDIA FAZIL MADRASAH,104581,Madrasha,CHITTAGONG,LOHAGARA,UTTAR KALAUJAN,92.07197,21.96961,3899,1
SOUTH SUKCHARI A.K.S.A.H.H.U. FAZIL MADRASHA,104579,Madrasha,CHITTAGONG,LOHAGARA,DAKSHIN SUKCHHARI,92.12228,21.98508,3900,1
LOHAGARA ISLAMIA FAZIL MADRASHA,104572,Madrasha,CHITTAGONG,LOHAGARA,LOHAGARA,92.16136,21.98708,3901,1
PADUA AYNUL ULOOM DARUSSUNNAH FAZIL MADRASHA,104575,Madrasha,CHITTAGONG,LOHAGARA,PADUA,92.10261,21.99089,3902,1
MISHKATUNNABI (SM) DAKHIL MADRASHA,104576,Madrasha,CHITTAGONG,LOHAGARA,PADUA,92.09656,22.00172,3903,1
PUTIBILA FAZIL FAMIDIA MADRASAH,104580,Madrasha,CHITTAGONG,LOHAGARA,DAKSHIN PUTIBILA,92.09486,22.00864,3904,1
GOURSTAN AKTERUL ULUM DAKHIL MADRASHA,104577,Madrasha,CHITTAGONG,LOHAGARA,GORASTHAN,92.11033,22.04839,3905,1
PATENGA ISLAMIA FAZIL MADRASAH,104255,Madrasha,CHITTAGONG,PATENGA,UTTARPATENGA(PART),92.11303,21.97508,3906,1
MAIZPARA GAUSIA SUNNIA DAKHIL MADRASAH,104258,Madrasha,CHITTAGONG,PATENGA,UTTARPATENGA(PART),91.79047,22.26261,3907,1
SOUTH PATENGA ZAINUL ULUM DAKHIL MADRASHA,104259,Madrasha,CHITTAGONG,PATENGA,DAKSHIN PATENGA,91.79167,22.26003,3908,1
MADRASAH-E TAYABIA ISLAMIA SUNNIA FAZIL MADRASAH,104256,Madrasha,CHITTAGONG,PATENGA,UTTAR PATENGA (PART),91.82294,22.35003,3909,1
BAITUSH SHARAF ADARSHA KAMIL MADRASAH,104395,Madrasha,CHITTAGONG,DOUBLE MOORING,UTTAR PATHANTULI (PART),91.82283,22.37528,3910,1
CHATTAGRAM NESARIA KAMIL MADRASAH,104681,Madrasha,CHITTAGONG,PAHARTALI,UTTAR KATTALI,91.8,22.31692,3911,1
HAZRAT SHAH SUFI MAIUDDIN SHAH (R) DAKHIL MADRASHA,104680,Madrasha,CHITTAGONG,PAHARTALI,UTTAR KATTALI,91.77775,22.36897,3912,1
KATTALI ZAKERUL ULUM MADRASAH,104683,Madrasha,CHITTAGONG,PAHARTALI,CORNEL HAT,91.76967,22.45008,3913,1
ZAMEA MOHAMMADIA ISLAMIA DAKHIL MADRASHA,104686,Madrasha,CHITTAGONG,PAHARTALI,DAKSHIN KAT TALI(PART),91.77956,22.36481,3914,1
SALIMA SIRAJ MOHILA FAZIL MADRASAH,104525,Madrasha,CHITTAGONG,KOTWALI,BAG MONIRAM,91.8195,22.33828,3915,1
DARUL ULUM KAMIL MADRASAH,104524,Madrasha,CHITTAGONG,KOTWALI,CHANDANPURA,91.83933,22.33297,3916,1
SOBHANIA ALIA (KAMIL)MADRASAH,104523,Madrasha,CHITTAGONG,KOTWALI,NASIRABAD EAST,91.83406,22.33153,3917,1
MADRASHA -E- ABU HORAYRA (R) DAKHIL MADRASHA,104536,Madrasha,CHITTAGONG,KHULSHI,TULATULI,91.84094,22.33222,3918,1
JAMEA AHMADIA SUNNIA MOHILA MADRASHA,104703,Madrasha,CHITTAGONG,PANCHLAISH,PASCHIM SHOLOSAHAR (PART-1A),91.83217,22.33681,3919,1
JAMEA AHMADIA SUNNIA ALIA KAMIL MADRASHA,104702,Madrasha,CHITTAGONG,PANCHLAISH,PASCHIM SHOLOSAHAR (PART-1A),91.81367,22.36653,3920,1
POLLYMARI HIGH SCHOOL,127324,School,CHITTAGONG,PAHARTALI,PASCHIM NASIRABAD (PART),89.318,25.79311,12302,4
BALUTILA MODEL HIGH SCHOOL,104344,School,CHITTAGONG,FATIKCHHARI,DANTMARA,91.13719,23.43822,12305,2
CHIKAN CHARA HIGH SCHOOL,104306,School,CHITTAGONG,FATIKCHHARI,JUNGLE DANTMARA,91.058,23.43233,12306,1
GAZARIA ZABUNNESSA PARA HIGH SCHOOL,104347,School,CHITTAGONG,FATIKCHHARI,JUNGLE DANTMARA,91.15425,23.39747,12307,1
BAGAN BAZAR HIGH SCHOOL,104342,School,CHITTAGONG,FATIKCHHARI,RAMGAR,91.71894,22.94825,12308,1
RASULPUR JUNIOR HIGH SCHOOL,104351,School,CHITTAGONG,FATIKCHHARI,LOT 98 ANDHARMANIK,91.79789,22.70531,12309,1
BAKHTAPUR DAIRABARI ML. HIGH SCHOOL,104329,School,CHITTAGONG,FATIKCHHARI,BAKTAPUR,91.63725,22.90306,12310,1
DR. MD. ENAMUL HOQUE ACADEMY,104337,School,CHITTAGONG,FATIKCHHARI,BAKTAPUR,91.68269,22.94639,12311,1
BAKHTAPUR JR; GIRLS HIGH SCHOOL,104348,School,CHITTAGONG,FATIKCHHARI,BAKTAPUR,91.68375,22.92022,12312,1
BHUJPUR ADARSHA HIGH SCHOOL,104309,School,CHITTAGONG,FATIKCHHARI,SINGHARIA,91.65633,22.95025,12313,1
BHUJPUR PUBLIC HIGH SCHOOL,131346,School,CHITTAGONG,FATIKCHHARI,PASCHIM BHUJPUR,91.68567,22.95681,12314,1
DANTMARA A.B.Z. SIKDER HIGH SCHOOL,104311,School,CHITTAGONG,FATIKCHHARI,UTTAR BARAMASIA,91.85736,22.60294,12315,1
HASNABAD MADINATUL ARAB HIGH SCHOOL,104338,School,CHITTAGONG,FATIKCHHARI,HASNABAD,91.86539,22.62292,12316,1
SHANTIR HAT HIGH SCHOOL,104343,School,CHITTAGONG,FATIKCHHARI,UTTAR BARAMASIA,91.86003,22.60808,12317,1
HEAKHOW BANANI HIGH SCHOOL,104340,School,CHITTAGONG,FATIKCHHARI,DANTMARA,91.792,22.68983,12318,2
DHARMAPUR MULT.HIGH SCHOOL,104330,School,CHITTAGONG,FATIKCHHARI,DHARMAPUR,91.70894,22.84772,12319,1
DHARMAPUR KAMALKRISNA GIRLS' HIGH SCHOOL,104334,School,CHITTAGONG,FATIKCHHARI,DHARMAPUR,91.67725,22.89844,12320,1
north dharmapur  high school,104313,School,CHITTAGONG,FATIKCHHARI,DHARMAPUR,91.6965,22.82939,12321,1
DHURUNG KHULSHI LION'S HIGH SCHOOL,104316,School,CHITTAGONG,FATIKCHHARI,UTTAR DHURUNG (PART),91.6985,22.86922,12322,1
BABUNAGAR HIGH SCHOOL,131348,School,CHITTAGONG,FATIKCHHARI,DAULATPUR,91.70858,22.84733,12323,1
NAZIRHAT GIRLS HIGH SCHOOL,104339,School,CHITTAGONG,FATIKCHHARI,PURBA FARHADABAD,91.87436,22.60358,12324,1
NAZIRHAT ADARSHA HIGH SCHOOL,104320,School,CHITTAGONG,FATIKCHHARI,DAULATPUR,91.86736,22.59492,12325,1
DOULATPUR A.B.C. HIGH SCHOOL,104314,School,CHITTAGONG,FATIKCHHARI,DAKSHIN DHURUNG,91.88025,22.62133,12326,1
SYED SYEDA MEMORIAL HIGH SCHOOL,104356,School,CHITTAGONG,FATIKCHHARI,DAULATPUR,91.87242,22.58658,12327,1
HARUL CHARI HIGH SCHOOL,104335,School,CHITTAGONG,FATIKCHHARI,HARWALCHHARI,91.796,22.63247,12328,1
LATIF RAHMAN (FREE)HIGH SCHOOL, FATEHPUR,104307,School,CHITTAGONG,FATIKCHHARI,FATEHPUR,91.79947,22.65475,12329,1
JAHANARA MAMTAJ GIRLS HIGH SCHOOL,104308,School,CHITTAGONG,FATIKCHHARI,FATEHPUR,91.79067,22.66175,12330,1
JAHANPUR AMJAD ALI ABDUL HADI INSTIUTION,104326,School,CHITTAGONG,FATIKCHHARI,JAHANPUR,91.79522,22.63281,12331,1
KANCHAN NAGAR MULTILATERAL HIGH SCHOOL,104332,School,CHITTAGONG,FATIKCHHARI,MADHYA KANCHAN NAGAR,91.74819,22.71583,12332,1
MAIZBHANDER AHMADIA HIGH SCHOOL,104322,School,CHITTAGONG,FATIKCHHARI,DAMDAMA,91.85683,22.58006,12333,1
GOPALGHATA HIGH SCHOOL,104355,School,CHITTAGONG,FATIKCHHARI,LELANG,91.86264,22.58728,12334,1
SHAHNAGOR M.L HIGH SCHOOL,104317,School,CHITTAGONG,FATIKCHHARI,LELANG,91.84964,22.57567,12335,1
MAIZBHANDER GIRLS HIGH SCHOOL,104315,School,CHITTAGONG,FATIKCHHARI,MAIJBHANDAR,91.8175,22.73275,12336,1
NANPUR GIRLS HIGH SCHOOL,104312,School,CHITTAGONG,FATIKCHHARI,NANUPUR,91.90481,22.62442,12337,1
NANUPUR ABU SOBAHAN HIGH SCHOOL,104327,School,CHITTAGONG,FATIKCHHARI,NANUPUR,91.83944,22.64475,12338,1
NARAYAN HAT HIGH SCHOOL,104328,School,CHITTAGONG,FATIKCHHARI,CHANDPUR,91.84011,22.67042,12339,1
NARAYAN HAT GIRLS HIGH SCHOOL,104305,School,CHITTAGONG,FATIKCHHARI,CHANDPUR,91.84481,22.62183,12340,1
MIRZAR HAT HIGH SCHOOL,104341,School,CHITTAGONG,FATIKCHHARI,IDILPUR,91.8445,22.62064,12341,1
COLLEGIATE HIGH SCHOOL,FATIKCHARI,104345,School,CHITTAGONG,FATIKCHHARI,JUJKHALA,91.84839,22.62233,12342,1
HAIDCHAKIA MULTILATERAL HIGH SCHOOL,104324,School,CHITTAGONG,FATIKCHHARI,HAIDCHAKSHIYA,91.71147,22.81092,12343,1
PAINDONG HIGH SCHOOL,104331,School,CHITTAGONG,FATIKCHHARI,HAIDCHAKSHIYA,91.71703,22.80867,12344,1
RANGAMATIA JUNIOR HIGH SCHOOL,104354,School,CHITTAGONG,FATIKCHHARI,DAKSHIN RANGAMATIA (PART),91.72172,22.81236,12345,1
FATICKCHARI CORONATION MODEL HIGH SCHOOL,104319,School,CHITTAGONG,FATIKCHHARI,UTTAR RANGAMATIA (PART),91.72186,22.81089,12346,1
AZIMNAGAR AHAMADIA RAHAMANIA  HIGH SCHOOL,104353,School,CHITTAGONG,FATIKCHHARI,AJIMNAGAR,91.78083,22.70683,12347,1
ROSANGIRI GIRLS HIGH SCHOOL,104321,School,CHITTAGONG,FATIKCHHARI,UTTAR RANGAMATIA (PART),91.77519,22.71319,12348,1
FATICKCHARI GIRLS PILOT HIGH SCHOOL,104318,School,CHITTAGONG,FATIKCHHARI,DAKSHIN RANGAMATIA (PART),91.80822,22.73242,12349,1
ROSHANGIRI HIGH SCHOOL,104323,School,CHITTAGONG,FATIKCHHARI,ROUSHANGIRI,91.77842,22.71264,12350,1
SUABIL  GIRL'S high SCHOOL,104352,School,CHITTAGONG,FATIKCHHARI,SUABIL,91.81472,22.68231,12351,1
SUABIL HIGH SCHOOL,104346,School,CHITTAGONG,FATIKCHHARI,SUABIL,91.79367,22.68772,12352,1
SAMITIRHAT HIGH SCHOOL,104333,School,CHITTAGONG,FATIKCHHARI,NISCHINTAPUR,91.82094,22.63211,12353,1
PURBA DHALAI KADIZA MALEK HIGH SCHOOL,131336,School,CHITTAGONG,FATIKCHHARI,PURBA DHALAI,91.81864,22.61175,12354,1
SOUTH NICHINTAPUR JUNIOR SCHOOL,104350,School,CHITTAGONG,FATIKCHHARI,NISCHINTAPUR,91.81397,22.61128,12355,1
AZIMPUR IDEL HIGH SCHOOL,104349,School,CHITTAGONG,FATIKCHHARI,CHHILANIA,91.77419,22.65786,12356,1
JANAKALLAYAN MODEL HIGH SCHOOL,104993,School,CHITTAGONG,SATKANIA,DAKSHIN DEMSA(PART),91.76819,22.64325,12357,1
SATKANIA GIRLS HIGH SCHOOL,104994,School,CHITTAGONG,SATKANIA,RUPKANIA (PART)DAKSHIN RUPKANI,91.83019,22.59317,12358,1
SATKANIA MODEL HIGH SCHOOL,104995,School,CHITTAGONG,SATKANIA,UTTAR RAMPUR(PART),91.76875,22.69753,12359,1
ICHAMATI YAKUB MORIUM HIGH SCHOOL,104990,School,CHITTAGONG,SATKANIA,UTTAR DHEMSA,91.778,22.70186,12360,1
SAMADAR PARA MULTI LATERAL HIGH SCHOOL,105007,School,CHITTAGONG,SATKANIA,SAMADAR PARA,92.03275,22.09353,12361,1
WEST DHEMSHA HIGH SCHOOL,105014,School,CHITTAGONG,SATKANIA,SITUR PARA,92.04964,22.07569,12362,1
SOUTH DHEMSHA CHOW MOHANI HIGH SCHOOL,105025,School,CHITTAGONG,SATKANIA,DAKSHIN DEMSA(PART),92.05361,22.08028,12363,1
AMILAISH ADARSHA UCCHA BIDDAYA LAYA,105012,School,CHITTAGONG,SATKANIA,AMILAIS,92.05406,22.06408,12364,1
AOCHIA GIRLS HIGH SCHOOL,105021,School,CHITTAGONG,SATKANIA,EOCHIA,92.0535,22.07494,12365,1
WEST GATIADENGA HIGH SCHOOL,105019,School,CHITTAGONG,SATKANIA,EOCHIA,92.03989,22.09853,12366,1
DEODIGHI K.M. HIGH SCHOOL,104985,School,CHITTAGONG,SATKANIA,EOCHIA,92.04519,22.08514,12367,1
SHER-E- BANGLA HIGH SCHOOL,104987,School,CHITTAGONG,SATKANIA,BAZALIA,92.01153,22.13928,12368,1
UNITED IDEAL INSTITUTE,105002,School,CHITTAGONG,SATKANIA,TULATALI,92.02894,22.07583,12369,1
DHEMSHA HIGH SCHOOL,104999,School,CHITTAGONG,SATKANIA,DAKSHIN DEMSA(PART),92.12822,22.12933,12370,1
BAJALIA HIGH SCHOOL,104997,School,CHITTAGONG,SATKANIA,DHARMAPUR,92.06542,22.05286,12371,1
NORTH SATKANIA ALI AHMED P. HORI HIGH SCHOOL,105008,School,CHITTAGONG,SATKANIA,KALIAIS,91.97122,22.14561,12372,1
AMILAISH KANCHANA BANGA CHANDRA GHOSE INSTITUTE,104996,School,CHITTAGONG,SATKANIA,KANCHANA,92.05214,22.10886,12373,1
SOUTH KANCHAN N A CHY HIGH SCHOOL,105011,School,CHITTAGONG,SATKANIA,KANCHANA,91.9565,22.15544,12374,1
KANCHANA GIRLS HIGH SCHOOL,104998,School,CHITTAGONG,SATKANIA,KANCHANA,92.10953,22.13703,12375,1
KEOCHIA HIGH SCHOOL,105013,School,CHITTAGONG,SATKANIA,KEOCHIA,92.07375,22.14464,12376,1
BAITUL IZZAT BORDER GUARD  PUBLIC SHOOL,105017,School,CHITTAGONG,SATKANIA,KEOCHIA,92.06819,22.14317,12377,1
SADAHA KEOCHIA HIGH SCHOOL,131467,School,CHITTAGONG,SATKANIA,NAYAPARA,92.007,22.12247,12378,1
JANAR KEOCHIA ADARSHA HIGH SCHOOL,105024,School,CHITTAGONG,SATKANIA,JANAR KEOCHIA,92.00653,22.12078,12379,1
CHARKHAGARIA KHADIM ALI CHOW HIGH SCHOOL,105005,School,CHITTAGONG,SATKANIA,CHAR KHAGARIA,92.014,22.10883,12380,1
KHAGARIA M.L. HIGH SCHOOL,105010,School,CHITTAGONG,SATKANIA,KHAGARIA,92.10281,22.11342,12381,1
MARFALA R.M.N HIGH SCHOOL,104989,School,CHITTAGONG,SATKANIA,MARFALA,92.07358,22.10958,12382,1
NALUA DIJENDRA LAL KARAN HIGH SCHOOL,104986,School,CHITTAGONG,SATKANIA,NALUA,92.03281,22.16283,12383,1
EAST GATIADENGA HIGH SCHOOL,105018,School,CHITTAGONG,SATKANIA,PURBA GATIADANGA,92.03586,22.16592,12384,1
GATIADENGA ALHAJ SHAFIA MAMTAJUL HOQUE HIGH SCHOOL,104983,School,CHITTAGONG,SATKANIA,NALUA,92.03478,22.16169,12385,1
PURANGAR SHAH SARFUDDIN HIGH SCHOOL,105000,School,CHITTAGONG,SATKANIA,PURANAGAR,92.02761,22.06875,12386,1
SADAHA KEFAYET ULLAH  KABIR AHMED HIGH SCHOOL,105015,School,CHITTAGONG,SATKANIA,SADAHA,92.05194,22.13242,12387,1
BARADONA HOQUE MEMORIAL HIGH SCHOOL,105004,School,CHITTAGONG,SATKANIA,BARADONA,92.03928,22.10864,12388,1
CHIBBARI MODEL HIGH SCHOOL,105003,School,CHITTAGONG,SATKANIA,SHIBBARI,92.03408,22.11053,12389,1
BARADONA SHAH MAJIDIA M.A.BAIRI  HIGH GIRLS SCHOOL,105020,School,CHITTAGONG,SATKANIA,BARADONA,92.11806,22.15789,12390,1
KARAIYA NAGAR ML. HIGH SCHOOL,105001,School,CHITTAGONG,SATKANIA,KARAIANAGAR,92.09872,22.08006,12391,1
GARANGIA HIGH SCHOOL,104988,School,CHITTAGONG,SATKANIA,GARANGIYA,92.06592,22.05361,12392,1
MIRZAKHIL HIGH SCHOOL,104992,School,CHITTAGONG,SATKANIA,SONAKANIA (PART),92.08917,22.05789,12393,1
GARANGIA SONAKANIA MODEL JUNIOR SCHOOL,104991,School,CHITTAGONG,SATKANIA,SONAKANIA (PART),92.06981,22.04683,12394,1
HASNE HENA  GIRLS HIGH SCHOOL,104223,School,CHITTAGONG,BAKALIA,PURBA BAKALIA(PART-1),92.05433,22.08681,12395,1
PURBA BAKALIA CITY CORPORATION HIGH SCHOOL,131385,School,CHITTAGONG,BAKALIA,PURBA BAKALIA(PART-1),91.59325,22.65706,12397,1
BAKALI GOVT.  HIGH SCHOOL,104209,School,CHITTAGONG,BAKALIA,PASCHIM BAKALIA(PART-1A),91.85344,22.33208,12398,1
CHITTAGINJ CANTT. HIGH SCHOOL,104409,School,CHITTAGONG,HATHAZARI,CHITTAGANG CNT.(HATHAZARI (P)),91.85047,22.34878,12400,1
JAHANGIR LINE HIGH SCHOOL,104406,School,CHITTAGONG,HATHAZARI,CHITTAGANG CNT.(HATHAZARI (P)),91.84786,22.33939,12401,2
FATEyabad CITY CORPORATION GIRLS HIGH SCHOOL,104046,School,CHITTAGONG,HATHAZARI,CHITTAGANG CNT.(HATHAZARI (P)),91.85819,22.35078,12402,1
FATEyABAD  SHoILABALA  CITY   COrration  GIRLS  HIGH SCHOOL,104040,School,CHITTAGONG,HATHAZARI,KHANDAKIYA,91.85322,22.35111,12403,1
B.C.S.I.R. LABORATORY HIGH SCHOOL,104435,School,CHITTAGONG,HATHAZARI,CHITTAGANG CNT.(HATHAZARI (P)),91.84486,22.35064,12404,1
SAFA MOTALEB COLLEGIAT JUNIOR HIGH SCHOOL,131361,School,CHITTAGONG,HATHAZARI,BURISH CHAR,91.81472,22.41008,12405,1
BURISCHAR HIGH SCHOOL,104431,School,CHITTAGONG,HATHAZARI,BURISH CHAR,91.81764,22.44994,12406,1
IDGAH MULTILATERAL HIGH SCHOOL,104418,School,CHITTAGONG,HATHAZARI,CHITTAGANG CNT.(HATHAZARI (P)),91.81872,22.41772,12407,1
KATAKHALI HIGH SCHOOL,104436,School,CHITTAGONG,HATHAZARI,CHIKANDANDI,91.81822,22.44722,12408,1
FATEHABAD MODEL MULTILATERAL SCHOOL,104407,School,CHITTAGONG,HATHAZARI,CHIKANDANDI,91.89206,22.41008,12409,1
KHANDAKIA CHIKANDANDI GIRLS HIGH SCHOOL,104427,School,CHITTAGONG,HATHAZARI,KHANDAKIYA,91.81808,22.44072,12410,1
FATEHABAD MOHAKALI GIRL'S HIGH SCHOOL,104414,School,CHITTAGONG,HATHAZARI,CHIKANDANDI,91.873,22.42328,12411,1
CHITTAGONG RESIDENTIAL HIGH SCHOOL,104440,School,CHITTAGONG,HATHAZARI,CHIKANDANDI,91.86717,22.41972,12412,1
SOUTH MADRSHA S S HIGH SCHOOL,104404,School,CHITTAGONG,HATHAZARI,DAKSHIN MADARSHA,91.83481,22.54364,12413,1
KATIRHAT  HIGH  SCHOOL,104413,School,CHITTAGONG,HATHAZARI,PASCHIM DHALAI,91.82931,22.44278,12414,1
KATIRHAT GIRLS HIGH SCHOOL,104419,School,CHITTAGONG,HATHAZARI,PASCHIM DHALAI,91.83158,22.42461,12415,1
ENAYETPUR HIGH SCHOOL,104428,School,CHITTAGONG,HATHAZARI,ENAYETPUR,91.86683,22.43583,12416,1
PACHIM DHALAI HIGH SCHOOL,104433,School,CHITTAGONG,HATHAZARI,PASCHIM DHALAI,91.79897,22.45047,12417,1
HILL-SIDE PUBLIC SCHOOL AND TECHNICAL COLLEGE,131375,School,CHITTAGONG,HATHAZARI,PASCHIM PATTY,91.85969,22.445,12418,1
FATEHPUR  MULTILATILATERAL HIGH SCHOOL,104400,School,CHITTAGONG,HATHAZARI,PASCHIM PATTY,91.79467,22.60192,12419,1
JOBRA  P. P. HIGH SCHOOL,104425,School,CHITTAGONG,HATHAZARI,JOBRA,91.79442,22.58075,12420,1
NAZIRHAT COLLEGIATE HIGH SCHOOL,104417,School,CHITTAGONG,HATHAZARI,PURBBA MANDAKINI,91.80561,22.59558,12421,1
FORHADABAD HIGH SCHOOL,104422,School,CHITTAGONG,HATHAZARI,PURBBA MANDAKINI,91.79467,22.55233,12422,1
GARDUARA MULTILATERAL HIGH SCHOOL,104420,School,CHITTAGONG,HATHAZARI,GARDUARA,91.81389,22.47375,12423,1
DR.SHAHIDULLAH ACADEMY,104421,School,CHITTAGONG,HATHAZARI,GARDUARA,91.80533,22.47986,12424,1
ALIPUR RAHAMANIA HIGH SCHOOL,104401,School,CHITTAGONG,HATHAZARI,ALIPUR,91.79253,22.47964,12425,1
HATHAZARI PARBOTI HIGH SCHOOL,104411,School,CHITTAGONG,HATHAZARI,FATIKA,91.79433,22.61567,12426,1
MIR NOWABUL HOQUE MEMORIAL HIGH SCHOOL,104399,School,CHITTAGONG,HATHAZARI,FATIKA,91.7885,22.63478,12427,1
WEST DEWAN NAGUR SANDWIP PAR JR.HIGH SCHOOL,104441,School,CHITTAGONG,HATHAZARI,DEWANNAGAR,91.86372,22.49547,12428,1
MEKHAL ADARSHA HIGH SCHOOL,104430,School,CHITTAGONG,HATHAZARI,RAHIMPUR,91.8025,22.50567,12429,1
NAGENDRA NATH MOHAJON JR. HIGH SCHOOL,104439,School,CHITTAGONG,HATHAZARI,MEKHAL,91.7125,22.50392,12430,1
zAFORABAD HIGH SCHOOL,133715,School,CHITTAGONG,HATHAZARI,MADHYA PAHARTALI,91.81175,22.5035,12431,1
SOUTH MEKHAL HIGH SCHOOL,104426,School,CHITTAGONG,HATHAZARI,MEKHAL,91.80675,22.51639,12432,1
FAZLUL QUADER CHOWDHURY ADARSHA HIGH SCHOOL,104437,School,CHITTAGONG,HATHAZARI,RAHIMPUR,91.80661,22.49731,12433,1
ALAMPUR IDEAL JUNIOR HIGH SCHOOL,104443,School,CHITTAGONG,HATHAZARI,MADHYA PAHARTALI,91.78439,22.49844,12434,1
CHARIA HIGH SCHOOL,104434,School,CHITTAGONG,HATHAZARI,CHARIA,91.80817,22.49672,12435,1
MIRZAPUR GIRL'S HIGH SCHOOL,104432,School,CHITTAGONG,HATHAZARI,MIRZAPUR,91.83886,22.51653,12436,1
MIRZAPUR HIGH SCHOOL,104416,School,CHITTAGONG,HATHAZARI,MIRZAPUR,91.82444,22.49314,12437,1
PASCHIM MIRZAPUR JUNOUR HIGH SCHOOL,104442,School,CHITTAGONG,HATHAZARI,MIRZAPUR,91.83231,22.51389,12438,1
NANGOLMORA  HIGH SCHOOL,104412,School,CHITTAGONG,HATHAZARI,NANGALMORA,91.84111,22.51039,12439,1
A.K. SIDDIQUEE ADERSHA GIRL'S HIGH SCHOOL,104429,School,CHITTAGONG,HATHAZARI,SHIKARPUR,91.79714,22.55819,12440,1
KS  NAZU  MEAH HIGH  SCHOOL,104410,School,CHITTAGONG,HATHAZARI,SHIKARPUR,91.79811,22.56089,12441,1
KUYAISH BURISCHAR SAMMILINI HIGH SCHOOL,104405,School,CHITTAGONG,HATHAZARI,KUAIS,91.7815,22.54803,12442,1
NORTH MADRASHA HIGH SCHOOL,104398,School,CHITTAGONG,HATHAZARI,UTTAR MADARSA,91.79761,22.55819,12443,1
MADARSHA M. HIGH SCHOOL,104415,School,CHITTAGONG,HATHAZARI,UTTAR MADARSA,91.83728,22.552,12444,1
MADARSHA ADRSHA JUNIOR HIGH SCHOOL,131321,School,CHITTAGONG,HATHAZARI,UTTAR MADARSA,91.86558,22.42731,12445,1
F. R. NURUL HOQUE HIGH SCHOOL,104123,School,CHITTAGONG,BOALKHALI,AHLA,91.86181,22.40903,12446,1
WEST GOMDANDI UNION HIGH SCHOOL,104476,School,CHITTAGONG,BOALKHALI,PASCHIM GOMDANDI,91.86144,22.40856,12447,1
UTTAR BHURSHI ANNADA JIBAN HIGH SCHOOL,104126,School,CHITTAGONG,BOALKHALI,KARALDANGA,91.80489,22.51606,12448,1
MUCKTAKESHI  GIRL`S HIGH SCHOOL,104118,School,CHITTAGONG,BOALKHALI,DHARALA,91.87119,22.47642,12449,1
KANUNGO PARA DR. BHIBUTI BHUSHAN HGH SCHOOL,104120,School,CHITTAGONG,BOALKHALI,DHARALA,91.85281,22.46497,12450,1
PURNA CHANDRA SEN SAROATALI HIGH SCHOOL,104114,School,CHITTAGONG,BOALKHALI,DHARALA,91.86281,22.47261,12451,1
CHARANDWIP U.C HIGH SCHOOL,104130,School,CHITTAGONG,BOALKHALI,CHARANDWIP,91.89611,22.37228,12452,1
CHARANDWIP DEWAN BIBI GIRLS HIGH SCHOOL,104117,School,CHITTAGONG,BOALKHALI,CHARANDWIP,91.97483,22.38511,12453,1
UTTAR GOMDANDI HIGH SCHOOL,104135,School,CHITTAGONG,BOALKHALI,PURBA GOMDANDI,91.99578,22.37569,12454,1
GOMDANDI PILOT HIGH SCHOOL,104112,School,CHITTAGONG,BOALKHALI,PURBA GOMDANDI,91.96872,22.37,12455,1
KADHURKHIL GIRLS HIGH SCHOOL,104115,School,CHITTAGONG,BOALKHALI,KANDHURKHIL,91.94511,22.42186,12456,1
EAST KADHUR KHILL HIGH SCHOOL,104110,School,CHITTAGONG,BOALKHALI,KANDHURKHIL,91.92267,22.41422,12457,1
KADHURKHIL UNITED MUSLIM HIGH SCHOOL,104111,School,CHITTAGONG,BOALKHALI,KANDHURKHIL,91.90908,22.39244,12458,1
WEST KADHURKHIL HIGH SCHOOL,104127,School,CHITTAGONG,BOALKHALI,KANDHURKHIL,91.93133,22.37058,12459,1
KADHURKHIL HIGH SCHOOL,104113,School,CHITTAGONG,BOALKHALI,POPADIA,91.91486,22.38092,12460,1
AKUBDANDI WARES  MOHSENA HIGH SCHOOL,104134,School,CHITTAGONG,BOALKHALI,AKUPDANDI,91.92297,22.40564,12461,1
KHARANDWIP MULTILATERAL HIGH SCHOOL,104128,School,CHITTAGONG,BOALKHALI,KHARANDWIP,91.91736,22.40536,12462,1
IQBAL PARK GIRLS HIGH SCHOOL,104124,School,CHITTAGONG,BOALKHALI,AKUPDANDI,91.91642,22.40633,12463,1
HOWLA HIGH SCHOOL,104125,School,CHITTAGONG,BOALKHALI,POPADIA,91.90519,22.40256,12464,1
BENGURA K B K R GIRLS HIGH SCHOOL,104122,School,CHITTAGONG,BOALKHALI,BENGURA,91.91686,22.37425,12466,1
SAROATALI IBRAHIM NUR MOHAMMAD HIGH SCHOOL,104131,School,CHITTAGONG,BOALKHALI,SAROATALI,91.93867,22.38844,12467,1
SRI AUROBINDO GIRL'S HIGH SCHOOL,104121,School,CHITTAGONG,BOALKHALI,SAKPURA,91.93914,22.37747,12468,1
HAJEE ASGAR ALI HIGH SCHOOL,104109,School,CHITTAGONG,BOALKHALI,SAKPURA,91.94525,22.39825,12469,1
SHAKPURA MODEL HIGH SCHOOL,104116,School,CHITTAGONG,BOALKHALI,HORERBAG,91.94378,22.35347,12470,1
JAISTHAPURA RAMANI MOHAN HIGH SCHOOL,104132,School,CHITTAGONG,BOALKHALI,JAISTHAPURA,91.90508,22.34775,12471,1
SREEPUR KHARANDWIP GIRL'S SCHOOL,104133,School,CHITTAGONG,BOALKHALI,KHARANDWIP,91.90319,22.34225,12472,1
JOARA BISWAMBER CHOWDHURY SECONDARY SCHOOL,104164,School,CHITTAGONG,CHANDANAISH,UTTAR JOARA (PART),91.91492,22.35653,12473,1
BARAIYAHAT GIRLS HIGH SCHOOL,104596,School,CHITTAGONG,MIRSHARAI,AZAMNAGAR,91.96217,22.40789,12474,1
DHOOMGHAT HAZI CHAND MIAH HIGH SCHOOL,104616,School,CHITTAGONG,MIRSHARAI,PASCHIM HINGULI,92.00725,22.20892,12475,1
MEHERUNNESA FAIZ HIGH SCHOOL,104619,School,CHITTAGONG,MIRSHARAI,MOBARAKGHONA,92.00953,22.22147,12476,1
MIRSARAI  GIRLS HIGH SCHOOL,104597,School,CHITTAGONG,MIRSHARAI,PURBA MAGHADIA (PART),91.53231,22.85561,12477,1
MOGHADIA ORPHANAGE NURUL ABSAR CHOW. HIGH SCHOOL,104622,School,CHITTAGONG,MIRSHARAI,MADHYA MAGHADIA,91.53867,22.89814,12478,1
MAZHARUL HOQUE CHOWDHURY HIGH SCHOOL,104631,School,CHITTAGONG,MIRSHARAI,PURBA MITHANALA,91.53642,22.89692,12479,1
GOLIKER HAT PANJUBER NESA GIRLA HIGH SCHOOL,104620,School,CHITTAGONG,MIRSHARAI,DHUM,91.52714,22.9085,12480,1
NAHERPUR HIGH SCHOOL,104627,School,CHITTAGONG,MIRSHARAI,NAHERPUR,91.50306,22.89336,12481,1
DURGAPUR NENDRA CHANDRA HIHG SCHOOL,104592,School,CHITTAGONG,MIRSHARAI,DURGAPUR,91.54383,22.74367,12482,1
JANARDANPUR HIGH SCHOOL,104591,School,CHITTAGONG,MIRSHARAI,JANARDDANPUR,91.56181,22.79519,12483,1
HAITH KANDI HIGH SCHOOL,104617,School,CHITTAGONG,MIRSHARAI,HAITKANDI,91.50972,22.87317,12484,1
MOHA LANKA HIGH SCHOOL,104623,School,CHITTAGONG,MIRSHARAI,KURUA,91.50853,22.87436,12485,1
ZHULON POL BENI MADHAB HIGH SCHOOL,104618,School,CHITTAGONG,MIRSHARAI,UTTAR ICHHAKHALI,91.51486,22.89486,12486,1
CHINKI ASTANA HIGH SCHOOL,104611,School,CHITTAGONG,MIRSHARAI,JAMALPUR,91.53311,22.81303,12487,1
SYADUL HOQUE HIGH SCHOOL,131377,School,CHITTAGONG,MIRSHARAI,UTTAR ICHHAKHALI,91.52897,22.83569,12488,1
ABURHAT HIGH SCHOOL,104607,School,CHITTAGONG,MIRSHARAI,UTTAR ICHHAKHALI,91.52422,22.83781,12489,1
KARER HAT K M HIGH SCHOOL,104604,School,CHITTAGONG,MIRSHARAI,CHHATTARUA,91.60225,22.68039,12490,1
JOYPUR PURBA JOAR A NESSA  O HOQUE HIGH SCHOOL,104624,School,CHITTAGONG,MIRSHARAI,GERAMARA,91.49339,22.81597,12491,1
KAMAR ALI UNION HIGH SCHOOL,104609,School,CHITTAGONG,MIRSHARAI,KURUA,91.53153,22.88989,12492,1
OLI NAGOR LAILA BEGUM HIGH SCHOOL,104615,School,CHITTAGONG,MIRSHARAI,PASCHIM ALINAGAR,91.48942,22.83322,12493,1
BAMON SUNDOR FAKIR AHMED HIGH SCHOOL,104614,School,CHITTAGONG,MIRSHARAI,KATACHHARA,91.50122,22.84056,12494,1
MOSJIDIA BAJLUS SOBHAN CHOWDHURY  HIGH SCHOOL,104633,School,CHITTAGONG,MIRSHARAI,PURBA MAYANI(PART),91.55461,22.94567,12495,1
ABUL KASEM GIRLS HIGH SCHOOL,104612,School,CHITTAGONG,MIRSHARAI,PURBA KHAIYACHHARA,91.58547,22.68592,12496,1
KHAIYA CHARA HIGH SCHOOL,104601,School,CHITTAGONG,MIRSHARAI,MADHYA MAGHADIA (PART),91.56619,22.94928,12497,1
ABUTORAB HIGH SCHOOL,104600,School,CHITTAGONG,MIRSHARAI,PASCHIM MAYANI,91.55269,22.92542,12498,1
WEST MAYANI ADARSHA HIGH SCHOOL,104595,School,CHITTAGONG,MIRSHARAI,PASCHIM MAYANI,91.49692,22.89044,12499,1
SAFIUL ALAM ADARSHA HIGH SCHOOL,104629,School,CHITTAGONG,MIRSHARAI,PASCHIM MAYANI,91.51353,22.80008,12500,1
BISHWA DARBaR SECONDARY SCHOOL,104593,School,CHITTAGONG,MIRSHARAI,MOTBARIA,91.58978,22.73783,12501,1
MITHACHARA HIGH SCHOOL,104606,School,CHITTAGONG,MIRSHARAI,MOTBARIA,91.58214,22.75983,12502,1
MITHANALA RAMDAYAL HIGH SCHOOL,104605,School,CHITTAGONG,MIRSHARAI,PURBA MITHANALA,91.55033,22.72953,12503,1
SUFIA SECONDARY SCHOOL,104632,School,CHITTAGONG,MIRSHARAI,MITHANALA RAJAPUR,91.55006,22.79631,12504,1
MOLIAISH HIHG SCHOOL,104608,School,CHITTAGONG,MIRSHARAI,PASCHIM MALIAIS,91.57064,22.77789,12505,1
MIRSARAI PILOT HIGH SCHOOL,104598,School,CHITTAGONG,MIRSHARAI,RAGHABPUR,91.53381,22.79106,12506,1
JATRA MOHAN MODEL KINDER GARTER AND HIGH SCHOOL,131260,School,CHITTAGONG,MIRSHARAI,BANSHKHALI,91.52925,22.76922,12507,1
OSMANPUR MULTILETERAL HIGH SCHOOL,104621,School,CHITTAGONG,MIRSHARAI,OSMANPUR,91.51528,22.78011,12508,1
SHAHER KHALI HIGH SCHOOL,104626,School,CHITTAGONG,MIRSHARAI,SAHERKHALI,91.50247,22.79553,12509,1
SARKARHAT N.R.HIGH SCHOOL,104602,School,CHITTAGONG,MIRSHARAI,MAIJGAON,91.55694,22.74681,12510,1
JAFRABAD  HIGH SCHOOL,104613,School,CHITTAGONG,MIRSHARAI,BARA KAMALDAHA,91.49189,22.86106,12511,1
NIZAMPUR MUSLIM HIGH SCHOOL,104603,School,CHITTAGONG,MIRSHARAI,WAHEDPUR,91.56542,22.7135,12512,1
ZORARGANJ GIRLS HIGH SCHOOL,104594,School,CHITTAGONG,MIRSHARAI,SONAPAHAR,91.53644,22.72811,12513,1
ZORWARGONJ MODEL HIGH SCHOOL,104599,School,CHITTAGONG,MIRSHARAI,SONAPAHAR,91.56292,22.71283,12514,1
JORARGANJ BOUDDHA HIGH SCHOOL,104630,School,CHITTAGONG,MIRSHARAI,JAMALPUR(PART),91.60244,22.72075,12515,1
SHEIKHER HAT HIGH SCHOOl,105084,School,CHITTAGONG,SITAKUNDA,SAIDPUR,91.60069,22.72744,12516,1
MOHANAGAR MIR SIRAJUL ISLAM HIGH SCHOOL,105088,School,CHITTAGONG,SITAKUNDA,BAGA CHATAR,91.60106,22.72744,12517,1
JAFAR NAGAR APARNA CHARAN HIGH SCHOOL,105080,School,CHITTAGONG,SITAKUNDA,JAFARNAGAR,91.53053,22.85842,12518,1
FOUZDARHAT PUBLIC SCHOOL & COLLEGE,133063,School,CHITTAGONG,SITAKUNDA,BHATIARI,91.53131,22.85978,12519,1
SONAICHARY  JR.   SCHOOL,105065,School,CHITTAGONG,SITAKUNDA,MADHYA SONAICHHARI,91.52894,22.8595,12520,1
SABUJ SHIKSHAYATAN HIGH SCHOOL.,105070,School,CHITTAGONG,SITAKUNDA,DAKSHIN SONAICHHARI,91.53117,22.85519,12521,1
SHITALPUR ML. HIGH SCHOOL,105081,School,CHITTAGONG,SITAKUNDA,SITALPUR,91.53194,22.85778,12522,1
M.A. KASHEM RAZA  HIGH SCHOOL,105094,School,CHITTAGONG,SITAKUNDA,SITALPUR,91.63336,22.645,12523,1
HAZRAT KHAWJA KALU SAHA (R) GIRLS JR HIGH SCHOOL,105077,School,CHITTAGONG,SITAKUNDA,DASKHIN SALIMPUR,91.72117,22.47894,12524,1
LATIFPUR ALHAJ ABDUL JALIL HIGH SCHOOL,105076,School,CHITTAGONG,SITAKUNDA,DASKHIN SALIMPUR,91.72503,22.47503,12525,1
BHATER KHILL HIGH SCHOOL,105063,School,CHITTAGONG,SITAKUNDA,BHATER KHIL,91.72631,22.46592,12526,1
CAPTAIN SHAMSUL HUDA HIGH SCHOOL,105083,School,CHITTAGONG,SITAKUNDA,MURADPUR,91.72575,22.467,12527,1
HAMID ULLAH HAT HIGH SCHOOL,105085,School,CHITTAGONG,SITAKUNDA,BHATER KHIL,91.75853,22.37272,12528,1
LATIFA SIDDIKI GIRLS HIGH SCHOOL,105069,School,CHITTAGONG,SITAKUNDA,MACHIGIDDA,91.63856,22.61056,12529,1
KUMIRA (RESIDENTIAL) HIGH SCHOOL,105062,School,CHITTAGONG,SITAKUNDA,BARA KUMIRA,91.65489,22.60225,12530,1
MASAJIDDA HIGH SCHOOL,105072,School,CHITTAGONG,SITAKUNDA,MACHIGIDDA,91.63381,22.62436,12531,1
ROSE GARDEN ACADEMY,105073,School,CHITTAGONG,SITAKUNDA,KUMRA,91.71564,22.5005,12532,1
BHATIYARI HAJEE T.A.C. HIGH SCHOOL,105064,School,CHITTAGONG,SITAKUNDA,BHATIARI,91.71331,22.51028,12533,1
BANGLADESH MILITARY ACADEMY HIGH SCHOOL,105075,School,CHITTAGONG,SITAKUNDA,BHATIARI CANTONMENT AREA,91.70369,22.52167,12534,1
MADAM BIBIRHAT SHAH JAHAN HIGH SCHOOL,105079,School,CHITTAGONG,SITAKUNDA,KHADEM PARA,91.75397,22.41436,12535,1
BARA DAROGA HAT A. R MEMOREAL HIGH SCHOOL,105066,School,CHITTAGONG,SITAKUNDA,UTTAR TERIAIL,91.73222,22.44758,12536,1
TERIAIL M/L HIGH SCHOOL,105082,School,CHITTAGONG,SITAKUNDA,UTTAR TERIAIL,91.71186,22.50553,12537,1
C.C.C. HIGH SCHOOL,105071,School,CHITTAGONG,SITAKUNDA,KATGHAR,91.74658,22.42286,12538,1
MAHMUDABAD HIGH SCHOOL,105092,School,CHITTAGONG,SITAKUNDA,KATGHAR,91.7525,22.41686,12539,1
BARABKUND HIGH SCHOOL,105067,School,CHITTAGONG,SITAKUNDA,MADARITOLA,91.739,22.43756,12540,1
BANSHBARIA HIGH SCHOOL,105086,School,CHITTAGONG,SITAKUNDA,BANSHBARIA,91.62861,22.67017,12541,1
SITAKUND GOVT. MODEL HIGH SCHOOL,105068,School,CHITTAGONG,SITAKUNDA,DAKSHIN MOHADEBPUR,91.68547,22.58288,12542,1
KATHAKALI HIGH SCHOOL,105090,School,CHITTAGONG,SITAKUNDA,DAKSHIN MOHADEBPUR,91.68197,22.57683,12543,1
SITAKUND PUBLIC SCHOOL AND COLLEGE,131308,School,CHITTAGONG,SITAKUNDA,MADHYA MOHADEBPUR (PART),91.69203,22.5485,12544,1
SADEK MOSTAN(R.) HIGH SCHOOL,105093,School,CHITTAGONG,SITAKUNDA,DAKSHIN MOHADEBPUR,91.66025,22.61867,12545,1
PANTICHILA HIGH SCHOOL,105089,School,CHITTAGONG,SITAKUNDA,MADHYA YAKUBNAGAR (PART),91.65836,22.61897,12546,1
KHALILUR RAHMAN GIRLS HIGH SCHOOL,104716,School,CHITTAGONG,PATIYA,SUCHAKRADANDI (PART),91.66586,22.62056,12547,1
PATIYA MODEL HIGH SCHOOL,104715,School,CHITTAGONG,PATIYA,PATIYA PASHIM (PART),91.65806,22.68444,12548,1
ABDUS SOBHAN RAHAT ALI HIGH SCHOOL,104718,School,CHITTAGONG,PATIYA,PATIYA PURBA (PART),91.66714,22.60461,12549,1
BAHULY HIGH SCHOOL,104750,School,CHITTAGONG,PATIYA,BAHULI,91.64678,22.63883,12550,1
SHAH AMIR HIGH SCHOOL,104717,School,CHITTAGONG,PATIYA,GOBINDARKHIL UTTOR,91.97758,22.30047,12551,1
ASHIYA HIGH SCHOOL,104714,School,CHITTAGONG,PATIYA,ASIA,91.98283,22.29472,12552,1
BATHUA HIGH SCHOOL,104734,School,CHITTAGONG,PATIYA,BATHUA,91.99128,22.28911,12553,1
KARTALA BEKHAIN MAHABODHI HIGH SCHOOL,104724,School,CHITTAGONG,PATIYA,KARTTALA,91.98611,22.28894,12554,1
BARAIKARA HIGH SCHOOL,104743,School,CHITTAGONG,PATIYA,BARAIKARA,91.98481,22.29875,12555,1
MIRIAM ASHRAM HIGH SCHOOL,104471,School,CHITTAGONG,PATIYA,DAULATPUR,91.98164,22.30056,12556,1
DAULATPUR MULTILATERAL HIGH SCHOOL,131888,School,CHITTAGONG,PATIYA,DAULATPUR,91.95119,22.25181,12557,1
JULDHA SHHA AMIR HIGH SCHOOL,131310,School,CHITTAGONG,PATIYA,SHAH MIRPUR,91.94167,22.28006,12558,1
NALINI KANTA MEMORIAL INSTITUTE,104727,School,CHITTAGONG,PATIYA,BHATIKHAIN,91.91814,22.28656,12559,1
KARAL GIRLS HIGH SCHOOL,104748,School,CHITTAGONG,PATIYA,KARAL,91.93972,22.28967,12560,1
CHANHARA SHORASHI BALA HIGH SCHOOL,104736,School,CHITTAGONG,PATIYA,CHANHARA,91.93822,22.28333,12561,1
DHAURDENGA SARDA SHARAN HIGH SCHOOL,104740,School,CHITTAGONG,PATIYA,DHAURDENGA,91.85136,22.26947,12562,1
CHARLAKSHYA UNION HIGH SCHOOL,104477,School,CHITTAGONG,PATIYA,CHAR LAKSHYA,91.86983,22.26536,12563,1
ACHIYA MOTALEB REZIA NASRIN HIGH SCHOOL,131472,School,CHITTAGONG,PATIYA,KHOAJNAGAR,91.97239,22.27444,12564,1
MUKUT NAIT HIGH SCHOOL,104737,School,CHITTAGONG,PATIYA,MUKUTNAIT,91.96931,22.28408,12565,1
GaiRALA K.P HIGH SCHOOL,104725,School,CHITTAGONG,PATIYA,GAIRALA,91.96694,22.26153,12566,1
HABILA SHADWIP MULTILATERAL HIGH SCHOOL,104723,School,CHITTAGONG,PATIYA,HABILAS DWIP,91.96008,22.26456,12567,1
CHARKANAI MULTILATERAL HIGH SCHOOL,104730,School,CHITTAGONG,PATIYA,PANCHURIA,91.83375,22.30419,12568,1
HABILASH DWIP GIRLS HIGH SCHOOL,104731,School,CHITTAGONG,PATIYA,HABILAS DWIP,91.83725,22.30436,12569,1
PANCHORIA HALIMA ROHOMAN JR SCHOOL,104751,School,CHITTAGONG,PATIYA,PANCHURIA,91.94514,22.33256,12570,1
HAIDGAON HIGH SCHOOL,104739,School,CHITTAGONG,PATIYA,HAIDGAON,91.97183,22.34219,12571,1
JANGAL KHAIN HIhttp://180.211.136.15:8080/BANBEIS/teacherEmployeeInfoEntryForm2SchSixth.do?eiin=104728&&year=2013GH SCHOOL,104728,School,CHITTAGONG,PATIYA,JUNGLEKHAIN,91.9335,22.33075,12572,1
YAKUBDANDI HULAIN PAIROLE HIGH SCHOOL,104712,School,CHITTAGONG,PATIYA,PARALA,91.91261,22.32689,12573,1
AZIMPUR HIGH SCHOOL,104752,School,CHITTAGONG,PATIYA,KHARANA,91.91711,22.326,12574,1
DANGAR CHAR  RAHAMANIA  HIGH SCHOOL,104478,School,CHITTAGONG,PATIYA,DANGARCHAR,91.92214,22.32556,12575,1
CHAKRASHALA KRISHI HIGH SCHOOL,104726,School,CHITTAGONG,PATIYA,PARIGRAM,92.00381,22.30131,12576,1
KASHIAISH HIGH SCHOOL,104732,School,CHITTAGONG,PATIYA,KASIAIS,91.94922,22.29114,12577,1
PINGALA BUDPARA MAFIZUR RAHAMAN GIRLS HIGH SCHOOL,104744,School,CHITTAGONG,PATIYA,PINGALA,91.94692,22.31011,12578,1
KELISAHAR HIGH SCHOOL,104729,School,CHITTAGONG,PATIYA,KELISHAHAR,91.9275,22.315,12579,1
MUZAFARABAD N.J. HIGH SCHOOL,104722,School,CHITTAGONG,PATIYA,MUZAFARABAD,92.0035,22.26067,12580,1
RATANPUR HIGH SCHOOL,104741,School,CHITTAGONG,PATIYA,DAKSHIN SAMURA,91.81356,22.28478,12581,1
MUZAFFARABAD  GIRLS HIGH SCHOOL,104738,School,CHITTAGONG,PATIYA,SOBHANDANDI,92.00369,22.27775,12582,1
LAKHERA HIGH SCHOOL,104475,School,CHITTAGONG,PATIYA,LAKHERA,91.99106,22.32233,12583,1
P D B HIGH SCHOOL,104721,School,CHITTAGONG,PATIYA,DWIP KALAMORAL,92.01411,22.25119,12584,1
CHITTAGONG IDEAL HIGH SCHOOL,104749,School,CHITTAGONG,PATIYA,HARINKHAIN,92.01431,22.27344,12585,1
KUSUM PURA HIGH SCHOOL,104746,School,CHITTAGONG,PATIYA,KUSUMPURA,91.99958,22.25186,12586,1
A.J. CHOWDHURY BAHUMUKHY HIGH SCHOOL,104473,School,CHITTAGONG,PATIYA,SIKALBAHA,91.88633,22.33292,12587,1
KLAR POLE HAJEE  M.OMRA MIA CHOW. HIGH SCHOOL,104472,School,CHITTAGONG,PATIYA,SIKALBAHA,91.89978,22.33128,12588,1
ARFA-KARIM HIGH SCHOOL,104713,School,CHITTAGONG,PATIYA,RASIDABAD,91.89208,22.30181,12589,1
JOARA KAHAN KHANA BAD NUTAN CHANDERA HIGH SCHOOL,104742,School,CHITTAGONG,PATIYA,JOARA KHANKHANABAD,91.91672,22.25603,12590,1
SOUTH BHURSHI HIGH SCHOOL,104733,School,CHITTAGONG,PATIYA,DAKSHIN BHURSHI,91.87039,22.31064,12591,1
S.A. NOOR HIGH SCHOOL,104735,School,CHITTAGONG,PATIYA,KAIGRAM,91.86661,22.29728,12592,1
MALIARA MAHIRA MAHIRAHIKHAINE HIGH SCHOOL,104747,School,CHITTAGONG,PATIYA,MAHIRA,92.00311,22.23797,12593,1
ZIRI KHALIL MIR ADARSHA HIGH SCHOOL,104745,School,CHITTAGONG,PATIYA,JIRI,92.00244,22.23864,12594,1
FATEMA JINNAH ML. GIRLS HIGH  SCHOOL,104169,School,CHITTAGONG,CHANDANAISH,HARALA,91.88067,22.285,12595,1
KAShEM MAHBUB HIGH SCHOOL,104178,School,CHITTAGONG,CHANDANAISH,HARALA,91.89769,22.26669,12596,1
GASBARIA NITTYANANDA GOURACHANDRA SECONDARY SCHOOL,104167,School,CHITTAGONG,CHANDANAISH,HASHIMPUR,91.88053,22.27819,12597,1
BAILTALI MULTILA TERAL HIGH SCHOOL,104163,School,CHITTAGONG,CHANDANAISH,BAILTALI,91.90386,22.29236,12598,1
JAFARABAD HIGH SCHOOL,104159,School,CHITTAGONG,CHANDANAISH,JAFARABAD,91.90886,22.28931,12600,1
BARKAL S.Z. HIGH SCHOOL,104174,School,CHITTAGONG,CHANDANAISH,BARKAL,92.01467,22.21122,12601,1
BORKAL ABDUL HAI ANOWARA BEGUM GIRLS high SCHOOl,104180,School,CHITTAGONG,CHANDANAISH,BARKAL,92.01258,22.20689,12602,1
CHAMUDARIA UNITED INSTITUTE ML HIGH SCHOOL,104175,School,CHITTAGONG,CHANDANAISH,BARKAL,92.01158,22.2075,12603,1
KESHUYA HIGH SCHOOL,104156,School,CHITTAGONG,CHANDANAISH,UTTAR KESUA,92.01706,22.15867,12604,1
BARAMA TRAHI MENAKA HIGH SCHOOL\,104171,School,CHITTAGONG,CHANDANAISH,MAIGATA,91.96561,22.19192,12605,1
DHOPACHARI SHIL GHATA HIGH SCHOOL,131388,School,CHITTAGONG,CHANDANAISH,PASCHIM DHOPACHHARI,91.96492,22.19453,12606,1
DIAKUL SANOWARA ADARSHA  highSCHOOL,104160,School,CHITTAGONG,CHANDANAISH,DAIKUL,91.98467,22.21744,12607,1
JAMIJURI  JUNIOR  BOYS  SCHOOL,131319,School,CHITTAGONG,CHANDANAISH,JAMIRJURI,91.96839,22.20831,12608,1
DOHAZARI JAMIJURI A.RAHMAN HIGH SCHOOL,104168,School,CHITTAGONG,CHANDANAISH,DOHAZARI,91.94942,22.18819,12609,1
DOHAZARI JAMIJURI GIRLS HIGH SCHOOL .,104157,School,CHITTAGONG,CHANDANAISH,JAMIRJURI,91.98314,22.17903,12610,1
GASBARIA MOMTAJ BEGUM GIRLS   HIGH SCHOOL,104179,School,CHITTAGONG,CHANDANAISH,HASHIMPUR,92.11597,22.14439,12611,1
FATENAGAR S.N.GIRLS HIGH SCHOOL,104166,School,CHITTAGONG,CHANDANAISH,FATENAGAR,92.05933,22.16083,12612,1
KANCHANABAD ML HIGH SCHOOL,104170,School,CHITTAGONG,CHANDANAISH,KANCHAN NAGAR,92.06311,22.17658,12613,1
HASONDONDI ML. HIGH SCHOOL,104162,School,CHITTAGONG,CHANDANAISH,HACHANDANDI,92.04656,22.18903,12614,1
SATBARIA ML HIGH SCHOOL,104173,School,CHITTAGONG,CHANDANAISH,SATBARIA,92.008,22.23008,12615,1
PURBA SATBARIA MULTILATARAL HIGH SCHOOL,104158,School,CHITTAGONG,CHANDANAISH,SATBARIA,92.02228,22.2405,12616,1
KHAN DIGHI ML T HIGH SCHOOL,104161,School,CHITTAGONG,CHANDANAISH,SATBARIA,92.01414,22.24058,12617,1
GOHIRA A. J. Y. M. S. MULTILATERAL INSTITUTION,104860,School,CHITTAGONG,RAOZAN,GOHIRA (PART),92.03122,22.18108,12618,1
KUNDESWARI BaLIKA VIDYAMANDIR,104870,School,CHITTAGONG,RAOZAN,KOTALIGHONA,92.04253,22.19136,12619,1
WEST GOHIRA YOUNUS SUFIA CHOWDHURY PUBLIC HIGH SCHOOL,104877,School,CHITTAGONG,RAOZAN,GOHIRA (PART),92.03194,22.18281,12620,1
SULTANPUR HIGH SCHOOL,104856,School,CHITTAGONG,RAOZAN,SULTANPUR (PART),91.86886,22.52139,12621,1
RAOZAN SALAMATULLAH HIGH SCHOOL,104879,School,CHITTAGONG,RAOZAN,SULTANPUR (PART),92.06186,22.44589,12622,1
NANDIPARA S.M.PILOT GIRLS HIGH SCHOOL,104862,School,CHITTAGONG,RAOZAN,SULTANPUR (PART),91.88361,22.52656,12623,1
SAJINA CHOWDHURY HIGH SCHOOL,131276,School,CHITTAGONG,RAOZAN,SULTANPUR (PART),91.85642,22.51733,12624,1
RAOZAN R.R.A.C MODEL HIGH SCHOOL,131309,School,CHITTAGONG,RAOZAN,SHAHNAGAR,91.88386,22.52614,12625,1
RAOZAN ARYAMITREYA INSTITUTION,104863,School,CHITTAGONG,RAOZAN,PASCHIM RAOZAN(PART),91.89761,22.531,12626,1
GASCHI HIGH SCHOOL,104864,School,CHITTAGONG,RAOZAN,GASCHI,91.90047,22.54103,12627,1
QUEPARA GIRLS HIGH SCHOOL,104871,School,CHITTAGONG,RAOZAN,BAGOAN,91.90647,22.52006,12628,1
PANCH KHAIN DARGHA DOCTOR MOHAMMED MEYA CHY (JUNIR) HIGH SCHOOL,131367,School,CHITTAGONG,RAOZAN,PANCHKHAIN,91.91194,22.53419,12629,1
PANCHKHAIN  BAGOAN SAMMILANI HIGH SCHOOL,104896,School,CHITTAGONG,RAOZAN,PANCHKHAIN,91.91225,22.53636,12630,1
QUEPARA J. C. SEN A & I INSTITUTION,104861,School,CHITTAGONG,RAOZAN,BAGOAN,91.92981,22.51431,12631,1
PASCHIM BINAJURI HIGH SCHOOL,104900,School,CHITTAGONG,RAOZAN,BINAJURI,91.95958,22.4325,12632,1
LELANGRA PUBLIC HIGH SCHOOL,131296,School,CHITTAGONG,RAOZAN,LALANGARA,91.93203,22.42986,12633,1
CHICKDAIR HIGH SCHOOL,104891,School,CHITTAGONG,RAOZAN,CHIKDAIR,91.94039,22.43283,12634,1
CHICKDAIR SHAHADAT FAZL JUBA HIGH SCHOOL,104894,School,CHITTAGONG,RAOZAN,CHIKDAIR,91.93181,22.42544,12635,1
DABUA TARA CHARAN SHYAMA CHARAN HIGH SCHOOL,104869,School,CHITTAGONG,RAOZAN,DABUA,91.95897,22.42397,12636,1
DABUA  HIGH SCHOOL,104885,School,CHITTAGONG,RAOZAN,DABUA,91.893,22.49844,12637,1
MADHYAM ADHAR MANIK HIGH SCHOOL,104857,School,CHITTAGONG,RAOZAN,ANDHARMANIK,91.88175,22.50797,12638,1
WEST DABUA GANIPARA JUNIOR HIGH SCHOOL,131372,School,CHITTAGONG,RAOZAN,DABUA,91.90889,22.51258,12639,1
ADHAR MANIK HIGH SCHOOL,104872,School,CHITTAGONG,RAOZAN,ANDHARMANIK,91.8725,22.54622,12640,1
AGRASAR BOUDDHA ANATHALAY HIGH SCHOOL,104881,School,CHITTAGONG,RAOZAN,PURBA GUZARA,91.88086,22.5525,12641,1
NORTH GUJRA HIGH SCHOOL,104882,School,CHITTAGONG,RAOZAN,UTTAR GUJARA,91.90336,22.56042,12642,1
GAURACHANDRA JATINDRA HIGH SCHOOL,104899,School,CHITTAGONG,RAOZAN,KADALPUR,91.86472,22.52089,12643,1
C P S JUNIOR HIGH SCHOOL,104905,School,CHITTAGONG,RAOZAN,PAHARTALI,91.89453,22.56311,12644,1
PASCHIM ANDHAR MANIK GUJRA RAHMAN HIGH SCHOOL,104883,School,CHITTAGONG,RAOZAN,ANDHARMANIK,91.91675,22.48094,12645,1
ABDUS SALAM ADARSHA HIGH SCHOOL,104898,School,CHITTAGONG,RAOZAN,PURBA GUZARA (ISLAMABAD),91.87931,22.55967,12646,1
PURBA GUJRA HIGH SCHOOL,104889,School,CHITTAGONG,RAOZAN,PURBA GUZARA,91.93328,22.48214,12647,1
KOTOWALI GHONA ADARSHA HIGH SCHOOL,104892,School,CHITTAGONG,RAOZAN,KOTALIGHONA,91.88322,22.48289,12648,1
HAZRAT YASIN SHAH PUBLIC HIGH SHCOOL,104884,School,CHITTAGONG,RAOZAN,YACHHIN NAGAR,91.92742,22.46803,12649,1
HALADIA HIGH SCHOOL,104888,School,CHITTAGONG,RAOZAN,HALADIA,91.91658,22.48078,12650,1
NORTH SARTHA DARGAH HIGH SCHOOL,104873,School,CHITTAGONG,RAOZAN,HALADIA,91.93878,22.46439,12651,1
YEASIN NARAR MODEL HIGH SCHOOL,104897,School,CHITTAGONG,RAOZAN,HALADIA,91.91625,22.48797,12652,1
KADALPUR HIGH SCHOOL,104868,School,CHITTAGONG,RAOZAN,KADALPUR,91.89011,22.57361,12653,1
KADALPUR IDEAL HIGH SCHOOL,131293,School,CHITTAGONG,RAOZAN,KADALPUR,91.88003,22.58678,12654,1
SOUTH  KADALPUR JUNIOR HIGH SCHOOL,104902,School,CHITTAGONG,RAOZAN,KADALPUR,91.89347,22.58428,12655,1
FATEHNAGAR NOAJISHPUR WADUDIA HIGH SCHOOL,104878,School,CHITTAGONG,RAOZAN,NOAJISPUR,91.91075,22.57753,12656,1
NOAPARA HIGH SCHOOL,104854,School,CHITTAGONG,RAOZAN,NOAPARA,91.95486,22.48992,12657,1
KACHU KHAIN MEAH ALI HIGH SCHOOL,104893,School,CHITTAGONG,RAOZAN,KACHUKHAIN,91.88994,22.57319,12658,1
NOAPARA M.B. MOLLICK HIGH SCHOOL,104866,School,CHITTAGONG,RAOZAN,NOAPARA,91.94753,22.49961,12659,1
NOAPARA MUSLIM HIGH SCHOOL,104875,School,CHITTAGONG,RAOZAN,NOAPARA,92.08889,22.49425,12660,1
SOUTH NOAPARA HIGH SCHOOL,104901,School,CHITTAGONG,RAOZAN,CHHAMIDER KHOANG,91.94931,22.49731,12661,1
KHAIYA KHALI HIGH SCHOOL,104890,School,CHITTAGONG,RAOZAN,KHAIYAKHALI,91.86283,22.55572,12662,1
MAHAMUNI ANGLO PALI HIGH SCHOOL,104859,School,CHITTAGONG,RAOZAN,PAHARTALI,91.90892,22.44008,12663,1
UNSATTOR PARA HIGH SCHOOL,104880,School,CHITTAGONG,RAOZAN,UNSATTAR PARA,91.92614,22.42667,12664,1
RAOZAN SURESH VIDYAYATTAN,104886,School,CHITTAGONG,RAOZAN,PASCHIM RAOZAN (PART),91.90336,22.42292,12665,1
MOHAMMEDPUR HIGH SCHOOL,104865,School,CHITTAGONG,RAOZAN,PASCHIM RAOZAN(PART),91.9475,22.4695,12666,1
HARPARA HIGH SCHOOL,104874,School,CHITTAGONG,RAOZAN,HARPARA,91.96583,22.46633,12667,1
ABURKHIL AMITaBHA HIGH SCHOOL,104858,School,CHITTAGONG,RAOZAN,PASCHIM GUZARA,91.94497,22.43761,12668,1
URKIRCHAR  HIGH  SCHOOL,104855,School,CHITTAGONG,RAOZAN,URKIRCHAR,91.96881,22.46486,12669,1
WEST GUZRA HIGh SCHOOL,104876,School,CHITTAGONG,RAOZAN,PASCHIM GUZARA,91.92964,22.5355,12670,1
GUZRA SHYAMACHARAN HIGH SCHOOL,104887,School,CHITTAGONG,RAOZAN,UTTAR GUZARA,91.86447,22.45169,12671,1
RANGUNIA MAJUMDERKHIL HIGH SCHOOL,104789,School,CHITTAGONG,RANGUNIA,RANGUNIA,91.86714,22.44836,12672,1
SABEK RANGUNIA INDRA KUMARI GIRLS HIGH SCOOL,104802,School,CHITTAGONG,RANGUNIA,RANGUNIA,91.88783,22.45597,12673,1
RANGUNIA KHILMOGAL RASHIK HIGH SCHOOL,104792,School,CHITTAGONG,RANGUNIA,RANGUNIA,91.90547,22.45256,12674,1
KAUKHALI ANWARA BEGUM HIGH SCHOOL,104814,School,CHITTAGONG,RANGUNIA,KAUKHALI,91.89286,22.49647,12675,1
AL HAJ ABUL BASHER CHOWDHURY HIGH SCHOOL,104826,School,CHITTAGONG,RANGUNIA,POMARA,91.896,22.4755,12676,1
RISING SUN K.G. AND HIGH SCHOOL,131251,School,CHITTAGONG,RANGUNIA,CHANDRAGHONA,92.08292,21.49686,12677,1
CHANDRAGHONA MODEL MULTILATERAL HIGH SCHOOL,104801,School,CHITTAGONG,RANGUNIA,CHANDRAGHONA,92.07167,22.50317,12678,1
ISLAMPUR HIGH SCHOOL,104817,School,CHITTAGONG,RANGUNIA,PASCHIM NISCHINTAPUR (PART),92.07025,22.48058,12679,1
SONARGAON HIGH SCHOOL,104806,School,CHITTAGONG,RANGUNIA,PASCHIM NISCHINTAPUR (PART),92.01156,22.43056,12680,1
RAJABHUBAN HIGH SCHOOL,104798,School,CHITTAGONG,RANGUNIA,DAKSHIN GHAGRA (PART),92.00317,22.43372,12681,1
RAJANAGAR R, A, B, M, HIGH SCHOOL,104794,School,CHITTAGONG,RANGUNIA,MADHYA GHAGRA,92.10422,22.45692,12682,1
RAFIQUABAD GIRLS  HIGH SCHOOL,104816,School,CHITTAGONG,RANGUNIA,MADHYA GHAGRA,92.06022,22.56861,12683,1
EAST KODALA M A TAHER JUNIOR SCHOOL,104824,School,CHITTAGONG,RANGUNIA,KODALA,92.05617,22.53008,12684,1
KODALa HIGH SCHOOL,104799,School,CHITTAGONG,RANGUNIA,KODALA,92.06553,22.51967,12685,1
MARIAM NAGAR MULTILATERAL HIGH SCHOOL,104797,School,CHITTAGONG,RANGUNIA,DEBIPUR KADAMTALI,92.04222,22.57239,12686,1
BEGUM IQBAL ZAKIR HUSSAIN GIRLS HIGH SCHOOL,104795,School,CHITTAGONG,RANGUNIA,RANGUNIA,92.06683,22.51875,12687,1
RANGUNIA M M P HIGH SCHOOL,104788,School,CHITTAGONG,RANGUNIA,PURBA ICHAMATI,92.04856,22.56328,12688,1
UTTAR RANGUNIA HIGH SCHOOL,104791,School,CHITTAGONG,RANGUNIA,LALANAGAR,92.11925,22.45597,12689,1
HOSNABAD LALANAGAR HIGH SCHOOL,104818,School,CHITTAGONG,RANGUNIA,LALANAGAR,92.10511,22.45067,12690,1
MARIAM NARAR GIRLS HIGH SCHOOL,104803,School,CHITTAGONG,RANGUNIA,DEBIPUR KADAMTALI,92.08161,22.45444,12691,1
RANGUNIA PUBLIC SCHOOL AND COLLEGE,104853,School,CHITTAGONG,RANGUNIA,PASCHIM SAIDBARI,92.06472,22.53408,12692,1
HARIHAR HIGH SCHOOL,104819,School,CHITTAGONG,RANGUNIA,PADUA,92.06492,22.53364,12693,1
KHURUSHIA DWARICORE HIGH SCHOOL,104813,School,CHITTAGONG,RANGUNIA,PASCHIM KHURUSIA,92.07336,22.52739,12694,1
PADUA SAMMILANI GIRLS HIGH SCHOOL,104821,School,CHITTAGONG,RANGUNIA,PADUA,92.07961,22.45072,12695,1
SUKBILAS  HIGH SCHOOL,104808,School,CHITTAGONG,RANGUNIA,SUKBILAS,92.07319,22.45964,12696,1
UTTAR PADUA M.L. HIGH SCHOOL,104800,School,CHITTAGONG,RANGUNIA,PADUA,92.063,22.46547,12697,1
SAHABDINAGAR HIGH SCHOOL,104807,School,CHITTAGONG,RANGUNIA,UTTAR GHATCHEK(PART),92.08736,22.39761,12698,1
UTTAR PARUA HIGH SCHOOL,104815,School,CHITTAGONG,RANGUNIA,PARUA,92.09147,22.36089,12699,1
POMRA HIGH SCHOOL,104790,School,CHITTAGONG,RANGUNIA,POMARA,92.09375,22.37944,12700,1
POMRA BANGABANDHU HIGH SCHOOL,104823,School,CHITTAGONG,RANGUNIA,POMARA,92.11586,22.36039,12701,1
POMRA SHAHID JIA  NAGAR HIGH SCHOOL,104810,School,CHITTAGONG,RANGUNIA,POMARA,92.08853,22.38906,12702,1
UTTAR POMARA HIGH SCHOOL,104820,School,CHITTAGONG,RANGUNIA,POMARA,92.09094,22.38461,12703,1
BOGABILY HIGH SCHOOL,104811,School,CHITTAGONG,RANGUNIA,BAGABILI,92.01906,22.45394,12704,1
WEST SARAF BATA MIRER KHIL HIGH SCHOOL,104822,School,CHITTAGONG,RANGUNIA,SARAPBHATA,92.00744,22.45961,12705,1
GHATCHECK HIGH SCHOOL,104809,School,CHITTAGONG,RANGUNIA,DAKSHIN GHATCHEK,92.00203,22.45297,12706,1
EAST SHARAF BHATA IDEAL HIGH SCHOOL,104787,School,CHITTAGONG,RANGUNIA,SARAPBHATA,92.00778,22.47528,12707,1
SHARAFBHATA UNION HIGH SCHOOL,104796,School,CHITTAGONG,RANGUNIA,SARAPBHATA,92.01639,22.45756,12708,1
SOUTH SHILOK  M. SHAH ALAM CHOW. HIGH SCHOOL,104812,School,CHITTAGONG,RANGUNIA,SILAK,92.00536,22.46739,12709,1
SOUTH RANGUNIA SHILAK M. L HIGH SCHOOL,104793,School,CHITTAGONG,RANGUNIA,SILAK,92.03958,22.59833,12710,1
SHILAK HAMID SHARIF GIRLS HIGH SCHOOL,104804,School,CHITTAGONG,RANGUNIA,SILAK,92.03097,22.43172,12711,1
WEST SHILAK BADOURA ALAM CHY. HIGH SCHOOL,104825,School,CHITTAGONG,RANGUNIA,SILAK,92.05225,22.44753,12712,1
EAST SANDWIP ENAM NAHAR GIRLS HIGH SCHOOL,104951,School,CHITTAGONG,SANDWIP,HARAMIA,92.03875,22.45008,12713,1
MOMENA  SEKANDER  GOVT.  GIRLS  HIGH SCHOOL,104956,School,CHITTAGONG,SANDWIP,HARAMIA (PART),92.06525,22.42564,12714,1
RAHAMMATPUR HIGH SCHOOL,104943,School,CHITTAGONG,SANDWIP,RAHMATPUR (PART),92.02608,22.44419,12715,1
BAURIA GOLAM Khaleque ACADMEY,104961,School,CHITTAGONG,SANDWIP,BAURIA,92.07319,22.44342,12716,1
AZIMPUR HIGH SCHOOL,104952,School,CHITTAGONG,SANDWIP,AZIMPUR,92.07367,22.444,12717,1
AYSHA OBAYED GIRLS HIGH SCHOOL,104940,School,CHITTAGONG,SANDWIP,BAURIA,92.06892,22.414,12718,1
DWIP BANDHU MUSTAFIZUR RAHMAN HIGH SCHOOL,104958,School,CHITTAGONG,SANDWIP,KUCHIAMORA,92.06114,22.4435,12719,1
GASUA ADARSHA HIGH SCHOOL,104953,School,CHITTAGONG,SANDWIP,GACHHUA,91.48644,22.48614,12720,1
ABDUL KHALEK ACADEMY,104954,School,CHITTAGONG,SANDWIP,HARISHPUR (PART),91.44417,22.48544,12721,1
PURBA SANDWIP MULTILATERAL HIGH SCHOOL,104944,School,CHITTAGONG,SANDWIP,HARAMIA (PART),91.47333,22.51858,12722,1
SANDWIP IDEAL HIGH SCHOOL,104964,School,CHITTAGONG,SANDWIP,HARISHPUR (PART),91.47847,22.53561,12723,1
KARGIL GOVT HIGH SCHOOL,104945,School,CHITTAGONG,SANDWIP,HARISHPUR (PART),91.48239,22.51375,12724,1
SANDWIP MODEL HIGH SCHOOL,104941,School,CHITTAGONG,SANDWIP,HARISPUR,91.46872,22.54411,12725,1
KALAPANIA   HIGH SCHOOL,104959,School,CHITTAGONG,SANDWIP,KALAPANIA,91.48225,22.49614,12726,1
KATGHAR  GOLAM  NABI  HIGH SCHOOL,104942,School,CHITTAGONG,SANDWIP,KALAPANIA,91.48261,22.48639,12727,1
KALAPANIA CHOWDHURy BIDDAH NEKATON,104967,School,CHITTAGONG,SANDWIP,KALAPANIA,91.49225,22.48731,12728,1
SOUTH EAST SANDWIP HIGH SCHOOL,104965,School,CHITTAGONG,SANDWIP,MAGDHARA,91.45592,22.50019,12729,1
MOGDHARA HIGH SCHOOL,104948,School,CHITTAGONG,SANDWIP,MAGDHARA,91.43997,22.49878,12730,1
SANDWIP PUBLIC HIGH SCHOOL,104957,School,CHITTAGONG,SANDWIP,MAGDHARA,91.43886,22.51039,12731,1
SOUTH SANDIP ABEDA FAIZ GIRLS HIGH SCHOOL,104963,School,CHITTAGONG,SANDWIP,MAITBHANGA,91.45178,22.54475,12732,1
MAIT BHANGA B.L HIGH SCHOOL,104946,School,CHITTAGONG,SANDWIP,MAITBHANGA,91.44375,22.53289,12733,1
JEBENNUR SULTANA HIGH SCHOOL,104950,School,CHITTAGONG,SANDWIP,MUSAPUR,91.51106,22.44811,12734,1
MUSAPUR HAJEE ABDUL BATEN HIGH SCHOOL,104949,School,CHITTAGONG,SANDWIP,MUSAPUR,91.50472,22.49219,12735,1
MUSAPUR BODIUZZAMAN HIGH SCHOOL,104962,School,CHITTAGONG,SANDWIP,MUSAPUR,91.50567,22.48269,12736,1
MADHYA SONTOSHPUR M L HIGH SCHOOL,104947,School,CHITTAGONG,SANDWIP,SANTOSHPUR,91.46917,22.43656,12737,1
SONTOSHPUR M.L. HIGH SCHOOL,104960,School,CHITTAGONG,SANDWIP,SANTOSHPUR,91.47064,22.46853,12738,1
SOUTH  SANDWIP ML HIGH SCHOOL,104955,School,CHITTAGONG,SANDWIP,SATGHARIA,91.48739,22.46053,12739,1
KAZI  AFAZ   UDDIN  ADARSHA  HIGH SCHOOL,104966,School,CHITTAGONG,SANDWIP,CHAUKATALI,91.47814,22.47408,12740,1
CHANDGAON N.M.C. MODEL HIGH SCHOOL,104213,School,CHITTAGONG,CHANDGAON,UTTAR CHANDGAON CHOW. PARA,91.45678,22.48358,12741,1
MIRZA ISPAHANI SMRITY BIDDALAYA,104215,School,CHITTAGONG,CHANDGAON,PASCHIM MOHARA,91.46333,22.56036,12742,1
A, L, KHAN HIGH SCHOOL,104207,School,CHITTAGONG,CHANDGAON,UTTAR MOHARA,91.49242,22.42939,12743,1
ALHAZ ANOWARA BEGUM GIRLS HIGH SCHOOL,104220,School,CHITTAGONG,CHANDGAON,UTTAR MOHARA,91.4985,22.41333,12744,1
MOHARA S.K.Q. GIRLS HIGH SCHOOL,104217,School,CHITTAGONG,CHANDGAON,UTTAR MOHARA,91.85319,22.36911,12745,1
C.J.M. HIGH SCHOOL,104219,School,CHITTAGONG,CHANDGAON,CHAR MOHARA,91.84447,22.36986,12746,1
SANOWARA HIGH SCHOOL,104221,School,CHITTAGONG,BAKALIA,PURBA BAKALIA(PART-1),91.87456,22.38956,12747,1
BAKALIA HIGH SCHOOL,104206,School,CHITTAGONG,CHANDGAON,PURBA SHOLA SHAHAR (PART 1 &,91.81244,22.36139,12748,1
ALHAJ TAJUL ISLAM HIGH SCHOOL,104104,School,CHITTAGONG,CHANDGAON,PURBA SHOLA SHAHAR (PART 1 &,91.85508,22.37364,12749,1
MUHAMMAD KAMAL UDDIN HIGH SCHOOL,104225,School,CHITTAGONG,CHANDGAON,PURBA SHOLA SHAHAR (PART 1 &,91.88031,22.39511,12750,1
ABDUL HAMID SHOWDAGAR HIGH SCHOOL,104222,School,CHITTAGONG,CHANDGAON,PURBA SHOLA SHAHAR (PART 1 &,91.87406,22.38981,12751,1
PURBA BAKoLIA CITY CORP GIRLS HIGH SCHOOL,104212,School,CHITTAGONG,BAKALIA,PURBA BAKALIA(PART-2),91.878,22.3985,12752,1
SANUA KADERIA HIGH SCHOOL,104056,School,CHITTAGONG,BANSHKHALI,CHHOTA CHHANUA,91.88708,22.08322,12758,1
GONDAMARA BARAGHONA HIGH SCHOOL,104073,School,CHITTAGONG,BANSHKHALI,PASCHIM BARAGHONA,91.94036,22.04831,12759,1
BANSHKHALI GIRLS HIGH SCHOOL,104055,School,CHITTAGONG,BANSHKHALI,UTTAR NEAJOR PARA,91.94089,22.04403,12760,1
BANSKHALI ADARSHA HIGH SCHOOL,104057,School,CHITTAGONG,BANSHKHALI,UTTAR NEAJOR PARA,91.95503,21.96094,12761,1
NASERA KHATUN R.K. GIRLS HIGH SCHOOL,104066,School,CHITTAGONG,BANSHKHALI,KALIPUR,91.91578,21.89386,12762,1
KALIPUR EZHARUL HOQUE HIGH SCHOOL,104060,School,CHITTAGONG,BANSHKHALI,KALIPUR,91.89986,21.96667,12763,1
KOKDANDI GUNAGARI HIGH SCHOOL,104068,School,CHITTAGONG,BANSHKHALI,KOKDANDI,91.89408,21.98881,12764,1
KATHARIA BAGMARA HIGH SCHOOL,104071,School,CHITTAGONG,BANSHKHALI,KATHARIA,91.94014,22.06178,12765,1
KHANKHANABAD IDEAL HIGH SCHOOL,104078,School,CHITTAGONG,BANSHKHALI,KHAN KHANABAD,91.93906,22.06231,12766,1
RAICHATA PRAMASHIA IDEAL HIGH SCHOOL,104077,School,CHITTAGONG,BANSHKHALI,ROYCHHATA,91.93881,22.075,12767,1
B.B. CHOWDHURY HIGH SCHOOL,104074,School,CHITTAGONG,BANSHKHALI,ROYCHHATA,91.93922,22.06483,12768,1
PUICHARI IZZATIA IDEAL HIGH SCHOOL,104070,School,CHITTAGONG,BANSHKHALI,PUICHHARI,91.91094,22.03956,12769,1
NAPORA SHEKHERKHIL HIGH SCHOOL,104062,School,CHITTAGONG,BANSHKHALI,NAPORA,91.87003,22.08783,12770,1
MONAYAMSHA AULIA HIGH SCHOOL,104054,School,CHITTAGONG,BANSHKHALI,DAKSHIN BURUNCHARA,91.89561,22.11825,12771,1
NATMURA PUKURIA HIGH SCHOOL,104064,School,CHITTAGONG,BANSHKHALI,NATMURA,91.86803,22.10144,12772,1
HAJIGAON BARUMCHARA HIGH SCHOOL,104067,School,CHITTAGONG,BANSHKHALI,HAJIGAON,91.94475,21.90933,12773,1
SADHANPUR PALLI UNNOYAN HIGH SCHOOL,104061,School,CHITTAGONG,BANSHKHALI,SADHANPUR,91.95711,21.91872,12774,1
BANIGRAM SADHANPUR HIGH SCHOOL,104059,School,CHITTAGONG,BANSHKHALI,LOT MONEY,91.89706,22.14761,12775,1
SADHANPUR GIRLS HIGH SCHOOL,104075,School,CHITTAGONG,BANSHKHALI,SADHANPUR,91.92928,22.16,12776,1
SARAL AMIRIA HIGH SCHOOL,104069,School,CHITTAGONG,BANSHKHALI,SARAL,91.91533,22.15767,12777,1
BANSKHALI UNITED HIGH SCHOOL,104072,School,CHITTAGONG,BANSHKHALI,MULKIR CHAR,91.95131,21.98133,12778,1
AMIRABAD JANAKALAYAN HIGH SCHOOL,104553,School,CHITTAGONG,LOHAGARA,AMIRABAD,91.92147,22.10381,12779,2
M.H..NURUL ALAM CHOUDHRI MODEL HIGH SCHOOL,104558,School,CHITTAGONG,LOHAGARA,MALLIK CHHOANG,91.92458,22.00383,12780,2
AMIRABAD JANAKALYAN GIRLS HIGH SCHOOL,104555,School,CHITTAGONG,LOHAGARA,AMIRABAD,91.90722,22.01356,12781,2
NORTH AMIRABAD M.B . HIGH SCHOOL,104543,School,CHITTAGONG,LOHAGARA,AMIRABAD,91.93806,21.92711,12782,2
SUKCHARI HIGH SCHOOL,104546,School,CHITTAGONG,LOHAGARA,SUKCHHARI,91.94258,21.94539,12783,2
ADHUNAGAR GULE ZAR HIGH SCHOOL,104556,School,CHITTAGONG,LOHAGARA,ADHUNAGAR,92.0835,22.02906,12784,1
ADHUNAGAR HIGH SCHOOL,104545,School,CHITTAGONG,LOHAGARA,ADHUNAGAR,92.10058,22.04206,12785,1
HAJI MOSTAQUE AHED CHOWDHURY HIGH SCHOOL,131342,School,CHITTAGONG,LOHAGARA,HARINA,92.09689,22.01775,12786,1
RASHIDER GHONA HIGH SCHOOL,104561,School,CHITTAGONG,LOHAGARA,RASIDERGHONA,92.11067,22.04375,12787,1
BARAHATIA GARANGIA SENERHAT HIGH SCHOOL,104552,School,CHITTAGONG,LOHAGARA,BARAHATIA,92.10386,22.04164,12788,1
BARAHATIA ADaRSHA HIGH SCHOOL,104554,School,CHITTAGONG,LOHAGARA,BARAHATIA,92.09375,21.979,12789,1
AKHTARABAD KUMIRAGHONA ADARSA JUNIOR SCHOOL,104540,School,CHITTAGONG,LOHAGARA,CHAK FIRANI,92.08003,21.98069,12790,1
MAIJBILA OLI AHAMAD BIR BIKRAM JUNIOR HIGH SCHOOL,104563,School,CHITTAGONG,LOHAGARA,MAIJBILA,92.08272,21.99794,12791,1
CHARAMBA HIGH SCHOOL,104549,School,CHITTAGONG,LOHAGARA,CHAR AMBA,92.05322,22.02781,12792,1
CHUNATI HIGH SCHOOL,104544,School,CHITTAGONG,LOHAGARA,CHUNATI,92.04414,22.09944,12793,1
KALAUZAN  DR YAKUB  BAZLUR RAHMAN HIGH SCHOOL,104547,School,CHITTAGONG,LOHAGARA,PURBA KALAUJAN,92.163,22.00444,12794,1
KALAUZAN  SUKCHARI  GOURASUNDAR  INSTIUTUE,104539,School,CHITTAGONG,LOHAGARA,UTTAR KALAUJAN,92.14883,22.02081,12795,1
WEST KALAUZAN SHAH MOJZIDIA HIGH SCHOOL,104559,School,CHITTAGONG,LOHAGARA,PASCHIM KALAUJAN,92.17789,21.99475,12796,1
LOHAGARA  SHAHAPIR  PILOT  HIGH SCHOOL,104550,School,CHITTAGONG,LOHAGARA,LOHAGARA,92.14653,21.98642,12797,1
MOSTAFA BEGUM GIRLS HIGH SCHOOL,131345,School,CHITTAGONG,LOHAGARA,LOHAGARA,92.12258,21.99844,12798,1
LOHAGARA SHUKCHARI UZIRVITA HIGH SCHOOL,104557,School,CHITTAGONG,LOHAGARA,DAKSHIN SUKCHHARI,92.12633,21.98578,12799,1
ADHER MANIK P. D. C. (JUNIOR) HIGH SCHOOL,104560,School,CHITTAGONG,LOHAGARA,PADUA,92.1265,21.98703,12800,1
PADUA A.C,M HIGH SCHOOL,104541,School,CHITTAGONG,LOHAGARA,PADUA,92.10089,22.00756,12801,1
S.I. CHOWDHURY GIRLS HIGH SCHOOL,104564,School,CHITTAGONG,LOHAGARA,PADUA,92.09953,22.00703,12802,1
UTTAR PADUA HIGH SCHDOL,104562,School,CHITTAGONG,LOHAGARA,PADUA,92.11236,21.98661,12803,1
GORASTHAN HIGH SCHOOL,104565,School,CHITTAGONG,LOHAGARA,GORASTHAN,92.15333,22.04028,12804,1
PUTIBALA HIGH SCHOOL,104548,School,CHITTAGONG,LOHAGARA,DAKSHIN PUTIBILA,92.10928,22.04928,12805,1
EASTERN REFINERY MODEL HIGH SCHOOL,104243,School,CHITTAGONG,PATENGA,UTTARPATENGA(PART),92.10964,22.05336,12806,1
T.S.P. COMPLEX SECOANDARY SCHOOL,104245,School,CHITTAGONG,CHITTAGONG PORT,DAKSHIN HALISHAR(PART),92.11586,22.06842,12807,1
PATENGA HIGH SCHOOL,104239,School,CHITTAGONG,PATENGA,DAKSHIN PATENGA,92.12361,22.02978,12808,1
CHATTAGONG AIRPORT HIGH SCHOOL,104248,School,CHITTAGONG,PATENGA,UTTARPATENGA(PART),92.11831,21.96375,12809,1
SOUTH PATENGA CITY CORPORATION HIGH SCHOOL,104253,School,CHITTAGONG,PATENGA,UTTARPATENGA(PART),92.14317,21.95403,12810,1
BARIK MEAH HIGH SCHOOL,104282,School,CHITTAGONG,CHITTAGONG PORT,PURBA BANDAR COLONY,91.78494,22.27975,12811,1
HALISHAHAR MEHER AFZAL HIGH SCHOOL,104244,School,CHITTAGONG,CHITTAGONG PORT,DAKSHIN MADHYA HALISHAHAR,91.78683,22.27311,12812,1
HALISHAR MUNSHIPARA HIGH SCHOOL,104250,School,CHITTAGONG,CHITTAGONG PORT,MUNSHI PARA,91.78444,22.28278,12813,1
HALISHAHAR BEGUMJAN HIGH SCHOOL,104241,School,CHITTAGONG,CHITTAGONG PORT,DAKSHIN MADHYA HALISHAHAR,91.78261,22.29075,12814,1
BANGLADESH RAILWAY GOVERNMENT HIGH SCHOOL,PAHARTALI,104673,School,CHITTAGONG,KHULSHI,MASTER LANE,91.78436,22.28511,12815,1
NIMTALA HIGH SCHOOL,104252,School,CHITTAGONG,CHITTAGONG PORT,BANDAR COLONY,91.78222,22.29367,12816,1
DASKHIN HALISHAHAR HIGH SCHOOL,104251,School,CHITTAGONG,CHITTAGONG PORT,DAKSHIN HALISHAHAR (PART),91.81333,22.37233,12817,1
TIGARPASS M.L HIGH SCHOOL,104297,School,CHITTAGONG,KHULSHI,AMBAGAN,91.77592,22.35025,12818,1
PATHANTOOLI KHAN SHAHEB CITY CORP.GIRLS SCHOOL,104270,School,CHITTAGONG,DOUBLE MOORING,UTTAR PATHANTULI (PART),91.82589,22.37947,12819,1
POSTAR PAR CITY CORPORATION BOYS HIGH SCHOOL,104281,School,CHITTAGONG,DOUBLE MOORING,UTTAR PATHANTULI (PART),91.78611,22.37244,12820,1
KHAN SHAHEB ABDUL HAKIM  HIGH SCHOOL,104268,School,CHITTAGONG,DOUBLE MOORING,MOLLAH PARA,91.80111,22.31758,12821,1
SHAH AMANAT CITY MODEL SCHOOL AND COLLEGE,131356,School,CHITTAGONG,DOUBLE MOORING,MOLLAH PARA,91.80778,22.35975,12822,1
BIDYUT UNNAYAN BOARD HIGH SCHOOL,104291,School,CHITTAGONG,DOUBLE MOORING,MANSURABAD,91.82578,22.3335,12823,1
AL-ZABER INSTITUTE,104287,School,CHITTAGONG,DOUBLE MOORING,MUHURY PARA,91.81764,22.33764,12824,1
WIRELESS JHAUTALA COLONY HIGH SCHOOL,104278,School,CHITTAGONG,KHULSHI,JAUTALA,91.81383,22.33247,12825,1
ALHAJ M A SALAM  HIGH SCHOOL,131329,School,CHITTAGONG,DOUBLE MOORING,MUHURY PARA,91.81669,22.33631,12826,1
SILVER BELLS GIRLS HIGH SCHOOL,104293,School,CHITTAGONG,HALISHAHAR,HALISHAHAR HOUSING ESTATE,91.81733,22.33808,12827,1
AGRABAD BALIKA BIDYALAY,104279,School,CHITTAGONG,DOUBLE MOORING,C. D. A.,91.80036,22.33669,12828,1
MOTHERS CARE K. G AND HIGH SCHOOL,131339,School,CHITTAGONG,DOUBLE MOORING,PASCHIM MOGALTULI,91.80258,22.33644,12829,1
PURBA  MADARBARI  CITY  CORP  GIRLS  HIGH SCHOOL,104276,School,CHITTAGONG,DOUBLE MOORING,DAKSHIN MAJHIR GHAT,91.80039,22.33447,12830,1
PATHANTULI CITY CORPORATION GIRLS HIGH SCHOOL,104292,School,CHITTAGONG,DOUBLE MOORING,DAKSHIN PATHANTULI,91.80061,22.33336,12831,1
KHAJA AJMERI HIGH SCHOOL,104285,School,CHITTAGONG,DOUBLE MOORING,PURBA GOSHAIL DANGA,91.80136,22.33339,12832,1
PATHANTOOLI CITY  CORPORATION BOYS HIGH SCHOOL,104271,School,CHITTAGONG,DOUBLE MOORING,DAKSHIN PATHANTULI,91.80064,22.34583,12833,1
RAILWAY EMPLOYEES GIRLS  HIGH SCHOOL,104298,School,CHITTAGONG,DOUBLE MOORING,DEWAN HAT,91.80053,22.325,12834,1
WEST MADAR BARI CITY CORPORATION GIRLS HIGH SCHOOL,104283,School,CHITTAGONG,DOUBLE MOORING,PASCHIM MADARBARI (PART),91.80236,22.33575,12835,1
CITY GOVT.GIRLS HIGH SCHOOL,104273,School,CHITTAGONG,DOUBLE MOORING,UTTAR NALAPARA,91.81644,22.33069,12836,1
AGRABAD GOVT. COLONY HIGH SCHOOL,104288,School,CHITTAGONG,DOUBLE MOORING,C. G. S. COLONY,91.82386,22.32978,12837,1
KALKAKOLI HIGH SCHOOL,104269,School,CHITTAGONG,DOUBLE MOORING,BHOHUTALA COLONY,91.82394,22.32894,12838,1
FOREST COLONY GIRLS HIGH SCHOOL,104296,School,CHITTAGONG,DOUBLE MOORING,BHOHUTALA COLONY,91.81683,22.32628,12839,1
BANGLADESH BANK COLONY HIGH SCHOOL,104294,School,CHITTAGONG,DOUBLE MOORING,DAKSHIN PATHANTULI,91.83097,22.33256,12840,1
G.R.K. MULTI HIGH SCHOOL,104284,School,CHITTAGONG,DOUBLE MOORING,GOSAIL DANGA,91.79994,22.32486,12841,1
G.K.B.H DOVASH CITY CORP. GIRLS HIGH SCHOOL,104286,School,CHITTAGONG,DOUBLE MOORING,GOSAIL DANGA,91.80972,22.32472,12842,1
T&T HIGH SCHOOL,104289,School,CHITTAGONG,DOUBLE MOORING,DEWAN HAT,91.99367,22.33325,12843,1
KATTALI NURUL HOQUE CHOWDHURY HIGH SCHOOL,104670,School,CHITTAGONG,PAHARTALI,CORNEL HAT,91.98336,22.33306,12844,1
ISLAMI SHAMAJ KALLAYN PARISHAD HIGH SCHOOL,131327,School,CHITTAGONG,PAHARTALI,UTTAR KATTALI,91.80464,22.31764,12845,1
PAHARTALI GIRLS HIGH SCHOOL,104675,School,CHITTAGONG,PAHARTALI,UTTAR PAHARTALI,91.80417,22.31669,12846,1
ISPAHANI ADARSHA HIGH SCHOOL,PAHARTALI,104666,School,CHITTAGONG,PAHARTALI,UTTAR KATTALI,91.80461,22.32517,12847,1
UTTAR KATTALI ALHAJ MOSTAFA HAKIM HIGH SCHOOL,104678,School,CHITTAGONG,PAHARTALI,UTTAR KATTALI,91.8085,22.32764,12848,1
BASANTI GIRL'S HIGH SCHOOL,104674,School,CHITTAGONG,PAHARTALI,PASCHIM NASIRABAD (PART),91.78028,22.36586,12849,1
P.H.AMEEN ACADEMY,104665,School,CHITTAGONG,PAHARTALI,DAKSHIN KAT TALI(PART),91.78453,22.36242,12850,1
BAGMONIRAM ABDUR RASHID  CITY CORP. BOYS SCHOOL,104498,School,CHITTAGONG,KOTWALI,BAG MONIRAM,91.76944,22.36708,12851,1
RAILWAY PUBLIC SCHOOL,104504,School,CHITTAGONG,KOTWALI,POLO GROUND,91.79075,22.3505,12852,1
POLOGROUND MULTILATERAL HIGH SCHOOL,104508,School,CHITTAGONG,KOTWALI,POLO GROUND,91.77108,22.37358,12853,1
SAINT PLACID HIGH SCHOOL,104513,School,CHITTAGONG,KOTWALI,KORBANIGANJ,91.79339,22.35225,12854,1
GUL-E-ZAR BEGUM CITY CORP. MUSLIM GIRLS SCHOOL,104517,School,CHITTAGONG,KOTWALI,NASIRABAD EAST,91.77506,22.34631,12855,1
HAJI MD. MOHSIN GOVT. HIGH SCHOOL,104488,School,CHITTAGONG,KOTWALI,CHAK BAZAR,91.77286,22.34444,12856,1
CHITTAGONG GOVT. HIGH SCHOOL,104519,School,CHITTAGONG,KOTWALI,KAPASHGOLA,91.82269,22.35211,12857,1
KAPASGOLA CITY CORP. GIRLS HIGH SCHOOL,104535,School,CHITTAGONG,KOTWALI,CHAK BAZAR,91.81794,22.34003,12858,1
LAMABAZAR A.A.S.CITY CORP.HIGH SCHOOL,104510,School,CHITTAGONG,KOTWALI,KORBANIGANJ,91.83719,22.34958,12859,1
DR.KHASTAGIR GOVT. GIRLS HIGH SCHOOL,104496,School,CHITTAGONG,KOTWALI,RAHMATGANJ (PART),91.83692,22.36956,12860,1
SALEH CITY CORPORATION HIGH SCHOOL,104520,School,CHITTAGONG,KOTWALI,BAG MONIRAM,91.81581,22.34167,12861,1
JAMAL KHAN KUSUM KUMARY CITY CORP. GIRLS SCHOOL,104493,School,CHITTAGONG,KOTWALI,RAHMATGANJ (PART),91.81272,22.33269,12862,1
RAILWAY  HOSPITAL  COLONY  CITY  CORPoration High SCHOOL,104516,School,CHITTAGONG,KOTWALI,TERI BAZAR (FORHAD BAGBAG LALE,91.81244,22.32728,12863,1
BANGLADESH RAILWAY STATION COLONY HIGH SCHOOL,104501,School,CHITTAGONG,KOTWALI,TERI BAZAR (FORHAD BAGBAG LALE,91.84278,22.34025,12864,1
ALKARAN NUR AHMAD CITY CORPORATION HIGH SCHOOL,104506,School,CHITTAGONG,KOTWALI,AL-KARAN,91.80767,22.81592,12865,1
SHAH WALI ULLAH INSTITUTE,104500,School,CHITTAGONG,KOTWALI,BAG MONIRAM,91.83603,22.34583,12866,1
MEMON GRAMMAR SCHOOL ENGLISH MEDIUM,131494,School,CHITTAGONG,KOTWALI,BAG MONIRAM,91.81261,22.33317,12867,2
PAHARIKA GIRLS HIGH SCHOOL,104494,School,CHITTAGONG,KOTWALI,POLO GROUND,91.82561,22.33764,12868,1
