inst name, eiin, inst_type, district, thana, mauza, long, lat, serial,isUnique
CHUADANGA GOVT. COLLEGE,115383,College,CHUADANGA,CHUADANGA SADAR,BUJRUK GARGARI C & B PARA,88.843903,23.644394,387,1
M S ZOHA COLLEGE,115329,College,CHUADANGA,ALAMDANGA,HARDI,88.936508,23.76133,388,1
DARSANA GOVT. COLLEGE,115428,College,CHUADANGA,DAMURHUDA,DAMURHUDA,88.80027,23.514225,389,1
ABDUL WADUD SHAH DEGREE COLLEGE,115429,College,CHUADANGA,DAMURHUDA,HOWLI,88.776443,23.605804,390,1
NIGAR SIDDIK DEGREE COLLEGE,115331,College,CHUADANGA,ALAMDANGA,SONATANPUR,88.90180995,23.72242994,391,1
KHASH KARARA COLLEGE,115333,College,CHUADANGA,ALAMDANGA,KHASKARARA CHAK,88.97304047,23.65407276,392,1
DR. AFSAR UDDIN COLLEGE,115334,College,CHUADANGA,ALAMDANGA,KHADIMPUR,88.8028412,23.69511812,393,1
ALAMDANGA COLLEGE,115330,College,CHUADANGA,ALAMDANGA,COLLEGE PARA EAST,88.94698054,23.75800203,394,1
ALAMDANGA MOHILA DEGREE COLLEGE,115332,College,CHUADANGA,ALAMDANGA,ALAMDANGA NORTH,88.94032432,23.76426166,395,1
JIBONNAGAR ADARSHA MOHILLA COLLEGE,115462,College,CHUADANGA,JIBAN NAGAR,DANGAPARA,88.82340124,23.43388385,396,1
JIBAN NAGAR DEGREE COLLEGE,115461,College,CHUADANGA,JIBAN NAGAR,COLLEGE PARA,89.41489,23.17583,397,1
UTHALI COLLEGE,115463,College,CHUADANGA,JIBAN NAGAR,UTHALI,88.83867,23.45697,398,1
ADARSHA GOVT. MAHILA COLLEGE,115384,College,CHUADANGA,CHUADANGA SADAR,BUJRUK GARGARI C & B PARA,88.73153,23.54772,399,1
CHUDANGA POURA COLLEGE,115382,College,CHUADANGA,CHUADANGA SADAR,TALTALA (PART) (PASHURHAT),88.81358,23.53397,400,1
BADARGANJ DEGREE COLLEGE,115381,College,CHUADANGA,CHUADANGA SADAR,ALIARPUR,88.95539,23.60475,401,1
BORO SALUA NEW MODEL COLLEGE,115380,College,CHUADANGA,CHUADANGA SADAR,BARA SALUA,88.89972,23.52925,402,1
SAMPUR ISLAMIA DAKIL MADRASHA,115324,Madrasha,CHUADANGA,ALAMDANGA,SHYAMPUR,88.90827814,23.76653906,3922,1
OSMANPUR PRAGPUR SIDDIQIA FAZIL MADRASAH,115320,Madrasha,CHUADANGA,ALAMDANGA,OSMANPUR,88.90484788,23.82463878,3923,1
NATIDANGA DAKHIL MADRASHA,115328,Madrasha,CHUADANGA,ALAMDANGA,NATIDANGA,88.86985841,23.73414239,3924,1
BHANGBARIA DAKHIL MADRASHA,115322,Madrasha,CHUADANGA,ALAMDANGA,BHANGABARIA,88.85186871,23.80747865,3925,1
ALAMDANGA SIDDIQUIA ALIM MADRASAH,115319,Madrasha,CHUADANGA,ALAMDANGA,GOBINDAPUR MIDDLE,88.94541332,23.75683897,3926,1
UMMUL MUMINUN ALAMDANGA DAKHIL GIRLS MADRASHA,131513,Madrasha,CHUADANGA,ALAMDANGA,BANDOBIL WEST,88.94042073,23.76282483,3927,1
DINGADAH DAKHIL MADRASHA,115376,Madrasha,CHUADANGA,CHUADANGA SADAR,MANIKDIHI,88.8920657,23.60763332,3928,1
DAMUR HUDA D.S.DAKHIL MADRASAH,115420,Madrasha,CHUADANGA,DAMURHUDA,DAMURHUDA,88.78258242,23.60756592,3929,1
KUNIA CHANDPUR SIDDIKIA DAKHIL MADRASAH,115418,Madrasha,CHUADANGA,DAMURHUDA,UTTAR CHANDPUR,88.71480192,23.59779159,3930,1
GOPAL PUR DAKHIL MADRASAH,115427,Madrasha,CHUADANGA,DAMURHUDA,GOPALPUR,88.76470356,23.6722158,3931,1
PANKA DARUS SALAM DAKHIL MADRASHA,115460,Madrasha,CHUADANGA,JIBAN NAGAR,PANKA,88.94119159,23.48265754,3932,1
 ANDULBARIA ASHRAFIA DAKHIL MADRASAH,115457,Madrasha,CHUADANGA,JIBAN NAGAR,ANDULBARIA,88.89272143,23.48583624,3933,1
MADHABPUR ISLAMIA DAKHIL MADRASAH,115456,Madrasha,CHUADANGA,JIBAN NAGAR,MADHABPUR,88.88980487,23.43020452,3934,1
NEHINQUNDU BARANDI DAKHIL MADRASAH,115458,Madrasha,CHUADANGA,JIBAN NAGAR,BARANDI,88.9171215,23.45092812,3935,1
JIBAN NAGAR UPAZILA ALIM MADRASHA,115454,Madrasha,CHUADANGA,JIBAN NAGAR,COURT PARA,89.3484,23.17439,3936,1
JANNATUL KHADRA DAKHIL MADRASHA,115459,Madrasha,CHUADANGA,JIBAN NAGAR,UTHALI,88.78986,23.42653,3937,1
DARSANA D.S. FAZIL DEGREE MADRASAH,115426,Madrasha,CHUADANGA,DAMURHUDA,RAIL BAZAR,88.84597,23.47178,3938,1
BUCHITALA BARABALDIA DAKHIL MADRASHA,115417,Madrasha,CHUADANGA,DAMURHUDA,BORA BOLDIA,88.79881,23.52667,3939,1
JOYRAMPUR D.S. DAKHIL MADRASAH,115424,Madrasha,CHUADANGA,DAMURHUDA,JOYRAMPUR,88.72825,23.51269,3940,1
KURUL GACHI DAKHIL MADRASAH,115423,Madrasha,CHUADANGA,DAMURHUDA,KURALGACHHI,88.7555,23.51839,3941,1
CHUADANGA FAZIL MADRASAH,115379,Madrasha,CHUADANGA,CHUADANGA SADAR,RAIL PARA,88.73592,23.55,3942,1
HAZRAHATI DARUL ISLAM  DAKHIL MADRASHA,115378,Madrasha,CHUADANGA,CHUADANGA SADAR,HAZRAHATI,88.80944,23.52417,3943,1
BADARGANJ BAQUI BILLAH KAMIL MADRASHA,115371,Madrasha,CHUADANGA,CHUADANGA SADAR,ALIARPUR,88.93025,23.59183,3944,1
DOSHOMI MOHILA DALHIL MADRASHA,115327,Madrasha,CHUADANGA,CHUADANGA SADAR,ALIARPUR,88.98186,23.59786,3945,1
JUGIR HUDA ABUL HOSSEN DAKHIL MADRASHA,115373,Madrasha,CHUADANGA,CHUADANGA SADAR,JOGIRHUDA,88.87636,23.68603,3946,1
62 NO ARIA DAKHIL MADRASHA,115375,Madrasha,CHUADANGA,CHUADANGA SADAR,ARIA,88.93361,23.58464,3947,1
SARABARIA DAKHIL MADRASHA,115374,Madrasha,CHUADANGA,CHUADANGA SADAR,SARABARIA,88.93567,23.54828,3948,1
KUMARY UNION HIGH SCHOOL,115303,School,CHUADANGA,ALAMDANGA,SHYAMPUR,88.9138453,23.77020822,12897,1
OSMANPUR PRAGPUR HIGH SCHOOL,115283,School,CHUADANGA,ALAMDANGA,OSMANPUR,88.9041412,23.82329314,12898,1
KESHOBPUR JUNIOR SECONDARY SCHOOL,130600,School,CHUADANGA,ALAMDANGA,UTTAR LAKSHMIPUR,88.88453464,23.81808951,12899,1
SHEBABAG SECONDARY SCHOOL,115297,School,CHUADANGA,ALAMDANGA,DASPARA,88.86325888,23.80035279,12900,1
J.S. HIGH SCHOOL,115299,School,CHUADANGA,ALAMDANGA,JAGANNATH PUR,88.98358227,23.76223845,12901,1
MUNSHIGANJ ACADEMY,115273,School,CHUADANGA,ALAMDANGA,SONATANPUR,88.89374368,23.71666895,12902,1
BATIAPARA SHIALMARI HIGH SCHOOL,115279,School,CHUADANGA,ALAMDANGA,BATIA PARA,88.84995949,23.68700446,12903,1
TIORBILA HIGH SCHOOL,115292,School,CHUADANGA,ALAMDANGA,TIARBILA,88.98402412,23.63040293,12904,1
KHASH KARARA HIGH SCHOOL,115285,School,CHUADANGA,ALAMDANGA,KHASKARARA,88.97482808,23.65497095,12905,1
KAYET PARA HIGH SCHOOL,115277,School,CHUADANGA,ALAMDANGA,RAMDIA,89.00453631,23.66648058,12906,1
BHANGBARIA SECONDARY SCHOOL,115302,School,CHUADANGA,ALAMDANGA,BHANGABARIA,88.85586618,23.80632902,12907,1
HATBOALIA GIRLS HIGH SCHOOL,115289,School,CHUADANGA,ALAMDANGA,CHAR BOALIA,88.85964817,23.82380929,12908,1
BARA GANGNI HIGH SCHOOL,115278,School,CHUADANGA,ALAMDANGA,GANGNI,88.82060274,23.73424279,12909,1
GOKUL KHALI SECONDARY SCHOOL,115266,School,CHUADANGA,ALAMDANGA,GOPALNAGAR,88.80138689,23.69417792,12910,1
PANCH KAMALA PUR ALIAT NAGAR HIGH SCHOOL,115301,School,CHUADANGA,ALAMDANGA,DILSADPUR,88.78907066,23.71283153,12911,1
SHAPTA GRAM JUNIOR HIGH SCHOOL,115315,School,CHUADANGA,ALAMDANGA,NATIDANGA,88.86853301,23.72167085,12912,1
GHOLADARI BAZAR HIGH SCHOOL,115290,School,CHUADANGA,ALAMDANGA,CHHAYGHARIA,88.9422837,23.67671813,12913,1
GHOLDARI BAZAR SECONDARY GIRLS  SCHOOL,115304,School,CHUADANGA,ALAMDANGA,CHHAYGHARIA,88.94138126,23.67535702,12914,1
KHAJURTALA BAZAR JR. SCHOOL,115309,School,CHUADANGA,ALAMDANGA,JAHANPUR,88.95598495,23.69157908,12915,1
ALAMDANGA PILOT SECONDARY GIRLS SCHOOL,115271,School,CHUADANGA,ALAMDANGA,GOBINDAPUR MIDDLE,88.94444111,23.75808819,12916,1
ERSHADPUR ACADEMY,115280,School,CHUADANGA,ALAMDANGA,ERSHADPUR,88.94898473,23.7476656,12917,1
ALAMDANGA ML  PILOT HIGH SCHOOL,115269,School,CHUADANGA,ALAMDANGA,ALAMDANGA MIDDLE (PART),88.94800097,23.76131184,12918,1
SRIJONEE MODEL  HIGH School,115267,School,CHUADANGA,ALAMDANGA,KHUDIAKHALI,88.88075237,23.70181173,12919,1
M. SOBED ALI SECONDARY SCHOOL,115306,School,CHUADANGA,ALAMDANGA,NAODA BANDOBIL,88.93414462,23.74771666,12920,1
MUNSHIGANJ GIRLS HIGH SCHOOL,115268,School,CHUADANGA,ALAMDANGA,JEHALA,88.8940481,23.71466073,12921,1
ENAYETPUR BARADI ALHAJ MIR KHOSTaR ALI SECONDARY SCHOOL,115270,School,CHUADANGA,ALAMDANGA,ENAYETPUR,88.88619717,23.74901372,12922,1
KATA BHANGA HIGH SCHOOL,115284,School,CHUADANGA,ALAMDANGA,KANTABHANGA,88.87888428,23.78213187,12923,1
MATHABHANGA JUNIOR HIGH SCHOOL,115311,School,CHUADANGA,ALAMDANGA,NATIDANGA,88.86457601,23.73305948,12924,1
CHUADANGA  ACADEMY,115356,School,CHUADANGA,CHUADANGA SADAR,JOARDAR PARA,88.85399628,23.64302787,12925,1
CHUADANGA ADORSHA UCCHA BALIKA VIDYALAYA,115347,School,CHUADANGA,CHUADANGA SADAR,BUJRUK GARGARI C & B PARA,88.83507873,23.63875624,12926,2
CHUADANGA ADARSHA HIGH SCHOOL,115355,School,CHUADANGA,CHUADANGA SADAR,BUJRUK GARGARI C & B PARA,88.83507873,23.63875624,12927,2
JHINUK GIRLS secondary SCHOOL,115346,School,CHUADANGA,CHUADANGA SADAR,COURT PARA,88.84241888,23.63939156,12928,1
CHUADANGA GOVT. GIRLS HIGH SCHOOL,115348,School,CHUADANGA,CHUADANGA SADAR,POST OFFICE PARA,88.84821898,23.64342192,12929,1
V.J.GOVT. HIGH SCHOOL, CHUADANGA,115349,School,CHUADANGA,CHUADANGA SADAR,MUKTI PARA,88.84381532,23.64462111,12930,1
M.A. BARI SECONDARY SCHOOL,115345,School,CHUADANGA,CHUADANGA SADAR,BUS STAND PARA,88.86137484,23.64289431,12931,1
MAKHAL DANGA DENNATH PUR HIGH SCHOOL,115363,School,CHUADANGA,CHUADANGA SADAR,MAKHALDANGA,88.84040534,23.59840326,12932,1
ALUKDIA ROMELA GIRLS HIGH SCHOOL,115338,School,CHUADANGA,CHUADANGA SADAR,ALOKDIA,88.82540464,23.66627517,12933,1
AL-HELAL JUNIOR ISLAMI ACADEMY,115350,School,CHUADANGA,CHUADANGA SADAR,GULSHANPAR,88.84436819,23.63371591,12934,1
KALABARI RAMNAGAR HIGH SCHOOL,115393,School,CHUADANGA,DAMURHUDA,RAMNAGAR,88.78182037,23.68227756,12935,1
DAMURHUDA PILOT HIGH SCHOOL,115389,School,CHUADANGA,DAMURHUDA,DASHAMI,88.77320711,23.60701414,12936,1
GOBINDA HUDA SECONDARY SCHOOL,115404,School,CHUADANGA,DAMURHUDA,GOBINDAHUDA,88.74641253,23.61115564,12937,1
MOKTER PUR JUNIOR SECONDARY GIRLS SCHOOL,130578,School,CHUADANGA,DAMURHUDA,GOBINDAHUDA,88.73328275,23.60232709,12938,1
DALIARPUR SECONDARY SCHOOL,115400,School,CHUADANGA,DAMURHUDA,DALIARPUR,88.76187114,23.69420839,12939,1
UMBATH BISWAS JUNIOR HIGH SCHOOL,115412,School,CHUADANGA,DAMURHUDA,LAKSHMIPUR,88.74526392,23.65978528,12940,1
KANAIDANGA  HIGH SCHOOL,115408,School,CHUADANGA,DAMURHUDA,KANAIDANGA,88.68894617,23.60871242,12941,1
NATIPOTA HIGH SCHOOL,115394,School,CHUADANGA,DAMURHUDA,NATIPOTA,88.72075245,23.6624975,12942,1
HOGALDANGA HIGH SCHOOL,115409,School,CHUADANGA,DAMURHUDA,HOGALDANGA,88.71831558,23.63204854,12943,1
NATUDA SECONDARY SCHOOL,115385,School,CHUADANGA,DAMURHUDA,NATUDAHA,88.66016329,23.63811806,12944,1
B.C.K.M.P SECONDARY  SCHOOL,115446,School,CHUADANGA,JIBAN NAGAR,MADHABPUR,88.88889145,23.42859025,12945,1
RAIPUR HIGH SCHOOL,115441,School,CHUADANGA,JIBAN NAGAR,ROYPUR,88.91728514,23.44056932,12946,1
JIBONNAGAR THANA PILOT GIRL'S HIGH SCHOOL,115434,School,CHUADANGA,JIBAN NAGAR,BAZAR PARA,88.8228152,23.42540267,12947,1
ANDUL BARIA MULTILATERAL SECONDARY SCHOOL,115438,School,CHUADANGA,JIBAN NAGAR,ANDULBARIA,88.88848447,23.47772496,12948,1
ANDUL BARIA MULTILAATER GIRLS HIGH SCHOOL,115440,School,CHUADANGA,JIBAN NAGAR,ANDULBARIA,88.8953257,23.47900537,12949,1
PANKA HIGH SCHOOL,115451,School,CHUADANGA,JIBAN NAGAR,PANKA,88.94074357,23.47679405,12950,1
KASHIPUR secondary SCHOOL,115449,School,CHUADANGA,JIBAN NAGAR,KASHIPUR,88.8800321,23.47464875,12951,1
HASHADAH SECONDARY GIRLS SCHOOL,115448,School,CHUADANGA,JIBAN NAGAR,HASADAHA,88.86796125,23.41192955,12952,1
NILMONIGaNJ SECONDARY SCHOOL,115358,School,CHUADANGA,CHUADANGA SADAR,SIRAJKANDI,89.38423,23.2711,12953,1
KATHULY SECONDARY SCHOOL,115367,School,CHUADANGA,CHUADANGA SADAR,KATHULI,89.30719,23.17606,12954,2
JIBON NAGAR THANA ML HIGH SCHOOL,115437,School,CHUADANGA,JIBAN NAGAR,COLLEGE PARA,89.35132,23.22649,12955,1
SHAPLAKALI ADARSHA SECONDARY SCHOOL,115435,School,CHUADANGA,JIBAN NAGAR,SHAPLAKALI PARA),88.90119,23.48694,12956,2
HAJI MONIR HOSSAIN SECONDARY SCHOOL,115452,School,CHUADANGA,JIBAN NAGAR,BANKA,88.90119,23.48694,12957,2
ALIPUR SECONDARY SCHOOL,115432,School,CHUADANGA,JIBAN NAGAR,BANKA,88.83033,23.41419,12958,1
KARATOA SECONDARY SCHOOL,115445,School,CHUADANGA,JIBAN NAGAR,KAYA,88.82436,23.40917,12959,1
GOYESHPUR SECONDARY SHOOL,115433,School,CHUADANGA,JIBAN NAGAR,UMAPUR,88.82978,23.41281,12960,1
DHOPA KHALI HIGH SCHOOL,115444,School,CHUADANGA,JIBAN NAGAR,DHOPAKHALI,88.82667,23.41247,12961,1
MONOHAR PUR SECONDARY SCHOOL,115442,School,CHUADANGA,JIBAN NAGAR,MANOHARPUR,88.85275,23.43136,12962,1
SINGNAGAR HIGH SCHOOL,115453,School,CHUADANGA,JIBAN NAGAR,SANTOSHPUR,88.84456,23.42869,12963,1
UTHALI SECONDARY GIRLS SCHOOL,115443,School,CHUADANGA,JIBAN NAGAR,UTHALI,88.78911,23.38928,12964,1
UTHALI SECONDARY SCHOOL,115439,School,CHUADANGA,JIBAN NAGAR,UTHALI,88.81319,23.45125,12965,1
MINAJPUR SECONDARY SCHOOL,115447,School,CHUADANGA,JIBAN NAGAR,MINAJPUR,88.81797,23.47919,12966,1
CAREW  HIGH SCHOOL,115388,School,CHUADANGA,DAMURHUDA,MILL PARA (PART),88.84119,23.47108,12967,1
MEMNAGAR B.D. SECONDARY SCHOOL,115390,School,CHUADANGA,DAMURHUDA,PURATAN DARSHANA BAZAR,88.84778,23.48414,12968,1
DARSANA GIRLS HIGH SCHOOL,115391,School,CHUADANGA,DAMURHUDA,PURATAN DARSHANA BAZAR,88.8405,23.48264,12969,1
KAMARPARA HIGH SCHOOL,115410,School,CHUADANGA,DAMURHUDA,KAMAR PARA,88.86675,23.43231,12970,1
BARABALDIA SECONDARY SCHOOL,115405,School,CHUADANGA,DAMURHUDA,BORA BOLDIA,88.79897,23.52856,12971,1
MADNA SECONDARY SCHOOL,115397,School,CHUADANGA,DAMURHUDA,MADNA,88.78347,23.52497,12972,1
JAYRAMPUR HIGH SCHOOL,115396,School,CHUADANGA,DAMURHUDA,JOYRAMPUR,88.79619,23.52733,12973,1
LOKENATH PUR S.S. HIGH SCHOOL,115399,School,CHUADANGA,DAMURHUDA,LOKNATHPUR (PART),88.75575,23.49003,12974,1
SADABORI HIGH SCHOOL,115407,School,CHUADANGA,DAMURHUDA,SADABARI,88.71839,23.51536,12975,1
KURUL GACHI SECONDARY SCHOOL,115392,School,CHUADANGA,DAMURHUDA,CHANDIPUR,88.80719,23.57036,12976,1
DAKSHIN CHANDPUR SECONDARY SCHOOL,115401,School,CHUADANGA,DAMURHUDA,DAKSHIN CHANDPUR (PART),88.78589,23.55508,12977,1
AL-HERA ISLAMI HIGH SCHOOL,115386,School,CHUADANGA,DAMURHUDA,DAKSHIN CHANDPUR (PART),88.7995,23.57736,12978,1
RAHELA KHATUN GIRLS ACADEMY,115357,School,CHUADANGA,CHUADANGA SADAR,BAZAR PARA,88.70708,23.53764,12979,1
SADEMANNESA  GIRLS HIGH SCHOOL,115352,School,CHUADANGA,CHUADANGA SADAR,JOGIRHUDA,88.83894,23.62961,12980,1
MOHAMMAD JUMA D a.S.S JUNIOR SCHOOL,115339,School,CHUADANGA,CHUADANGA SADAR,MOHAMMAD JAMA,88.85261,23.64269,12981,1
KUTUBPUR SECONDARY SCHOOL,115402,School,CHUADANGA,CHUADANGA SADAR,KUTUBPUR,88.86236,23.6375,12982,1
SAROJGONG HIGH SCHOOL,115351,School,CHUADANGA,CHUADANGA SADAR,BOALIA,88.86058,23.64411,12983,1
NILMONiGONJ SECONDARY GIRLS SCHOOL,115353,School,CHUADANGA,CHUADANGA SADAR,SIRAJKANDI,88.86097,23.66792,12984,1
KHARAGODA SECONDARY SCHOOL,115354,School,CHUADANGA,CHUADANGA SADAR,KHARAGODA,88.97689,23.56561,12985,1
GIRISHNAGAR HIGH SCHOOL,115337,School,CHUADANGA,CHUADANGA SADAR,NURULLAPUR,88.97711,23.56331,12986,1
TITUDAH SECONDARY SCHOOL,115364,School,CHUADANGA,CHUADANGA SADAR,TITUDAHA,88.97344,23.56736,12987,1
SARA BARIA SECONDARY SCHOOL,115362,School,CHUADANGA,CHUADANGA SADAR,SARABARIA,88.85025,23.62978,12988,1
J. C. B  HIGH SCHOOL,115298,School,CHUADANGA,ALAMDANGA,CHAR PARA,88.91042,23.54383,12989,1
MADHAB PUR MODEL HIGH SCHOOL,115316,School,CHUADANGA,ALAMDANGA,MADHABPUR,88.91931,23.50275,12990,1
BADEMAJU BADAL SMRITY ACADEMY,115291,School,CHUADANGA,ALAMDANGA,DAUKI,88.88231,23.53878,12991,1
BHODUA SECONDARY SCHOOL,115288,School,CHUADANGA,ALAMDANGA,GHOSH BHILA,88.92464,23.50189,12992,1
HAZRAHATI TALTALA HIGH SCHOOL,115336,School,CHUADANGA,CHUADANGA SADAR,HAZRAHATI,88.90372,23.55786,12993,1
HATBOALIA HIGHER SECONDARY SCHOOL,115335,School and College,CHUADANGA,ALAMDANGA,HAT BOALIA,88.86113811,23.82367392,25825,1
DAMURHUDA PILOT GIRL'S SCHOOL AND COLLEGE,115387,School and College,CHUADANGA,DAMURHUDA,DASHAMI,88.77734523,23.6035987,25826,1
