inst name, eiin, inst_type, district, thana, mauza, long, lat, serial,isUnique
COMILLA VICTORIA GOVT. COLLEGE,105822,College,COMILLA,COMILLA ADARSHA SADAR,FIRST KANDIRPAR (PART),91.165611,23.459948,403,1
COMILLA  GOVT.  COLLEGE,105824,College,COMILLA,COMILLA ADARSHA SADAR,RACHCOURSE+POLICE LINE,91.173141,23.465664,404,1
COMILLA GOVT. MAHILA COLLEGE,105821,College,COMILLA,COMILLA ADARSHA SADAR,DAKSHIN CHARTA,91.183006,23.456902,405,1
DEBIDAR AL-HAJ ZOBEDA KHATUN MOHILA COLLEGE,105665,College,COMILLA,DEBIDWAR,DEBIDWAR,90.977913,23.611208,406,1
HOMNA DEGREE COLLEGE,105698,College,COMILLA,HOMNA,HOMNA (PART),90.772217,23.682753,407,1
CHOUDDAGRAM GOVT. COLLEGE COMILLA,105513,College,COMILLA,CHAUDDAGRAM,SREEPUR,91.312004,23.230078,408,1
JURANPUR ADARSHA DEGREE COLLEGE,105578,College,COMILLA,DAUDKANDI,JURANPUR,90.740509,23.494835,409,1
COMILLA  AJIT  GUHA  COLLEGE,105820,College,COMILLA,COMILLA ADARSHA SADAR,BAZRAPUR (PART),91.188881,23.462357,410,1
HAYDARABAD BEGUM JAHANARA HOQUE DEGREE COLLEGE,106062,College,COMILLA,MURADNAGAR,HAIDARABAD,90.93071,23.638805,411,1
SREE KAIL COLLEGE,106069,College,COMILLA,MURADNAGAR,SREEKAIL,90.947838,23.714903,412,1
CHAD MIA MOLLA DEGREE COLLEGE,106063,College,COMILLA,MURADNAGAR,BARA ALIRCHAR,90.864349,23.643797,413,1
SHAH  SHARIf  DEGREE  COLLEGE,105959,College,COMILLA,MANOHARGANJ,SAT PUKURIA,91.021255,23.187805,414,1
NILKANTA DEGREE COLLEGE,105954,College,COMILLA,MANOHARGANJ,MAISATUA,91.181999,23.4559,415,1
DHANUAKHALA ADARSHA PUBLIC COLLEGE,105825,College,COMILLA,COMILLA ADARSHA SADAR,DHAINAKHOLA,91.084656,23.445654,416,1
CHANDINA MOHILA DEGREE COLLEGE,105404,College,COMILLA,CHANDINA,RARIR CHAR MAHALLAH,91.00795,23.489285,417,1
ANANDAPUR DEGREE COLLEGE,105818,College,COMILLA,COMILLA ADARSHA SADAR,PASCHIM BALLABHPUR,91.097916,23.444283,418,1
REHANA COLLEGE TECHNICAL AND COMMERCE COLLEGE,132098,College,COMILLA,BARURA,KAMEDDA,91.055618,23.376385,419,1
MUNSHIRHAT ENGINEER WAHIDUR RAHMAN DEGREE COLLEGE,105514,College,COMILLA,CHAUDDAGRAM,MESTALA,91.311066,23.22653,420,1
CHOWARA ADARSHA DEGREE COLLERE,105745,College,COMILLA,COMILLA SADAR DAKSHIN,DURGAPUR,91.22348564,23.41178641,421,1
LALMAI DEGREE COLLEGE,105746,College,COMILLA,COMILLA SADAR DAKSHIN,DHARMAPUR,91.14340223,23.35971064,422,1
CHOTO SHARIFPUR COLLEGE,105958,College,COMILLA,COMILLA SADAR DAKSHIN,BARAHIPUR,91.17801652,23.29223966,423,1
PRINCIPAL ABUL KALAM MAZUMAER MOHILA COLLEGE,105961,College,COMILLA,COMILLA SADAR DAKSHIN,SAIDPUR,91.14732418,23.34492119,424,1
KURERPAR ADARSHA COLLEGE,106066,College,COMILLA,MURADNAGAR,METANGHAR,91.00160074,23.74046136,425,1
SAMSUL HUQ COLLEGE,106064,College,COMILLA,MURADNAGAR,HAIDARABAD,91.02792969,23.75974231,426,1
KAZI NOMAN AHMED DEGREE COLLEGE,106067,College,COMILLA,MURADNAGAR,MURADNAGAR,90.9211041,23.64220659,427,1
BADIUL ALAM DEGREE COLLEGE,106068,College,COMILLA,MURADNAGAR,TRISH,90.97024643,23.63887612,428,1
MOSHARROF HOSSAIN KHAN CHOWDHURY DEGREE COLLEGE,105254,College,COMILLA,BRAHMAN PARA,BRAHMAN PARA,91.10599,23.61625,429,1
ABDUL MATIN KHASRU MOHILA COLLEGE,105252,College,COMILLA,BRAHMAN PARA,NANDI PARA,91.10856,23.62867,430,1
SANKUCHAIL  DIGREE COLLEGE,105333,College,COMILLA,BURICHANG,SANKOCHAIL,91.15722,23.58558,431,1
SONAR BANGLA COLLeGE,105330,College,COMILLA,BURICHANG,PURBA GOBINDAPUR,91.11303,23.52711,432,1
KALIKAPUR ABDUL MATIN KHASRU DIGREE COLLEGE,131985,College,COMILLA,BURICHANG,KHODAITALI (UTTAR KALIKAPUR),91.13481,23.52464,433,1
CHANDINA REDWAN AHMED COLLEGE,105402,College,COMILLA,CHANDINA,CHANDINA MAHALLAH,91.13597,23.52897,434,1
GOVT. CHEORA  COLLLEGE,105512,College,COMILLA,CHAUDDAGRAM,CHIARA,91.28517,23.14239,435,1
GUNABATI  DEGRE  COLLEGE,105509,College,COMILLA,CHAUDDAGRAM,CHAPACHO,91.29908,23.08903,436,1
AL - HAJ NUR MIAH COLLEGE,105508,College,COMILLA,CHAUDDAGRAM,KANKAPAIT,91.26878,23.20514,437,1
KASHINAGAR DEGRE  COLLEGE,105515,College,COMILLA,CHAUDDAGRAM,ALIPUR,91.21917,23.36025,438,1
NURUL AMIN MAZUDER DEGREE COLLEGE,105956,College,COMILLA,LAKSAM,DAKSHIN NOAPARA,91.13169,23.17319,439,1
NOWAB FAIZUNNESH GOVT. COLLEGE,105955,College,COMILLA,LAKSAM,DAKSHIN PASCIM GAON,91.09794,23.17061,440,1
GOVT, HAHANPUR SHAHID NAZRUL DEGREE COLLEGE,105580,College,COMILLA,DAUDKANDI,UTTAR HASANPUR,91.11697,23.23056,441,1
DR.KHANDAKER MOSHARRAF HOSSAIN COLLEGE,105577,College,COMILLA,DAUDKANDI,UTTAR NASARADDI,91.11931,23.22864,442,1
GOURIPUR MUNSHI FAZLUR RAHMAN GOVT COLLEGE,105579,College,COMILLA,DAUDKANDI,PENNAI,90.75364,23.48664,443,1
BEGUM RABEYA GIRL'S COLLEGE,105581,College,COMILLA,DAUDKANDI,BARA PARA,90.71244,23.49408,444,1
REHANA MAJID MOHILA COLLEGE,105697,College,COMILLA,HOMNA,BAGHMARA (PART),90.76647,23.52672,445,1
HOMNABAD ADARSHA COLLEGE,106162,College,COMILLA,NANGALKOT,DHALUA,91.2475,23.11128,446,1
HESHAKHAL BAZAR COLLEGR,106159,College,COMILLA,NANGALKOT,HESAKHAL,91.21544,23.09589,447,1
ABDUL GOFUR BHUIYAN COLLEGE,106160,College,COMILLA,NANGALKOT,PASCHIM HASANPUR,91.17492,23.11428,448,1
BIMAN BANDRA MUNSHI FARUK AHMED COLLEGE,105749,College,COMILLA,COMILLA SADAR DAKSHIN,NOWAGRAM,90.76322,23.61011,449,1
COMILLA COMMERCE COLLEGE,131903,College,COMILLA,COMILLA SADAR DAKSHIN,NEORA SAIDPUR,91.1955,23.43336,450,1
COMILLA GOVT. COMMERCIAL INSTITUTE,133227,College,COMILLA,COMILLA SADAR DAKSHIN,DHANISHWAR,91.19367,23.43817,451,1
BETAGAON ISLAMIA SENIOR MADRASHA,105935,Madrasha,COMILLA,COMILLA SADAR DAKSHIN,BETAGAON,91.17221803,23.33025132,3952,1
KANCHANPUR ERRANIYA DAKHIL MADRASA,105158,Madrasha,COMILLA,BARURA,SAKPUR,91.02899482,23.35233379,3953,1
PIRKASHEMPUR DAKHIL MADRASHA,106038,Madrasha,COMILLA,MURADNAGAR,KASHIMPUR,90.98768607,23.77470755,3954,1
BAKHAR NAGAR HASHEMIA ISLAMIA FAZIL MADRASHA,106035,Madrasha,COMILLA,MURADNAGAR,BAKHARNAGAR,90.96998806,23.65625323,3955,1
COMPANIGONJ ISLAMIA DAKHIL MADRASAH,106036,Madrasha,COMILLA,MURADNAGAR,TRISH,90.96829234,23.63658428,3956,1
MOHALAXMIPARA ALIM MADRASH,105232,Madrasha,COMILLA,BRAHMAN PARA,MAHALAKSHMI PARA,92.05028,21.41103,3959,1
NAIGHAR  ISLAMIA  DAKHIL  MADRASH,105242,Madrasha,COMILLA,BRAHMAN PARA,NAIGHAR,91.10706,23.59156,3960,1
BALINA ISLAMIA ALIM  MADRASH,105233,Madrasha,COMILLA,BRAHMAN PARA,DULALPUR,91.06067,23.70756,3961,1
GOPAL  NAGAR  ISLAMIA  DAKHIL  MADRASH,105236,Madrasha,COMILLA,BRAHMAN PARA,GOPALNAGAR,91.09164,23.63497,3962,1
BARADOSHI  ISLAMIA  DAKHIL  MADRASHA,105235,Madrasha,COMILLA,BRAHMAN PARA,BARA DHUSIA,91.08653,23.61633,3963,1
CHANDLA ISLAMIA GOWSIA ALIM MADRASH,105238,Madrasha,COMILLA,BRAHMAN PARA,PASCHIM CHANDLA,91.06839,23.63419,3964,1
PURBA POKARA JINNATIA M.HOSSAIN KADERIA dakhil madrasha,105237,Madrasha,COMILLA,BRAHMAN PARA,PURBA POMKARA,91.07861,23.60781,3965,1
SHIDLAI DARUL ISLAM FAZIL MADRASHA,105234,Madrasha,COMILLA,BRAHMAN PARA,SIDLAI,91.10719,23.64494,3966,1
SHIDLI  KHADIJATUL  KUBRA  MOHELA  DAKHIL MADRASHA,105241,Madrasha,COMILLA,BRAHMAN PARA,SIDLAI,91.10675,23.64283,3967,1
SAITSHALA DARUS SUNNAH DAKHIL MADRASHA,105227,Madrasha,COMILLA,BRAHMAN PARA,SHAITSALA,91.06886,23.64408,3968,1
KANDUGHAR ISLAMIA SR. ALIM MADRASAH,105226,Madrasha,COMILLA,BRAHMAN PARA,KANDUGHAR,91.08581,23.64836,3969,1
SAHEBABAD ISLAMIA FAZIL MADRASH,105229,Madrasha,COMILLA,BRAHMAN PARA,SAHEBABAD,91.0885,23.641,3970,1
TATERA  HAZI  MASTER  REHANUDDIN  AKHAND  MOHILA DAKHIL  MADRASH,105244,Madrasha,COMILLA,BRAHMAN PARA,TATERA,91.06008,23.7285,3971,1
FAYEZIA  RAZZAQUIA  ISLAMIA  DAKHIL  MADRASH,105246,Madrasha,COMILLA,BRAHMAN PARA,NAGAISH,91.06158,23.68894,3972,1
BAKSHIMUL SUNNIA ISLAMIA SENIOR MADRASHA,105315,Madrasha,COMILLA,BURICHANG,BAKSIMAIL,91.10928,23.60206,3973,1
CHHAYGRAM ALIM MADRASAH,105302,Madrasha,COMILLA,BURICHANG,CHHOTA HARIPUR,91.12061,23.67342,3974,1
ADBARPUR D.S.ISLAMIA DAKHIL MADRASHA,131602,Madrasha,COMILLA,BURICHANG,BHARELLA,91.18236,23.53425,3975,1
PARUARA  ISLAMIA DAKHIL MADRASAH,105299,Madrasha,COMILLA,BURICHANG,PAROWARA,91.17381,23.56975,3976,1
KANGSANAGAR ISLAMIA ALIM MADRASHA,105312,Madrasha,COMILLA,BURICHANG,BHARELLA,91.06083,23.53164,3977,1
RAMPUR HAZI AFSAR UDDIN ISLAMIA MOHILA MADRASAH,105320,Madrasha,COMILLA,BURICHANG,BHARELLA,91.05969,23.55453,3978,1
BHARELLA SHAH ISRAIL KAMIL MADRASHA,105307,Madrasha,COMILLA,BURICHANG,BHARELLA,91.08417,23.53067,3979,1
BURICHANG ISLAMIA SUNNIA ALIM MADRASAH,105303,Madrasha,COMILLA,BURICHANG,BARA BIJOYPUR (BURICHANG),91.12825,23.55144,3980,1
KACHIRATOLA DEBPUR MADINATOL ULOM DHAKHIL MADRASAH,105327,Madrasha,COMILLA,BURICHANG,DEBPUR,91.11806,23.58133,3981,1
MAYNAMOTI DARUS SUNNAH DAKHIL MADRASA,105296,Madrasha,COMILLA,BURICHANG,SAHA DAULATPUR,91.12967,23.55594,3982,1
AL HAJ ABDUL HAQUE KHANDAKAR MOHILA DAKHIL MADRASA,105329,Madrasha,COMILLA,BURICHANG,KALAKACHUA,91.12947,23.54981,3983,1
FAKIR BAZAR ISLAMIA SUNNIA SENIOR ALIM MADRASHA,105317,Madrasha,COMILLA,BURICHANG,KHARERA,91.10436,23.49656,3984,1
GAWSUL AZAM ABDUL KADER ZILANI (R) ALIM MADRASHA,105318,Madrasha,COMILLA,BURICHANG,ABIDPUR,91.09961,23.47733,3985,1
KORPAI KAKIARCHAR ISLAMIA FAZIL MADRASAH,105309,Madrasha,COMILLA,BURICHANG,KORPAI,91.10639,23.49878,3986,1
SHIKARPUR DARUL QURAN JILANI ALIM MADRASHA,105316,Madrasha,COMILLA,BURICHANG,PASCHIM SIKARPUR,91.07756,23.50058,3987,1
GOSHAIPUR K.G.K ISLAMIA DAKHIL MADRASAH,105301,Madrasha,COMILLA,BURICHANG,GOSHAIPUR,91.03792,23.48028,3988,1
SADAKPUR ISLAMIA GIRLS DAKHIL MADRASAH,105324,Madrasha,COMILLA,BURICHANG,SADAKPUR,91.05725,23.48258,3989,1
SREEPUR ISLAMIA FAZIL MADRASHA,105304,Madrasha,COMILLA,BURICHANG,SREEPUR (SAMANTAPUR),91.06208,23.50064,3990,1
SDAKPUR ISLAMIA ALIM MADRASHA,105298,Madrasha,COMILLA,BURICHANG,SADAKPUR,91.04897,23.52125,3991,1
BARESSWAR HARUNOR RASHID DAKHIL MADRASAH,105314,Madrasha,COMILLA,BURICHANG,BARESHWAR,91.10267,23.56347,3992,1
CHARANAL HASANIA ISLAMIA DAKHIL MADRASAH,105310,Madrasha,COMILLA,BURICHANG,CHARNAL,91.10136,23.53194,3993,1
RAJAPUR S.M. CHOWDHURY ADARSHA DAKHIL MADRASAH,105504,Madrasha,COMILLA,BURICHANG,RAJAPUR,91.09864,23.56108,3994,1
LORIBAG ISLAMIA DAKHIL MADRASAH,105328,Madrasha,COMILLA,BURICHANG,LARIBAGH,91.13306,23.59383,3995,1
SHANKUCHAIL ISLAMIA DAKHIL MADRASAH,105297,Madrasha,COMILLA,BURICHANG,SANKOCHAIL,91.14994,23.59817,3996,1
NANUAR BAZAR SHUNNIA ISLAMIA DHAKIL MAD,105300,Madrasha,COMILLA,BURICHANG,BERAJAL KADAMTALI,91.15764,23.58561,3997,1
ICHAPURA ISLAMIA DAKHIL MADRASAH,105323,Madrasha,COMILLA,BURICHANG,ICHHAPUR,91.14644,23.50619,3998,1
KHARATIYA ISLAMIA GIRL'S DAKHIL MADRASAH,105319,Madrasha,COMILLA,BURICHANG,KHARATIA,91.13053,23.48789,3999,1
KHARATAIYA ISLAMIA FAZIL MADRASAH,105308,Madrasha,COMILLA,BURICHANG,KHARATIA,91.12536,23.52981,4000,1
HOSSAINPUR DARUSSUNNAT MINHAZIA DAKHIL MADRASHA,105382,Madrasha,COMILLA,CHANDINA,UTTAR HOSSAINPUR,91.18136,23.54706,4001,1
AMBERPUR BAITUL JANNAT ISLAMIA DAKHIL MADRASAH,105395,Madrasha,COMILLA,CHANDINA,PASCHIM AMBARPUR,91.15928,23.54278,4002,1
GOLLAI Ismail DAKHIL MADRASHA,105397,Madrasha,COMILLA,CHANDINA,GALLAI,91.00606,23.48375,4003,1
BARKARI PIR MONZIL DAKHIL MADRASHA,105376,Madrasha,COMILLA,CHANDINA,BARA KARAI,91.00739,23.48675,4004,1
JOAG NOWAGON DAKHIL MADRASHA,105381,Madrasha,COMILLA,CHANDINA,JOYAG,90.96408,23.40356,4005,1
LASHMIPUR ALIM MADRASAH,105377,Madrasha,COMILLA,CHANDINA,KAILAIN,90.89914,23.40775,4006,1
PIHAR RAHMANIA ISLAMIA DAKHIL MADRASHA,105392,Madrasha,COMILLA,CHANDINA,PIHAR,90.92664,23.39797,4007,1
ABEDA NOOR FAZIL MADRASHA,105374,Madrasha,COMILLA,CHANDINA,GALLAI,90.93242,23.18764,4008,1
KANGAI (P) PARA MOHILA DAKHIL MADRASHA,105399,Madrasha,COMILLA,CHANDINA,KANGAI,90.94578,23.36164,4009,1
RANICHaRA ADARSAH BALIKA DAKHIL MADRASHA,131828,Madrasha,COMILLA,CHANDINA,RANICHARA,90.90578,23.43808,4010,1
NAUTALA ISLAMIA ALIM MADRASHA,105378,Madrasha,COMILLA,CHANDINA,NAUTALA,90.928,23.40022,4011,1
BADARPUR NASARIA FAZIL MADRASAH,105380,Madrasha,COMILLA,CHANDINA,MAIJKHARA,90.93817,23.50289,4012,1
PANI PARA ALIM MADRASHA,105379,Madrasha,COMILLA,CHANDINA,PANIKHORA,90.92192,23.50592,4013,1
TAMTA ISLAMIA DAKHIL MADRASHA,105389,Madrasha,COMILLA,CHANDINA,TAMTA,90.97906,23.42033,4014,1
BATAGHALI ISLAMIA DAKHIL MADRASAH,105390,Madrasha,COMILLA,CHANDINA,BATAKASHI,90.934,23.50372,4015,1
PURBA MAIZKHAR MAHILA DAKHIL MADRASHA,105385,Madrasha,COMILLA,CHANDINA,MAIJKHARA,90.97114,23.44167,4016,1
MOHONPUR ISLAMIA DAKHIL MADRASHA,105394,Madrasha,COMILLA,CHANDINA,MOHANPUR,91.00153,23.42578,4017,1
TIRCHAR ATIQUIA ISLAMIA ALIM ,ADRASHA,105386,Madrasha,COMILLA,CHANDINA,TIRCHO,90.98983,23.42978,4018,1
SATGOWN UTTAR KRISNAPUR NASARIA DAKHIL MADRASHA,105384,Madrasha,COMILLA,CHANDINA,UTTAR KRISHNAPUR,90.99353,23.42442,4019,1
BARIYA KRISHNA PUR AL AMIN FAZIL MADRASHA,105383,Madrasha,COMILLA,CHANDINA,BOKHAI,90.9675,23.41303,4020,1
FENUA GIRLS DAKHIL MADRASHA,105909,Madrasha,COMILLA,MANOHARGANJ,BARALLAH,90.8925,23.47689,4021,1
KATUNIPARA DARUL ULUM DAKHIL MADRASHA,105911,Madrasha,COMILLA,MANOHARGANJ,BARALLAH,90.97069,23.44719,4022,1
DADGHAR KEARI DAKHIL MADRASAH,105923,Madrasha,COMILLA,MANOHARGANJ,KEARI,91.10272,23.14933,4023,1
BIPUL ASHAR FAZIL MADRASHA,105920,Madrasha,COMILLA,MANOHARGANJ,KANCHI,91.04028,23.12844,4024,1
HASNABAD A. HAKIM DAKHIL MADRASAH,105932,Madrasha,COMILLA,MANOHARGANJ,HASNABAD,91.01339,23.1545,4025,1
BANDUAIN ISLAMIA DAKHIL MADRASHA,105946,Madrasha,COMILLA,MANOHARGANJ,BANDUAIN,91.04,23.13328,4026,1
BHOGAI ISLIMIA DAKHIL MADRASHA,131664,Madrasha,COMILLA,MANOHARGANJ,BHOGAI,91.003,23.12564,4027,1
SAHAPUR ISLAMIA FAZIL MADRASHA,105928,Madrasha,COMILLA,MANOHARGANJ,PASCHIM SAHAPUR,91.10586,23.16381,4028,1
DAKHIN SREEPUR D.S.I DAKHIL MADRASHA,105492,Madrasha,COMILLA,CHAUDDAGRAM,GUNABATI,91.04669,23.08844,4030,1
BAKGRAM ISLAMIA DAKHIL MADRASHA,105501,Madrasha,COMILLA,CHAUDDAGRAM,BAKAGRAM,91.08669,23.15311,4031,1
KULASAR MOHAMMADIA DAKHIL MADRASHA,105484,Madrasha,COMILLA,CHAUDDAGRAM,DHOPAKHILA,91.30856,23.07275,4032,1
SHILORI HOSSAINIA DAKHIL MADRASHA,105486,Madrasha,COMILLA,CHAUDDAGRAM,SILARI,91.32892,23.07069,4033,1
MOFIZIA HAIDARIA ISLAMIA MADRASHA,105497,Madrasha,COMILLA,CHAUDDAGRAM,PASCHIM DAKRA,91.31169,23.05894,4034,1
BASANTAPUR ISLAMIA ALIM MADRASAH,105479,Madrasha,COMILLA,CHAUDDAGRAM,BASANTAPUR,91.33914,23.07944,4035,1
KRISNAPUR DARUSSUNNAH DAKHIL MADRASHA,105493,Madrasha,COMILLA,CHAUDDAGRAM,KRISHNAPUR,91.30753,23.16942,4036,1
CHEORA AJGARIA FAZIL MADRASHA,105481,Madrasha,COMILLA,CHAUDDAGRAM,CHIARA,91.31642,23.19333,4037,1
M.H.ABDULLAH AL  GOFILY GIRL'S DAKHIL MADRASHA,105473,Madrasha,COMILLA,CHAUDDAGRAM,FULGRAM,91.31044,23.15239,4038,1
DHORKARA KADERIA ALIM MADRASHA,105477,Madrasha,COMILLA,CHAUDDAGRAM,DHURKARA,91.31139,23.14592,4039,1
DARUS SALAM MOHILA DAKHIL MADRASHA,105495,Madrasha,COMILLA,CHAUDDAGRAM,GUNABATI,91.31281,23.14561,4040,1
GUNaBATI  FAZIL MADRASHA,105478,Madrasha,COMILLA,CHAUDDAGRAM,KARTAM (MADHYADIHI),91.28397,23.14081,4041,1
 B S RAHMANIA DAKHIL MADRASHA,105468,Madrasha,COMILLA,CHAUDDAGRAM,BIJOYKARA,91.29931,23.08894,4043,1
MORKOTA ISLIMIA  ALIM MADRASHA,105482,Madrasha,COMILLA,CHAUDDAGRAM,MARKOTA,91.31467,23.09389,4044,1
SUPUA SAFARIA FAZIL MADRASHA,105476,Madrasha,COMILLA,CHAUDDAGRAM,CHHAPUA (BARDANBARI),91.29858,23.09036,4045,1
BHULKARA ISLAMIA ALIM MADRASHAH,105464,Madrasha,COMILLA,CHAUDDAGRAM,FULGRAM,91.27089,23.19478,4046,1
HAZI SIRAJUL ISLAM BHUYAN GIRLS DAKHIL MADRASAH,105459,Madrasha,COMILLA,CHAUDDAGRAM,ATAKARA,91.32878,23.11233,4047,1
BOSHKARA ISLAMIA DAKHIL MADRASHA,105466,Madrasha,COMILLA,CHAUDDAGRAM,BASANTAPUR,91.28578,23.30789,4048,1
EID GAH SAFIQIA ISLAMIA DAKHIL MADRASHA,105474,Madrasha,COMILLA,CHAUDDAGRAM,MASKARA,91.28747,23.16742,4049,1
KASHINAGAR   ISLAMIA   ALIM  MADRASHA,105472,Madrasha,COMILLA,CHAUDDAGRAM,JATRAPUR,91.29167,23.18875,4050,1
ASHADIA AZIZIA BALIKA DAKHIL MADRASHA,105463,Madrasha,COMILLA,CHAUDDAGRAM,ASHWADIA,91.28211,23.20439,4051,1
JUGIR KANDI H.K.D.MADRASHA,105488,Madrasha,COMILLA,CHAUDDAGRAM,JUGIRKANDI,91.27392,23.32928,4052,1
CHANDUL ADRASHA ISLAMIA BALIKA DAKHIL  MADRASAH,105499,Madrasha,COMILLA,CHAUDDAGRAM,CHANDUL,91.22325,23.32008,4053,1
PROTAPPUR ISLAMIA ALIM MADRASHA,105487,Madrasha,COMILLA,CHAUDDAGRAM,BRAHMAPUR,91.22186,23.31983,4054,1
MANIKPUR D.S GIRLS ALIM MADRASAH,105489,Madrasha,COMILLA,CHAUDDAGRAM,MANIKPUR,91.20722,23.34058,4055,1
MOJADDEDIA BARAKATIA DAKHIL MADRASA,105905,Madrasha,COMILLA,LAKSAM,BARA RAJAPUR,91.21856,23.33261,4056,1
KALIAPUR QAZIM UDDIN SYED ALI ALIM MADRASHA,105931,Madrasha,COMILLA,LAKSAM,SREE ANGA,91.26753,23.34164,4057,1
PASAPUR MOHILA DAKHIL MADRASAH,105944,Madrasha,COMILLA,LAKSAM,PASAPUR,91.26092,23.34431,4058,1
NARAYANPUR DAKHIL MADRASA,105929,Madrasha,COMILLA,LAKSAM,UTTAR NARAYANPUR,91.03489,23.21461,4060,1
HATILOTA DARUSSONNATH NASARIA DAKHIL MADRASHA,105910,Madrasha,COMILLA,LAKSAM,HATILOTA,91.11544,23.23467,4061,1
BIZRA NAZIRIA FAZIL MADRASHA,105919,Madrasha,COMILLA,LAKSAM,BIJRA,91.10786,23.21219,4062,1
DAULAT GANJ GAZIMURA KAMIL MADRASAH,105901,Madrasha,COMILLA,LAKSAM,GAZIMURA,91.11686,23.32003,4063,1
AL-HEDAYAH ISLAMIA MOHILA MADRASHA,105902,Madrasha,COMILLA,LAKSAM,UTTAR PASCHHIM GAON,91.11203,23.31672,4064,1
DAUDKANDI MADINA ULUM ISLAMIA FAZIL MADRASHA,105565,Madrasha,COMILLA,DAUDKANDI,OJARBHANGA,91.11231,23.22908,4065,1
VAZRA AYUB ALI ISLAMIA DAKHIL MADRASAH,131604,Madrasha,COMILLA,DAUDKANDI,BHAJRA,90.74169,23.53833,4066,1
NAIYAIR ISLAMIA FAZIL MADRASHA,105562,Madrasha,COMILLA,DAUDKANDI,NAIAIR,90.72233,23.56897,4067,1
CHASAI DhARIBAN M B DAKHIL MADRASHA,105563,Madrasha,COMILLA,DAUDKANDI,MARUKA,90.77331,23.47025,4068,1
PIPAYAKANDI AMANUL ULUM ISLAMIA SR. MADRASAH,105564,Madrasha,COMILLA,DAUDKANDI,PEPAIAKANDI,90.77136,23.46833,4069,1
SREE CHAIL MOHAMMEDPUR ISLAMIA ALIM MADRASAH,105572,Madrasha,COMILLA,DAUDKANDI,BARA MOHAMMADPUR,90.79797,23.4925,4070,1
KAWADI SENIOR FAZIL MADRASHA,105559,Madrasha,COMILLA,DAUDKANDI,KAUADI,90.78714,23.54244,4071,1
TALERSEO  NESARIA  ALIM MADRASAH,105561,Madrasha,COMILLA,DAUDKANDI,TALER CHHEO,90.80061,23.49614,4072,1
GOALMARI CHOWDURI BARI DARUNNAJAT MOHILA DAKHIL MADRASAH,131848,Madrasha,COMILLA,DAUDKANDI,RAMAITKANDI(PART) GOAILMARI,90.83461,23.50806,4073,1
DOSHPARA HAZRAT KABIR UDDIN KAMIL MADRASHA,105566,Madrasha,COMILLA,DAUDKANDI,SUNDALPUR,90.69286,23.48736,4074,1
HOMNA ISLAMIA DHAKIL MADRASHA,105686,Madrasha,COMILLA,HOMNA,HOMNA (PART),90.71389,23.45314,4075,1
DULALPUR ALHAJ BEGUM KAFIL UDDIN DAKHIL MADRASHA,105687,Madrasha,COMILLA,HOMNA,DULALPUR,90.75481,23.50997,4076,1
DALPA NEDA-E-ISLAM DAKHIL MADRASAH,106037,Madrasha,COMILLA,MURADNAGAR,ANDIKOT,90.78736,23.68672,4077,1
KHAMAR GRAM O.S. ISLAMIA ALIM MADRASHA,106032,Madrasha,COMILLA,MURADNAGAR,KHAMARGAON,90.81014,23.72489,4078,1
PARAMTALA IDRISA FAZIL MADRASHA,106031,Madrasha,COMILLA,MURADNAGAR,PARAMTALA,91.04739,23.73292,4079,1
DHAMGHAR S.K. ALIM MADRASHA,106042,Madrasha,COMILLA,MURADNAGAR,DHAMGHAR,90.99286,23.71436,4080,1
KAMALLA MADINATUL ULUM FAZIL MADRASHA,106039,Madrasha,COMILLA,MURADNAGAR,KAMALLA,90.97308,23.69822,4081,1
GUNJAR ISLAMIA ALIM MADRASHA,106054,Madrasha,COMILLA,MURADNAGAR,GUNJAR,90.93117,23.62814,4082,1
SHARMA KANDA IS AD DAKHIL MADRASHA,106052,Madrasha,COMILLA,MURADNAGAR,PAHARPUR,90.91919,23.69558,4083,1
NOAPUSKURENI KERAMOTIA DAKHIL MADRASHA,106047,Madrasha,COMILLA,MURADNAGAR,BABUTI PARA,90.92961,23.63656,4084,1
PANTI MADINATUL UILM ADRASH DAKHIL MADRASHA,106043,Madrasha,COMILLA,MURADNAGAR,PANTI,90.93114,23.63731,4085,1
RAMCHANDRAPUR SONA MIAH MOLLA DARUL ULUM DAKHIL MADRASAH,106057,Madrasha,COMILLA,MURADNAGAR,BAKHRABAD,90.89242,23.52444,4086,1
UTTAR PENNAI DARUL ISLAM DAKHIL MADRASAH,106029,Madrasha,COMILLA,MURADNAGAR,UTTAR PENNAI,90.88092,23.71383,4087,1
NABIABAD ALHAZ ABDUL WADUD SARKER FAZIL MADRASAH,106055,Madrasha,COMILLA,MURADNAGAR,NABIABAD,90.88517,23.71775,4088,1
BRAmMaNCHaR NOwAGAON  ALIM  MADRASAh,105975,Madrasha,COMILLA,MEGHNA,BRAHMAN CHAR,90.89881,23.77872,4089,1
BAGMARA ISLAMIA ALIM MADRASHA,105641,Madrasha,COMILLA,DEBIDWAR,BAGHMARA,91.04661,23.53611,4092,1
NABIABAD ISLAMIA DAKHIL MADRASHA,105645,Madrasha,COMILLA,DEBIDWAR,NABIABAD,91.01922,23.52514,4093,1
FATEHABAD PEER SHAHEB MAOLANA FAZLUL HOQUE JAMEA ISLAMIA ALIM MADRASHA,105644,Madrasha,COMILLA,DEBIDWAR,PURBA FATEHABAD,91.01975,23.52525,4094,1
JOYPUR M.B. FAZIL MADRASHA,105648,Madrasha,COMILLA,DEBIDWAR,JOYPUR,91.00778,23.49803,4095,1
SULTANPUR FAZIL MADRASHA,105635,Madrasha,COMILLA,DEBIDWAR,SULTANPUR,91.03886,23.58572,4096,1
CHANDRA NAGAR ISLAMI DAKHIL MADRASAHA,105640,Madrasha,COMILLA,DEBIDWAR,CHANDRANAGAR,91.04781,23.6045,4097,1
CHARBAKOR D.S.I ALIM MADRASHA,105639,Madrasha,COMILLA,DEBIDWAR,CHAR BAKHAR,91.00942,23.58003,4098,1
JAFARGANJ DARUSSUNNAT ISLAMIA D.MADRASHA,105652,Madrasha,COMILLA,DEBIDWAR,JAFARGANJ,91.01244,23.59081,4099,1
ALAHABA D.J.S. DHAKHIL MADRASAH,105637,Madrasha,COMILLA,DEBIDWAR,ELAHABAD,91.03956,23.56314,4100,1
MOHAMMADPUR ISLAMIA ALIM MADRASHA,105649,Madrasha,COMILLA,DEBIDWAR,MAGH PUSKARINI,91.02375,23.5865,4101,1
WAHEDPUR ISLAMIA ALIM MADRASAH,105642,Madrasha,COMILLA,DEBIDWAR,WAHEDPUR,91.00969,23.56564,4102,1
SUBIL SALIM ULLAH ISLAMIA DAHKHIL MADRASHA,105656,Madrasha,COMILLA,DEBIDWAR,SUBIL,91.01528,23.54106,4103,1
MANWARA MAHMUDA BALIKA DAKHIL MADRASHA,106149,Madrasha,COMILLA,NANGALKOT,NANGALKOT,91.00594,23.63531,4104,1
SRIKAMATA MOHILA DAKHIL MADRASAH,106155,Madrasha,COMILLA,NANGALKOT,SREEKAMTA,91.20836,23.16556,4105,1
BHOLAIN BAZAR ALIM MADRASHA,106134,Madrasha,COMILLA,NANGALKOT,BHULAIN,91.17128,23.16944,4106,1
PUZ KARA ISLAMIA KARIGORY DAKHIL MADRASHA,106157,Madrasha,COMILLA,NANGALKOT,PUJKARA,91.19658,23.1515,4107,1
DAKKHIN SREEHASYA NESARIYA DAKHIL MADRASHA,106143,Madrasha,COMILLA,NANGALKOT,SREEHASYA,91.17289,23.13622,4109,1
MARKOT D S D MADRASHA,106146,Madrasha,COMILLA,NANGALKOT,BELGHAR,91.14517,23.13797,4111,1
BANGODDA FAZIL MADRASA,106130,Madrasha,COMILLA,NANGALKOT,BANGODDA,91.14569,23.13675,4112,2
BANGODDA BALIKA DAKHIL MADRASA,106127,Madrasha,COMILLA,NANGALKOT,BANGODDA,91.20847,23.16561,4113,1
SHAMPUR EKHLASIA MOHILA DAKHIL  MADRASA,106152,Madrasha,COMILLA,NANGALKOT,SHYAMPUR,91.19778,23.1315,4114,1
MONTALI RAHMANIA FAZIL MADRASAH,106118,Madrasha,COMILLA,NANGALKOT,JHIKOTIA,91.12808,23.13239,4115,1
PURBA BAM PARA MADANIA DAKHIL MADRASAH,106135,Madrasha,COMILLA,NANGALKOT,PURBA BAMPARA,91.14569,23.13675,4116,2
BAKSHA GONJ ISLAMIA SENIOR ALIM MADRASA,106126,Madrasha,COMILLA,NANGALKOT,KOKALI,91.24592,23.23417,4117,1
SHOVAPUR ISLAMIA DAKHIL MADRASHA,131587,Madrasha,COMILLA,NANGALKOT,DAKSHIN SUBHAPUR,91.24136,23.18464,4118,1
AL JAMEATUL ARABIA AL-ISLAMIA DAKHIL MADRASAH,106153,Madrasha,COMILLA,NANGALKOT,BAYRA,91.23611,23.06775,4119,1
DHALUA RAHMOTIA ALIM MADRASAH,106129,Madrasha,COMILLA,NANGALKOT,DHALUA,91.24692,23.09153,4120,1
SIJEARA KADERIA (R.H.) DAKHIL MADRASAH,106137,Madrasha,COMILLA,NANGALKOT,SINGARIA,91.24594,23.09853,4121,1
AYETPARA  AZIZIA ALIM MADRASA,106132,Madrasha,COMILLA,NANGALKOT,DAULKHAR,91.26253,23.09494,4122,1
KANDAL AKTARUL ULUM ISLAMIA DAKHIL MADRASAH,106141,Madrasha,COMILLA,NANGALKOT,KANDAL,91.25228,23.1135,4123,1
KASHIPUR NESARIA DAKHIL BALIKA MADRASAH,106144,Madrasha,COMILLA,NANGALKOT,KASHIPUR,91.20433,23.07925,4124,1
BATTALI SHAMSUL ULUM DAKHIL MADRASA,106151,Madrasha,COMILLA,NANGALKOT,DAKSHIN LAKSHMIPUR,91.24128,23.12217,4125,1
KASHIPUR NORTH EAST PARA ISLAMIA DAKHIL GIRLS MADRASHA,106156,Madrasha,COMILLA,NANGALKOT,KASHIPUR,91.17494,23.07467,4126,1
PATWAR FAZIL MADRASAH,106131,Madrasha,COMILLA,NANGALKOT,PATOAR,91.17475,23.08661,4127,1
HESHAKHAL BAZAR ISLAMIA DAKHIL MADRASAH,106140,Madrasha,COMILLA,NANGALKOT,HESAKHAL,91.16586,23.07725,4128,1
PATWAR SADAQIA BALIKA DAKHIL MADRASAH,106142,Madrasha,COMILLA,NANGALKOT,PATOAR,91.20489,23.10667,4129,1
JODDA BAZAR SIDDIKIA ALIM MADRASHA,106136,Madrasha,COMILLA,NANGALKOT,JODDA,91.16278,23.17636,4130,1
CHADIA BAZAR ALIM MADRASHA,106123,Madrasha,COMILLA,NANGALKOT,PASCHIM NOAPARA,91.16097,23.17683,4131,1
PANKARA DARUSSUNNAT M D MADRASA,106125,Madrasha,COMILLA,NANGALKOT,PANKARA,91.15167,23.10939,4132,1
MABDRA H.B (RH) ISLAMIA DAKHIL MADRASHA,106138,Madrasha,COMILLA,NANGALKOT,MANDRA,91.19853,23.1045,4133,1
MOKRA  DARUSSNAT  NESARIA  FAZIL MADRASA,106133,Madrasha,COMILLA,NANGALKOT,MOKARA,91.1895,23.13214,4134,1
CHANDISH AL HAZ OLIMIA ISLAMIA ALIM MADRASAH,106145,Madrasha,COMILLA,NANGALKOT,BISHNUPUR,91.19025,23.13236,4135,1
GOMKOT DIDARUL ISLAM GIRLS DAKHIL MADRASA,106148,Madrasha,COMILLA,NANGALKOT,GOMKOT,91.1905,23.11731,4136,1
TILIP SUFIA NURIA SENIOR MADRASA,106122,Madrasha,COMILLA,NANGALKOT,TELIP,91.21161,23.12811,4138,1
HAPANIA FAIZUL ULUM ALIM MADRASHA,106139,Madrasha,COMILLA,NANGALKOT,TUA,91.00511,23.151,4139,1
DASNAIPARA ISLAMIA GIRL DAKHIL MADRASAH,106154,Madrasha,COMILLA,NANGALKOT,DASNARA,91.21283,23.23083,4140,1
CHARIJANIA ZAMEA AL SALEHIA DINAI DAKHIL MADRASAH,106120,Madrasha,COMILLA,NANGALKOT,CHARIJANIA,91.212,23.22392,4141,1
MAHINE LOTIFIA ANAMIA MOHILA MADRASHA,106128,Madrasha,COMILLA,NANGALKOT,ROYKOT,91.23033,23.20208,4142,1
MONGAL KANDI ISLAMIA FAZIL MADRASHA,105568,Madrasha,COMILLA,TITAS,UTTAR SATANI,91.24169,23.19644,4143,1
MOHANPUR DAKHIL MADRASHA,105574,Madrasha,COMILLA,TITAS,MOHANPUR,91.2455,23.16272,4144,1
MOUTUPI ISLAMIA DAKHIL MADRASHA,105570,Madrasha,COMILLA,TITAS,MATAPI,91.24492,23.19175,4145,1
SHAHPUR ANOWARUL HOQUE DAKHIL MADRASHA,131576,Madrasha,COMILLA,TITAS,SAHAPUR,91.23425,23.21175,4146,1
DUDHGHATA NORE MOHAMMAD DAKHIL MADRASHS,105573,Madrasha,COMILLA,TITAS,DUDHGHATA,91.23692,23.20319,4147,1
NEWRA SYEDPUR RAZZAQUIA ISLAMIA DAKHIL MADRASAH,105738,Madrasha,COMILLA,COMILLA SADAR DAKSHIN,NEORA SAIDPUR,90.77883,23.57178,4148,1
JAYNAGAR DAKHIL MADRASAH,105938,Madrasha,COMILLA,COMILLA SADAR DAKSHIN,JOYNAGAR,91.17286,23.44664,4149,1
BARAL ISLAMIA  DAKHIL  MADRASHA,105917,Madrasha,COMILLA,COMILLA SADAR DAKSHIN,BARAL,91.17875,23.9485,4150,1
SHIDUCHI  HIJBULLAH   MAHILA  DAKHIL MADRASHA,105903,Madrasha,COMILLA,COMILLA SADAR DAKSHIN,SIDUCHI,91.18133,23.4495,4151,1
JUKTIKHOLA FAZIL MADRASA,105912,Madrasha,COMILLA,COMILLA SADAR DAKSHIN,AZABPUR,91.14856,23.44289,4152,1
LATIFIA ANAMIA MOHILA DAKHIL MADRASAH,105951,Madrasha,COMILLA,COMILLA SADAR DAKSHIN,UDANIA,91.13625,23.43831,4153,1
BUSCHI HABIBIA GIRL'S ALIM MADRASAH,105906,Madrasha,COMILLA,COMILLA SADAR DAKSHIN,BHUSCHI,91.13708,23.43628,4154,1
BAGMARA  CHANGAHATA   MAHILA  DAKHIL MADRASHA,105952,Madrasha,COMILLA,COMILLA SADAR DAKSHIN,BARA CHENGAHATA,91.14128,23.43808,4155,1
HALADIA OSMANIA   MAHILA ALIM MADRASHA,105940,Madrasha,COMILLA,COMILLA SADAR DAKSHIN,HALDIA,91.14136,23.47256,4156,1
RATON PUR  SENIOR  ALIM  MADRASHA,105733,Madrasha,COMILLA,COMILLA SADAR DAKSHIN,BARA PARA,91.17219,23.40392,4160,1
RAYPUR  MADINATUL   ULUM  ISLAMIA  DAKHIL  MADRASHA,105948,Madrasha,COMILLA,COMILLA SADAR DAKSHIN,RAIPUR,91.1588,23.38426,4161,1
MOHANPUR ALIM MADRASAH,105925,Madrasha,COMILLA,LAKSAM,MOHANPUR,91.14617,23.34001,4162,1
PANCHTHUBI AHAMADIA FAZIL MADRASA,105160,Madrasha,COMILLA,BARURA,PANCHTHUBI,91.18361,23.33282,4164,1
N D MUNSHI KALIN ULLAH ISLAMIA DAKHIL MADRASHA,105180,Madrasha,COMILLA,BARURA,NAYAPARA,91.17909,23.33051,4165,1
KALORA ALHAJ MD.JANAB ALI MOHILA DAKHIL MADRASHA,105163,Madrasha,COMILLA,BARURA,KALARA,91.04475,23.26978,4166,2
KAJKAMTA ASHRAFIA ALIM MADRASHA,105175,Madrasha,COMILLA,BARURA,KAJKAMTA,91.02998,23.23696,4167,1
SONAIMURI FAZIL MADRASHA,105157,Madrasha,COMILLA,BARURA,SONAIMURI,91.04289,23.26482,4168,1
EAKBARIA ALIM MADRASHA,105171,Madrasha,COMILLA,BARURA,EKABERIA,91.03023,23.29598,4169,1
SHAKPUR FAZIL MADRASHA,105172,Madrasha,COMILLA,BARURA,SAKPUR,90.98472,23.29917,4170,1
CHALITATALI DARUSSUNNAH ALIM MADRASHA,105177,Madrasha,COMILLA,BARURA,GHOSHPA,91.02065,23.32616,4171,1
JhAPUA ASHRAFIA ISLAMIA DAKHIL MADRASA,105179,Madrasha,COMILLA,BARURA,JHAPUA,91.0632,23.33827,4172,1
KRISNAPUR KHARUL DAKHIL MADRASA,105159,Madrasha,COMILLA,BARURA,KHARUL,91.08772,23.33068,4173,1
BOALIA BATENIA FAZIL MADRASHA,105168,Madrasha,COMILLA,BARURA,BOALIA,91.07946,23.33337,4174,1
SIDDIKUN NESA MAHILA DAKHIL MADRASA,105187,Madrasha,COMILLA,BARURA,CHOTA TALAGAON,91.0577,23.33091,4175,1
WALITALA FAZIL MADRASHA,105166,Madrasha,COMILLA,BARURA,NARASINGHPUR,90.98093,23.34293,4176,1
BAGABARIA ISLAMIA DAKIL MADRASHA,105181,Madrasha,COMILLA,BARURA,PEOR,90.99376,23.32898,4177,1
RAJAMARA  ALIM MADRASHA,105162,Madrasha,COMILLA,BARURA,MUGJI,90.98183,23.32596,4178,1
AGANAGAR ISLAMIA DAKIL MADRASHA,105173,Madrasha,COMILLA,BARURA,AGANAGAR,91.05337,23.42044,4179,1
BARAIPUR D S ISLAMIA DAKHIL MADRASHA,105178,Madrasha,COMILLA,BARURA,JAGADASAR,91.01519,23.39228,4180,1
BATAISORY DAkHIL MADRASHA,105165,Madrasha,COMILLA,BARURA,BHABANIPUR,91.02308,23.40644,4181,1
DIMDUL RAHMADIA SUNNIA DAKHIL MADRASA,105176,Madrasha,COMILLA,BARURA,DIMDOL,91.06585,23.4268,4182,1
BARURA SUNNIA KAMIL MADRASHA,105164,Madrasha,COMILLA,BARURA,BARURA (PART-2),91.09636,23.42095,4183,1
DEURA AjGARIA DAKHIL MADRASA,105161,Madrasha,COMILLA,BARURA,DEORA (EAST PART),91.10623,23.39566,4184,1
CHITADDA ISLAMIA DAKIL MADRASHA,105183,Madrasha,COMILLA,BARURA,CHITADDA,91.05932,23.37534,4186,1
KHALARPAR WAZEDIA FAZIL MADARASHA,105167,Madrasha,COMILLA,BARURA,JALAM,91.05079,23.37708,4187,1
BEOLINE MAHILA DAKHIL MADRASHA,105185,Madrasha,COMILLA,BARURA,BEOLAIN,91.05165,23.37241,4188,1
SHASHAIYA FAZIL DEGREE MADRASHA,105170,Madrasha,COMILLA,BARURA,SOSAIA,91.02947,23.3813,4189,1
DEWATALI ATIKIA DAKHIL MADRASA,105182,Madrasha,COMILLA,BARURA,DEUATALI,91.02777,23.34977,4190,1
DALUA TULAGAON DAKHIL MADRASA,105169,Madrasha,COMILLA,BARURA,DALUA,90.98757,23.35567,4191,1
RARI MAHILA DAKHIL MADRASA,105174,Madrasha,COMILLA,BARURA,GALIMPUR,91.12139,23.35491,4192,1
LAGNASHAR ISLAMIA DAKHIL MADRASA,105186,Madrasha,COMILLA,BARURA,LAGNASAR,91.05508,23.29102,4193,1
LOLBARIA HIGH SCHOOL,105723,School,COMILLA,COMILLA SADAR DAKSHIN,LOLBARI,91.12444048,23.27315115,12997,1
IQRA MODERN SCHOOL,131227,School,COMILLA,COMILLA ADARSHA SADAR,GUNANANDI,91.32544976,23.30713667,13003,1
MALEKA MOMATAZ GIRLS HIGH SCHOOL,131235,School,COMILLA,COMILLA ADARSHA SADAR,CHOTARA (PART),91.17671013,23.47209918,13004,1
SHASHAIYA D. M HIGH SCHOOL,105138,School,COMILLA,BARURA,SOSAIA,91.01415025,23.35098134,13007,1
KEMTALI TECHNICAL HIGH SCHOOL,105147,School,COMILLA,BARURA,PEOR,91.05877277,23.45499118,13008,1
AKUB PUR EAKUB ALI BUYAIN PUBLIC HIGH SCHOOL,105986,School,COMILLA,MURADNAGAR,AKUBPUR,91.01034121,23.7681122,13011,1
JANGAL BADSHA MIA IDEL GIRLS HIGH SCHOOL,106020,School,COMILLA,MURADNAGAR,GAZIPUR,90.99255716,23.78460332,13012,1
METONGGHAR BARRISTER RAFIQUL ISLAM MIA HIGH SCHOOL,105987,School,COMILLA,MURADNAGAR,METANGHAR,91.00229613,23.74309775,13013,1
PIRKASHIMPUR R.N. HIGH SCHOOL,105989,School,COMILLA,MURADNAGAR,KASHIMPUR,90.9940522,23.77093511,13014,1
ANDIkOT SAYED GOLAM JILANI HIGH SCHOOL,106005,School,COMILLA,MURADNAGAR,ANDIKOT,91.03031557,23.77262996,13015,1
BEGUM JAHANARA HAQUE GIRLS HIGH SCHOOL,106018,School,COMILLA,MURADNAGAR,HAIDARABAD,91.02933382,23.75900181,13016,1
NARGIS NAZRUL BIDHYA NIKETAN,106027,School,COMILLA,MURADNAGAR,DAULATPUR,90.99433879,23.72854854,13017,1
BAKHAR NAGAR UCHHA BIDYA NIKETAN,106019,School,COMILLA,MURADNAGAR,BAKHARNAGAR,90.97185947,23.66074701,13018,1
AZIFA KHATOON HIGH SCHOOL,106011,School,COMILLA,MURADNAGAR,DAKSHIN CHAPITALA,90.97701297,23.69908757,13019,1
LAL CHANDPUR HIGH SCHOOL,105839,School,COMILLA,MANOHARGANJ,LALCHANDPUR,91.0326813,23.19935818,13020,1
BHATORA KALJOYE BIDDA NIKATON,105423,School,COMILLA,CHAUDDAGRAM,BATARA,91.21426821,23.28098982,13021,1
JOY MANGALPUR ADARSHA HIGH SCHOOL,105448,School,COMILLA,CHAUDDAGRAM,JOYMANGALPUR,91.22231914,23.35982976,13022,1
RANIR BAZAR SECONDARY SCHOOL,105451,School,COMILLA,CHAUDDAGRAM,SAHAPUR PACHIM,91.20326703,23.3442205,13023,1
KASHINAGOR B.M. HIGH SCHOOL,105436,School,COMILLA,CHAUDDAGRAM,ALIPUR,91.22739022,23.32393973,13024,1
MEAH BAZAR TOSHAN RAFIQ GIRLS HIGH SCHOOL,105413,School,COMILLA,CHAUDDAGRAM,BELGHAR,91.27811235,23.33627606,13025,1
MEAH BAZAR LATIFUN NESA HIGH SCHOOL,105517,School,COMILLA,CHAUDDAGRAM,BELGHAR,91.28339961,23.33455542,13026,1
PADUA SUFIA RAHMAN HIGH SCHOOL,105410,School,COMILLA,CHAUDDAGRAM,PADUA,91.34315384,23.08763878,13027,1
ALKARA HAFIZUL ISLAM CHOWDHURY HISH SCHOOL,105411,School,COMILLA,CHAUDDAGRAM,ALKARA,91.34775844,23.07206434,13028,1
KAJI AHMED ALI HIGH SCHOOL,105424,School,COMILLA,CHAUDDAGRAM,BAKAGRAM,91.31784333,23.06398391,13029,1
DHOPA KHILA HIGH SCHOOL,105447,School,COMILLA,CHAUDDAGRAM,DHOPAKHILA,91.32746485,23.07010603,13030,1
LAKSHMIPUR HIGH SCHOOL,105455,School,COMILLA,CHAUDDAGRAM,PASCHIM LAKSHMIPUR,91.33653131,23.07264882,13031,1
PAYERKHOLA R.M.B.R. GIRLS HIGH SCHOOL,105416,School,COMILLA,CHAUDDAGRAM,PAYERKHOLA,91.29252974,23.12371224,13036,1
PAYER KHOLA HIGH SCHOOL,105430,School,COMILLA,CHAUDDAGRAM,PAYERKHOLA,91.29262571,23.12060516,13037,1
BUDHARA HIGH SCHOOL,105453,School,COMILLA,CHAUDDAGRAM,BUDHRA,91.30680639,23.09407231,13041,1
CHANDKORA SAKADAR ALI SECONDARY SCHOOL,105439,School,COMILLA,CHAUDDAGRAM,DAKSHIN CHANDKARA,91.31150653,23.20597407,13042,1
LUDIARA JAHIR AHMAED GIRLS HIGH SCHOOL,105449,School,COMILLA,CHAUDDAGRAM,KANKAPAIT,91.28683599,23.20775382,13043,1
BATISA SECONDARY SCHOOL,105431,School,COMILLA,CHAUDDAGRAM,BATISHA,91.3160438,23.19529853,13044,1
BATISA SECONDARY GIRLS SCHOOL,105406,School,COMILLA,CHAUDDAGRAM,BATISHA,91.31678671,23.19230472,13045,1
KULIARA HIGH SCHOOL,105445,School,COMILLA,CHAUDDAGRAM,KULIARA,91.31419547,23.16795599,13046,1
NALGHAR HIGH SCHOOL,105407,School,COMILLA,CHAUDDAGRAM,NALGHAR,91.2611576,23.29883396,13047,1
DHARMAPUR NAZIM ALI HIGH SCHOOL,105412,School,COMILLA,CHAUDDAGRAM,DHARMAPUR,91.29183779,23.31289552,13049,1
NARAYAN PUR HIGH SCHOOL,105409,School,COMILLA,CHAUDDAGRAM,ABDULLAHPUR,91.28085836,23.29017374,13050,1
AMANGONDA MODEL HIGH SCHOOL,105444,School,COMILLA,CHAUDDAGRAM,GHOLPASHA,91.30446496,23.27215521,13051,1
SALAKANDI G.C HIGH SCHOOL,105433,School,COMILLA,CHAUDDAGRAM,SOLAKANDI,91.28679989,23.27569228,13052,1
UNKOT HIGH SCHOOL,105452,School,COMILLA,CHAUDDAGRAM,UNKOT,91.23499062,23.2743989,13053,1
KADAIR HIGH SCHOOL,105442,School,COMILLA,CHAUDDAGRAM,KADAIR,91.25503246,23.27776974,13054,1
CHAUDDAGRAM H.J.PILOT HIGH SCHOOL,105427,School,COMILLA,CHAUDDAGRAM,SREEPUR,91.30777529,23.23141452,13055,1
CHOUDDAGRAM SECONDARY PILOT GIRLS HIGH SCHOOL,105428,School,COMILLA,CHAUDDAGRAM,RAMROYGRAM,91.32405261,23.23018783,13056,1
MORKOTA RABEYA ARSAD JR  HIGH SCHOOL,105426,School,COMILLA,CHAUDDAGRAM,MARKOTA,91.27252901,23.19935754,13057,1
HIGULA HASANIA HIGH SCHOOL,105438,School,COMILLA,CHAUDDAGRAM,HINGULA,91.29380201,23.18219908,13058,1
TARASHAIL HIGH SCHOOL,105441,School,COMILLA,CHAUDDAGRAM,TARASAIL,91.28023831,23.18280039,13059,1
HAZI MANIR UDDIN GIRLS HIGH SCHOOL,105415,School,COMILLA,CHAUDDAGRAM,KARPATI,91.27508126,23.17173589,13060,1
MOSTFA KAMAL HIGH SCHOOL,105425,School,COMILLA,CHAUDDAGRAM,KANKAPAIT,91.26954507,23.16139153,13061,1
SRIPUR PRASANNA ACADEMY,105434,School,COMILLA,CHAUDDAGRAM,SREEPUR,91.25650424,23.3138625,13062,1
MUNSHIR HAT TAHERA KHATUN GIRLS HIGH SCHOOL,105408,School,COMILLA,CHAUDDAGRAM,MESTALA,91.26559459,23.26001839,13063,1
MUNSIRHAT HIGH SCHOOL,105437,School,COMILLA,CHAUDDAGRAM,MESTALA,91.26235103,23.25286134,13064,1
KHIRONSHAL KAZI JAFOR AHMED HIGH SCHOOL,105446,School,COMILLA,CHAUDDAGRAM,KHIRANSAL,91.27937192,23.22809,13065,1
CHATIANI ADARSHA HIGH SCHOOL,105418,School,COMILLA,CHAUDDAGRAM,CHHATIANI,91.26989692,23.21713044,13066,1
SHAKCHI SYED BARI HIGH SCHOOL,105417,School,COMILLA,CHAUDDAGRAM,HASTI MRITA,91.32302645,23.16173664,13068,1
FELNA HIGH SCHOOL,105420,School,COMILLA,CHAUDDAGRAM,KESHNA (FELNA),91.28145619,23.23041539,13070,1
DURGAPUR  HIGH SCHOOL,105456,School,COMILLA,CHAUDDAGRAM,DURGAPUR,91.23120266,23.27083002,13071,1
BHAT BARI IDEAL HIGH SCHOOL,105422,School,COMILLA,CHAUDDAGRAM,CHAK KALISHA,91.22457447,23.27733938,13072,1
FAIZUNNESA IDEAL  GIRL.S HIGH SCHOOL,105458,School,COMILLA,CHAUDDAGRAM,ALIPUR,91.22170543,23.3235845,13073,1
DHONIS KARA HAFEZA KHATUN MEMORIAL HIGH  SCHOOL,105457,School,COMILLA,CHAUDDAGRAM,DHANIJKARA,91.27487183,23.26848354,13074,1
PROF. SAKANDAR ALI  BHUYAN  GIRLS HIGH SCHOOL,105214,School,COMILLA,BRAHMAN PARA,BRAHMAN PARA,92.09647,21.40789,13075,1
BHAGABAN GOVT. HIGH SCHOOL,105203,School,COMILLA,BRAHMAN PARA,BRAHMAN PARA,92.07075,21.51153,13076,1
ABDUR RAZZAK KHAN CHOWDHURY HIGH SCHOOL,105202,School,COMILLA,BRAHMAN PARA,NANDI PARA,92.10817,21.41292,13077,1
DIRGHA VOMI BANGABUNDU HIGH SCHOOL,105222,School,COMILLA,BRAHMAN PARA,DIRGHABHUMI,92.1095,21.40442,13078,1
MOHALAKSHMI PARA SHARIF HIGH SCHOOL,105201,School,COMILLA,BRAHMAN PARA,MAHALAKSHMI PARA,92.05742,21.41972,13079,1
MADHABPUR HIGH SCHOOL,105204,School,COMILLA,BRAHMAN PARA,UTTAR MADHABPUR,92.09531,21.41181,13080,1
SHEKH MUZIBUR RAHMAN HIGH SCHOOL BEJURA,105220,School,COMILLA,BRAHMAN PARA,BEJORA,91.09669,23.61469,13081,1
GOPAL NAGAR B.A.B. HIGH SCHOOL,105211,School,COMILLA,BRAHMAN PARA,GOPALNAGAR,91.08967,23.62917,13082,1
BARADUSHIA HIGH SCHOOL,105209,School,COMILLA,BRAHMAN PARA,BARA DHUSIA,91.12231,23.61706,13083,1
POMKARA SIDDIQURE RA. AND Hakim high SCHOOL,105197,School,COMILLA,BRAHMAN PARA,PURBA POMKARA,91.07711,23.60294,13084,1
SHIDLAI ASHRAF SECONDARY SCHOOL,105200,School,COMILLA,BRAHMAN PARA,SIDLAI,91.10914,23.64828,13085,1
MAKIMPUR ABDUL MATIN KASHRU HIGH SCHOOL,105224,School,COMILLA,BRAHMAN PARA,MAKIMPUR,91.05839,23.64281,13086,1
SHAHEBABAD LATIF ISMAIL HIGH SCHOOL,105213,School,COMILLA,BRAHMAN PARA,SAHEBABAD,91.07544,23.66567,13087,1
CHOWBBASH JAHANARA HIGH SCHOOL,105219,School,COMILLA,BRAHMAN PARA,DEOSH,91.07919,23.70644,13088,1
ZAHIDUL HOSSAIN HIGH SCHOOL,105216,School,COMILLA,BRAHMAN PARA,NAGAISH,91.07244,23.70806,13089,1
BERAKHaLA ABDUL MATIN KHaSRu GIRLS high SCHOOL,105212,School,COMILLA,BRAHMAN PARA,BERAKHOLA,91.11022,23.59856,13090,1
BHARELLA SHAH NURUDDIN HIGH SCHOOL,105273,School,COMILLA,BURICHANG,BHARELLA,91.12992,23.64458,13091,1
KANGSHANAGAR HIGH SCHOOL,105289,School,COMILLA,BURICHANG,KANSANAGAR,91.13136,23.64228,13092,1
RAMPUR HIGH SCHOOL,105267,School,COMILLA,BURICHANG,PASCHIM RAMPUR,91.12878,23.65147,13093,1
KUSMPUR HIGH SCHOOL,105286,School,COMILLA,BURICHANG,PASCHIM RAMPUR,91.06653,23.65203,13094,1
SUNDRAM MADhAMIK SCHOOL,105259,School,COMILLA,BURICHANG,SUNDRAM,91.15897,23.54258,13095,1
ARAG ANANDAPUR ADARSHA HIGH SCHOOL,105264,School,COMILLA,BURICHANG,AGAGE ANANDAPUR,91.08822,23.53978,13096,1
BURICHANG KALI NARAYAN GIRLS HIGH SCHOOL,105269,School,COMILLA,BURICHANG,BARA BIJOYPUR (BURICHANG),91.09128,23.53283,13097,1
BURICHANG MODEL ACADEMY,105288,School,COMILLA,BURICHANG,BARA BIJOYPUR (BURICHANG),91.06953,23.54594,13098,1
BURICHONG ANANDA PILOT GOVT.HIGH SCHOOL,105268,School,COMILLA,BURICHANG,BARA BIJOYPUR (BURICHANG),91.06314,23.55314,13099,1
CAMBRIDGE INTERNATIONAL SCHOOL AND COLLEGE,105293,School,COMILLA,BURICHANG,BARA BIJOYPUR (BURICHANG),91.08208,23.53131,13100,1
BURICHONG HAZI FAZAR ALI HIGH SCHOOL,105283,School,COMILLA,BURICHANG,BARA BIJOYPUR (BURICHANG),91.06106,23.86419,13101,1
HARIPUR ADARSHA HIGH SCHOOL,105262,School,COMILLA,BURICHANG,BARA HARIPUR,91.11581,23.55578,13102,1
JAGATPUR HIGH SCHOOL,105287,School,COMILLA,BURICHANG,JAGATPUR,91.07494,23.54286,13103,1
JAGATPUR GIRLS HIGH SCHOOL,105292,School,COMILLA,BURICHANG,JAGATPUR,91.12889,23.5515,13104,1
PURNAMoTI Mansur Ahmed HIGH SCHOOL,105275,School,COMILLA,BURICHANG,PURNAMATI,91.12336,23.55539,13105,1
CHANDSHAR HAZI MOGSUD ALI BUIYAN HIGH SCHOOL,105260,School,COMILLA,BURICHANG,CHANDSAR,91.13919,24.10894,13106,1
KAZIMUDDIN KHANDAKER HIGH SCHOOL,105272,School,COMILLA,BURICHANG,MAINAMATI,91.11553,23.56525,13107,1
HORIN DHARA HIGH SCHOOL,105284,School,COMILLA,BURICHANG,HARINDHARA,91.11886,23.56261,13108,1
MURSHEDA BEGUM SECONDARY SCHOOL,105278,School,COMILLA,BURICHANG,KANCHANPUR,91.08358,23.50675,13109,1
BARAIR HAZI CHERAG ALI HIGH SCHOOL,105282,School,COMILLA,BURICHANG,BARAIR,91.09989,23.47719,13110,1
NIMSAR HIGH SCHOOL,105270,School,COMILLA,BURICHANG,NIMSAR,91.10811,23.51586,13111,1
TAHERA JUNAB ALI GIRLS HIGH SCHOOL,105280,School,COMILLA,BURICHANG,MOKAM,91.09403,23.51422,13112,1
BARASHWAR HIGH SCHOOL,131300,School,COMILLA,BURICHANG,BARESHWAR,91.05825,23.47958,13113,1
PIR JATRAPUTR HIGH SCHOOL,105276,School,COMILLA,BURICHANG,UTTAR JATRAPUR,91.18053,23.53342,13114,1
DHAKKHI SAMPUR  ALI  NEWAZ BHUIYAN TECNICAL HIGH SCHOOL,105291,School,COMILLA,BURICHANG,DAKSHIN SHYAMPUR,91.05167,23.51761,13115,1
LARIBAG HIGH SCHOOL,105258,School,COMILLA,BURICHANG,LARIBAGH,91.12172,23.59528,13116,1
PANCHURA MADDHAMIK BIDDANIKETON,105257,School,COMILLA,BURICHANG,PANCHARA,91.09794,23.54544,13117,1
SANKUCHAIL HIGH SCHOOL,105266,School,COMILLA,BURICHANG,SANKOCHAIL,91.09022,23.55875,13118,1
RAJAPUR HIGH SCHOOL,105285,School,COMILLA,BURICHANG,RAJAPUR,91.1115,23.53747,13119,1
BHARASAR HIGH SCHOOL,105256,School,COMILLA,BURICHANG,BHORASAR,91.14661,23.57672,13120,1
BALIKHARA ABDUL MATIN KHASRU HIGH SCHOOL,105290,School,COMILLA,BURICHANG,BALIKHARA,91.12428,23.59797,13121,1
KHARATAIYA HIGH SCHOOL,105261,School,COMILLA,BURICHANG,KHARATIA,91.15125,23.60469,13122,1
MITHILAPUR HIGH SCHOOL,105281,School,COMILLA,BURICHANG,MITHILAPUR,91.14164,23.57633,13123,1
PURBA HURA HIGH SCHOOL,105277,School,COMILLA,BURICHANG,PURBA HORA,91.13247,23.60661,13124,1
MOHISHMARA HIGH SCHOOL,105263,School,COMILLA,BURICHANG,MAHISHMARA,91.15247,23.5825,13125,1
SREMONTAPUR M A SATTER HIGH SCHOOL,105265,School,COMILLA,BURICHANG,PURBA KALIKAPUR,91.12653,23.50558,13126,1
BAKSIMUL HIGH SCHOOL,105279,School,COMILLA,BURICHANG,BAKSIMAIL,91.12236,23.51911,13127,1
CHHAY GRAM HIGH SCHOOL,105271,School,COMILLA,BURICHANG,CHHOTA HARIPUR,91.14117,23.51267,13128,1
CHANDINA  PILOT HIGH SCHOOL,105348,School,COMILLA,CHANDINA,CHANDINA MAHALLAH,91.13258,23.53119,13129,1
KERONKHAL HIGH SCHOOL,105339,School,COMILLA,CHANDINA,KERAN KHAL,91.14936,23.50622,13130,1
AMBORPUR HIGH SCHOOL,105353,School,COMILLA,CHANDINA,PASCHIM AMBARPUR,91.17708,23.54839,13131,1
KADUTI HIGH SCHOOL,105351,School,COMILLA,CHANDINA,KADUTI,91.17425,23.56981,13132,1
DHERERA HIGH SCHOOL,105358,School,COMILLA,CHANDINA,DHERERA,90.96283,23.49536,13133,1
JOAG AHAMMEDIA HIGH SCHOOL,105360,School,COMILLA,CHANDINA,JOYAG,90.95017,23.50047,13134,1
ORAINE  HIGH SCHOOL,133826,School,COMILLA,CHANDINA,JOYAG,90.90797,23.47689,13135,1
KOILAIN TULPAI HIGH SCHOOL,105340,School,COMILLA,CHANDINA,PASCHIM LAKSHMIPUR,90.90781,23.47728,13136,1
ABEDA-NOOR HIGH SCHOOL,105367,School,COMILLA,CHANDINA,GALLAI,90.96058,23.37186,13137,1
ABEDA NUR GIRLS HIGH SCHOOL,105342,School,COMILLA,CHANDINA,GALLAI,90.95533,23.36647,13138,1
KANGAI HIGH SCHOOL,105354,School,COMILLA,CHANDINA,KANGAI,90.96792,23.35925,13139,1
MOHANPUR JANATA HIGH SCHOOL,105355,School,COMILLA,CHANDINA,MOHANPUR,90.95519,23.36594,13140,1
DOLLAI NOWABPUR GIRLS HIGH SCHOOL,105370,School,COMILLA,CHANDINA,DAKSHIN NURPUR,91.04278,23.47019,13141,1
DOLLAI NOWAB PUR AHSAULLAH HIGH SCHOOL,105349,School,COMILLA,CHANDINA,NATINGI,90.90303,23.41606,13142,1
KUTUMBAPUR HIGH SCHOOL,105366,School,COMILLA,CHANDINA,KUTAMBAPUR,90.90428,23.41669,13143,1
MADHAIA BAZAR SADIM HIGH SCHOOL,105345,School,COMILLA,CHANDINA,NAUTALA,90.9,23.44283,13144,1
BHOMAR KANDI HIGH SCHOOL,105359,School,COMILLA,CHANDINA,BHOMARKANDI,90.90214,23.41678,13145,1
A.M.F. HIGH SCHOOL,105361,School,COMILLA,CHANDINA,FAOI,90.93711,23.41647,13146,1
PANIPARA SHAHID SMRITI JUNIOR GIRLS SCHOOL,105371,School,COMILLA,CHANDINA,PANIKHORA,90.91003,23.50469,13147,1
KARTALA ADARSHA GIRLS HIGH SCHOOL,105363,School,COMILLA,CHANDINA,MAIJKHARA,90.93711,23.40933,13148,1
PEPUIA HIGH SCHOOL,105368,School,COMILLA,CHANDINA,SUHILPUR,90.95764,23.44358,13149,1
BURPRIST HIGH SCHOOL,105834,School,COMILLA,MANOHARGANJ,BURPISTA,90.89567,23.45742,13150,1
PANCHAGRAM HIGH SCHOOL,105848,School,COMILLA,MANOHARGANJ,KEARI,90.884,23.50161,13151,1
MANDER GAON HIGH SCHOOL,105872,School,COMILLA,MANOHARGANJ,MANDARGAON,90.86647,23.47342,13152,1
SHARIFPUR SAZEDUL HOQUE HIGH SCHOOL,105844,School,COMILLA,MANOHARGANJ,BARA SHARIFPUR,90.89261,23.49347,13153,1
BIPULASAR AHMED ULLAH HIGH SCHOOL,105849,School,COMILLA,MANOHARGANJ,BIPULASAR,90.85894,23.45914,13154,1
SHAIKCHAIL HIGH SCHOOL,105882,School,COMILLA,MANOHARGANJ,SAIKCHAIL,91.10939,23.12744,13155,1
ALI NAKIPUR MULTILATERAL HIGH SCHOOL,105846,School,COMILLA,MANOHARGANJ,ALINAKIPUR,91.0245,23.14633,13156,1
NAYAN PUR POLLY MONGAL HIGH SCHOOL,105900,School,COMILLA,MANOHARGANJ,NAYANPUR,91.04042,23.14272,13157,1
KHILA AZIZULLAH HIGH SCHOOL,105871,School,COMILLA,MANOHARGANJ,KHILA,91.10761,23.07578,13158,1
BHOGAI ADARSHA HIGH SCHOOL,105895,School,COMILLA,MANOHARGANJ,BHOGAI,91.09581,23.09325,13159,1
DAKHIN BATABARIA BANGOBANDHU HIGH SCHOOL,105850,School,COMILLA,MANOHARGANJ,DAKSHIN BATABARIA,91.03186,23.11533,13160,1
COMPANY BAZAR JANANI BIDDYA NEKATON,105897,School,COMILLA,MANOHARGANJ,BARA CHANDPUR,91.01006,23.12881,13161,1
JANATA BAZAR SOLAIMAN HIGH SCHOOL,105833,School,COMILLA,MANOHARGANJ,SHOROSHPUR,91.12906,23.16894,13162,1
HATIMARA HIGH SCHOOL,105886,School,COMILLA,MANOHARGANJ,BARALLAH,91.13697,23.08689,13163,1
BORALLA HIGH SCHOOL,105891,School,COMILLA,MANOHARGANJ,BARALLAH,91.11744,23.11292,13164,1
UTTAR HOWLA HIGH SCHOOL,105842,School,COMILLA,MANOHARGANJ,CHOTTA UTTAR,91.045,23.09994,13165,1
K.G. AHMED GIRLS HIGH SCHOOL,105429,School,COMILLA,CHAUDDAGRAM,CHIARA,91.31386,23.19717,13177,1
CHEORA B.F. HIGH SCHOOL,105432,School,COMILLA,CHAUDDAGRAM,CHIARA,91.31433,23.19833,13178,1
DHORKARA  HIGH SCHOOL,105443,School,COMILLA,CHAUDDAGRAM,DHURKARA,91.28781,23.20553,13179,1
RAMPUR HIGH SCHOOL,105454,School,COMILLA,CHAUDDAGRAM,DEBEPUR,91.28753,23.3105,13180,1
SHANGISHWOR HIGH SCHOOL,105440,School,COMILLA,CHAUDDAGRAM,PASCHIM SANGISHWAR,91.31144,23.16842,13181,1
GUNABATI BOHUMUKHI HIGH SCHOOL,105435,School,COMILLA,CHAUDDAGRAM,KARTAM (MADHYADIHI),91.27928,23.132,13183,1
GUNABATI AL FARABI HIGH SCHOOL,105419,School,COMILLA,CHAUDDAGRAM,KARTAM (MADHYADIHI),91.29117,23.34681,13184,1
GUNABATI GIRLS HIGH SCHOOL,105450,School,COMILLA,CHAUDDAGRAM,GUNABATI,91.29592,23.12711,13185,1
AMIR HOSSAIN CHOWDHURY IDEAL HIGH SCHOOL,105414,School,COMILLA,CHAUDDAGRAM,UTTAR BETIARA,91.30028,23.08881,13189,1
ATAKARA HIGH SCHOOL and college,105889,School,COMILLA,LAKSAM,PALKAT,91.20742,23.33258,13198,1
TORAB ALI HIGH SCHOOL,105847,School,COMILLA,LAKSAM,KAGAIA,91.11008,23.19597,13199,1
RAJAPUR HIGH SCHOOL,105868,School,COMILLA,LAKSAM,PASCHIM RAJAPUR,91.13364,23.184,13200,1
AL AMIN INSTITUTE,105887,School,COMILLA,LAKSAM,UTTAR PASCHHIM GAON,91.09372,23.27122,13201,1
SREeyANg ALHAZ SIDDIkUR RAHMAN HIGH SCHOOL,105869,School,COMILLA,LAKSAM,SREE ANGA,91.05706,23.20772,13202,1
JALAL MEMORIAL HIGH SCHOOL,105875,School,COMILLA,LAKSAM,PASCHIM LAKSHMIPUR,91.059,23.26122,13203,1
ICHAPURA CENTRAL HIGH SCHOOL,105837,School,COMILLA,LAKSAM,BARA ICHHAPUR,91.04475,23.26978,13204,2
GOBINDAPUR UNION HIGH SCHOOL,105890,School,COMILLA,LAKSAM,PURBA LAKSHMIPUR,91.02961,23.22817,13205,1
MELLA J.C.C.K. HIGH SCHOOL,105864,School,COMILLA,LAKSAM,MELLA,91.05689,23.23194,13206,1
ASHWODIA IDEAL  HIGH SCHOOL,105894,School,COMILLA,LAKSAM,UTTAR ASHWADIA,91.03136,23.23653,13207,2
BABOKPARA JANATA JUNIOR HIGH SCHOOL,105898,School,COMILLA,LAKSAM,BHABAK PARA,91.08208,23.21656,13208,1
NAWAB FAIZUNNESSA AND BADRUNNESSA AMAL HIGH SCHOOL,105854,School,COMILLA,LAKSAM,DAKSHIN PASCIM GAON,91.09775,23.18992,13209,1
LAKSAM PILOT GIRLS HIGH SCHOOL,105857,School,COMILLA,LAKSAM,UTTAR LAKSAM,91.08422,23.31178,13210,1
LAKSAM PILOT HIGH SCHOOL,105855,School,COMILLA,LAKSAM,DAULATGANJ,91.08814,23.29211,13211,1
BEGUM KHORSHEDA-KALOMIANHIGHSCHOOL,105557,School,COMILLA,DAUDKANDI,UTTAR HASANPUR,91.08317,23.31094,13212,1
BEGUM AMAENA SULTAN GOVT.GIRLS HIGH SCHOOL,105545,School,COMILLA,DAUDKANDI,DAUDKANDI BAZAR,91.12139,23.24156,13213,1
DAUDKANDI POURASAVA HIGH SCHOOL,105530,School,COMILLA,DAUDKANDI,UTTAR SATTANANDI PASCHIM PARA,91.12194,23.23839,13214,1
BAHER CHAR FAZLUL HOQUE HIGH SCHOOL,105972,School,COMILLA,DAUDKANDI,BHAJRA,91.11592,23.23478,13215,1
BAZRA sesdp model high  school,105527,School,COMILLA,DAUDKANDI,BHAJRA,90.72594,23.53367,13216,1
CHINA MURA L N HGIH SCHOOL,105369,School,COMILLA,DAUDKANDI,CHINAMURA,90.74178,23.52947,13217,1
CHAR GOALI KHANDAKER NAZIR AHMED M.L HIGH SCHOOL,105552,School,COMILLA,DAUDKANDI,BOILALDI,90.71761,23.53025,13218,1
DAUDKANDI ADARSHA  HIGH SCHOOL,105520,School,COMILLA,DAUDKANDI,DAUDKANDI BAZAR,90.71422,23.53492,13219,1
GOURIPUR BILKIS MOSHARRAF GIRLS HIGH SCHOOL,105539,School,COMILLA,DAUDKANDI,NAYAGAON(PART)(GAURIPUR BAZAR),90.72297,23.53661,13220,1
NAIYAIR DR.KHANDAKER MOSHARRAF HOSSAIN HIGH SCHOOL,105556,School,COMILLA,DAUDKANDI,NAIAIR,90.73839,23.569,13221,1
GOURI PUR SUBAL AFTAB HIGH SCHOOL,105546,School,COMILLA,DAUDKANDI,GAURIPUR,90.71269,23.53689,13222,1
CHASAI HIGH SCHOOL,105542,School,COMILLA,DAUDKANDI,CHASAI,90.78508,23.54017,13223,1
KAWADI HIGH SCHOOL,105533,School,COMILLA,DAUDKANDI,KAUADI,90.78161,23.54306,13224,1
SOUTH NARANDIA HIGH SCHOOL,105521,School,COMILLA,DAUDKANDI,DAKSHIN NARAYANDIA,90.78106,23.53017,13225,1
PANCHGACHIA UNION HIGH SCHOOL,105551,School,COMILLA,DAUDKANDI,DAKSHIN NARAYANDIA,90.796,23.44506,13226,1
HATKHOLA ML HIGH SCHOOL,105524,School,COMILLA,DAUDKANDI,BAYNAGAR,90.78486,23.44678,13227,1
NABAGRAM ADARSHA HIGH SCHOOL,105554,School,COMILLA,DAUDKANDI,PURBA KALA SONA,90.81011,23.477,13228,1
MALIGAON ADARSHA HIGH SCHOOL,105547,School,COMILLA,DAUDKANDI,MALIGAON,90.75242,23.42597,13229,1
GOAL MARI HAZRAT A.K.J (R) HIGH SCHOOL,105538,School,COMILLA,DAUDKANDI,RAMAITKANDI(PART) GOAILMARI,90.76964,23.4405,13230,1
KHONDAKER KABIR UDDIN HIGH SCHOOL,105544,School,COMILLA,DAUDKANDI,PANCHGACHHIA,90.74786,23.45431,13231,1
SREERAYER CHAR S.I.M. HIGH SCHOOL,105526,School,COMILLA,DAUDKANDI,SREEROYER CHAR,90.83022,23.48089,13232,1
SUNDAL PUR HIGH SCHOOL,105523,School,COMILLA,DAUDKANDI,SUNDALPUR,90.83056,23.47153,13233,1
BARAPARA GIRLS HIGH SCHOOL,105534,School,COMILLA,DAUDKANDI,BARA PARA,90.83231,23.48675,13234,1
SHAHID NAGAR M.A JALIL HIGH SCHOOL,105535,School,COMILLA,DAUDKANDI,CHHOTA MOHAMMADPUR,90.74314,23.46481,13235,1
KHADIZA MEMORIAL GIRLS HIGH SCHOOL,105676,School,COMILLA,HOMNA,HOMNA (PART),90.71922,23.49617,13236,1
AMIRUL ISLAM GIRLS HIGH SCHOOL,105685,School,COMILLA,HOMNA,SAPLEZI,90.76739,23.52739,13237,1
DULALPUR CHANDRAMONI HIGH SCHOOL,105671,School,COMILLA,HOMNA,DULALPUR,90.75978,23.515,13238,1
NURUL ISLAM HIGH SCHOOL,105679,School,COMILLA,HOMNA,BAHER KALAMINA,90.75222,23.53022,13239,1
HOMNA KAFIL UDDIN PILOT GIRLS HIGH SCHOOL,105675,School,COMILLA,HOMNA,HOMNA (PART),90.78522,23.68064,13240,1
HOMNA GOVT.HIGH SCHOOL,105674,School,COMILLA,HOMNA,HOMNA (PART),90.78478,23.68289,13241,1
HOMNA ADARSHA HIGH SCHOOL,105673,School,COMILLA,HOMNA,BAGHMARA (PART),90.80989,23.72419,13242,1
BANGORA UMALOCAN HIGH SCHOOL,105985,School,COMILLA,MURADNAGAR,DAKSHIN BANGARA,90.80611,23.72828,13243,1
BHOBANGAR NAHAL A.B.S. HIGH SCHOOL,105992,School,COMILLA,MURADNAGAR,BHUBANGHAR,90.78161,23.68392,13244,1
DHAMGAR ADARSHA HIGH SCHOOL,106024,School,COMILLA,MURADNAGAR,DHAMGHAR,90.77889,23.68247,13245,1
PRAMTALA SABDAR KHAN HIGH SCHOOL,106010,School,COMILLA,MURADNAGAR,PARAMTALA,90.78458,23.68067,13246,1
KAMALLA D.R.S HIGH SCHOOL,106004,School,COMILLA,MURADNAGAR,KAMALLA,90.9815,23.71203,13247,1
D.R. GOVT. HIGH SCHOOL,105999,School,COMILLA,MURADNAGAR,MURADNAGAR,90.94714,23.62164,13248,1
MURAD NAGAR NOURUNNAHAR GIRLS HIGH SCHOOL,105997,School,COMILLA,MURADNAGAR,RAHIMPUR,90.93044,23.60808,13249,1
URISWAR GIRLS HIGH SCHOOL,106021,School,COMILLA,MURADNAGAR,URISHWAR,90.93106,23.60244,13250,1
BANSKAIT P.J.HIGH SCHOOL,106002,School,COMILLA,MURADNAGAR,BANSHKAIT,90.94581,23.62733,13251,1
BABUTIPARA  GIRLS HIGH  SCHOOL,105983,School,COMILLA,MURADNAGAR,BABUTI PARA,90.98233,23.64103,13252,1
KURBANPUR G.M HIGH SCHOOL,106007,School,COMILLA,MURADNAGAR,KORBANPUR,90.91083,23.56397,13253,1
RAMCHNDRAPUR R.K HIGH SCHOOL,105993,School,COMILLA,MURADNAGAR,BAKHRABAD,90.913,23.57036,13254,1
AKBBARER NESA GIRLS HIGH SCHOOL,106014,School,COMILLA,MURADNAGAR,BAKHRABAD,90.90417,23.57728,13255,1
HARPAKNA FAzILATUN NESSA GIRLS HIGH SCHOOL,105979,School,COMILLA,MURADNAGAR,HARPAKNA,90.89956,23.51819,13256,1
PANCHKITTA HIGH SCHOOL,106015,School,COMILLA,MURADNAGAR,BRAHMAN CHAPITALA,90.91522,23.55217,13257,1
KAMARCHAR HIGH SCHOOL,105981,School,COMILLA,MURADNAGAR,KAMAR CHAR,91.02731,23.72681,13258,1
CHANDANAIL MADHAMIK BIDDALAY,105990,School,COMILLA,MURADNAGAR,CHANDANAIL,90.88456,23.72881,13259,1
SONAR CHAR HIGH SCHOOL,105973,School,COMILLA,MEGHNA,SENER CHAR,90.87675,23.68525,13261,1
SHEKHERGAON ABDUL WADUD MUNSHI HIGH SCHOOL,131233,School,COMILLA,MEGHNA,SONA CHAR,90.91017,23.74436,13263,1
MANIKERCHAR SHAHERA LATIF MEMORIAL GIRLS HIGH SCHOOL,105970,School,COMILLA,MEGHNA,MANIKER CHAR,91.02056,23.70881,13264,1
MANIKER CHAR L.L HIGH SCHOOL,105967,School,COMILLA,MEGHNA,MANIKER CHAR,90.67186,23.63811,13265,1
MUGARCHAR K. ALI HIGH SCHOOL,105969,School,COMILLA,MEGHNA,MUGAR CHAR,90.71347,23.61811,13266,1
CHHOTNA MODEL HIGH SCHOOL,105585,School,COMILLA,DEBIDWAR,CHHOTNA,90.69739,23.61494,13267,1
BEHAR  MONDAL GIRLS HIGH SCHOOL,105629,School,COMILLA,DEBIDWAR,BIHAR MONDAL,90.68044,23.57014,13268,1
MOHANPUR HIGH SCHOOL,105586,School,COMILLA,DEBIDWAR,MOHANPUR,90.70914,23.63292,13269,1
MORICHAKANDA ZIA SMRITY ADARSHA HIGH SCHOOL,105592,School,COMILLA,DEBIDWAR,MARICHAKANDI,90.70689,23.63653,13270,1
NABIA BAD HIGH SCHOOL,105609,School,COMILLA,DEBIDWAR,NABIABAD,90.98617,23.60394,13271,1
CHANDPUR MODEL TECHNICAL HIGH SCHOOL,105588,School,COMILLA,DEBIDWAR,CHANDPUR,91.02128,23.51383,13272,2
FATEHABAD HIGH SCHOOL,105604,School,COMILLA,DEBIDWAR,PURBA FATEHABAD,90.96114,23.62092,13273,1
KHALIL PUR HIGH SCHOOL,105584,School,COMILLA,DEBIDWAR,KHALILPUR,91.02128,23.51383,13274,2
NURPUR M ALI AND A BARI HIGH SCHOOL,105589,School,COMILLA,DEBIDWAR,NURPUR,91.00978,23.5,13275,1
SAICHAPARA B.J. M. A. MAZID HIGH SCHOOL,105612,School,COMILLA,DEBIDWAR,SAICHA PARA,91.02581,23.50639,13276,1
BARUR ALI HOSSAIN HIGH SCHOOL,105623,School,COMILLA,DEBIDWAR,BARUR,91.04933,23.62783,13277,1
CHAR BAKOR HIGH SCHOOL,105600,School,COMILLA,DEBIDWAR,CHAR BAKHAR,91.02294,23.60125,13278,1
BHIRALLA S.K. HIGH SCHOOL,105606,School,COMILLA,DEBIDWAR,BARUR,91.03261,23.60789,13279,1
GANGAMANDAL RAJ INSTITUTION,105598,School,COMILLA,DEBIDWAR,JAFARGANJ,91.04722,23.61206,13280,1
JAFORGONJ BEGUM MAZEDA AHSAN MUNSI GIRLS HIGH SCHOOL,105620,School,COMILLA,DEBIDWAR,JAFARGANJ,91.06169,23.58986,13281,1
KHAIRABAD ADARSHA HIGH SCHOOL,105625,School,COMILLA,DEBIDWAR,KHAYRABAD,91.01117,23.61139,13282,1
ALAHABAD HIGH SCHOOL,105601,School,COMILLA,DEBIDWAR,ELAHABAD,91.05283,23.57225,13283,1
FULTALI HIGH SCHOOL,105605,School,COMILLA,DEBIDWAR,FULTALI,91.05381,23.56967,13284,1
MOHAMMADPUR A. R HIGH SCHOOL,105613,School,COMILLA,DEBIDWAR,MAGH PUSKARINI,91.02122,23.58097,13285,1
ABDULLAPUR HAZI AMIR HIGH SCHOOL,105599,School,COMILLA,DEBIDWAR,JIBANPUR,91.01542,23.56039,13286,1
BURIR PAR HIGH SCHOOL,105591,School,COMILLA,DEBIDWAR,ABDULLAPUR,91.04842,23.54589,13287,1
NANGALKOT A.R. ML HIGH SCHOOL,106074,School,COMILLA,NANGALKOT,HARIPUR PURBA,91.01306,23.54153,13288,1
BEGUM JAMILA MEMURIAL  GIRLS HIGH SCHOOL,106087,School,COMILLA,NANGALKOT,NANGALKOT,91.01528,23.56089,13289,1
DATISHAR AHMED DELOWARA MEMORIAL GIRLS HIGH SCHOOL,106083,School,COMILLA,NANGALKOT,DHATISHWAR,91.05542,23.63925,13290,1
BELGHOR GOSAI  BAZAR HIGH SCHOOL,106075,School,COMILLA,NANGALKOT,BELGHAR,91.19867,23.16869,13291,1
CHATITALA HIGH SCHOOL,106106,School,COMILLA,NANGALKOT,BARA CHATITALA,91.19989,23.16833,13292,1
SHAKTALI HIGH SCHOOL,106090,School,COMILLA,NANGALKOT,DAKSHIN SAKTALI,91.19992,23.16794,13293,1
PUZKARA ADARSHA HIGH SCHOOL,106102,School,COMILLA,NANGALKOT,PUJKARA,91.20069,23.16744,13294,1
GOTROSHAL JUNIOR HIGH SCHOOL,106114,School,COMILLA,NANGALKOT,GOTRASAL PURBA,91.14906,23.11661,13295,1
IQRA ACADEMY,131255,School,COMILLA,NANGALKOT,BANGODDA,91.14283,23.15572,13296,2
SATBARIA HIGH SCHOOL,106098,School,COMILLA,NANGALKOT,DAKSHIN SATBARIA,91.14283,23.15572,13297,2
AZIARA HIGH SCHOOL,106103,School,COMILLA,NANGALKOT,AZIARA,91.24061,23.21892,13298,1
BAKSHAGONJ GIRLS HIGH SCHOOL,106108,School,COMILLA,NANGALKOT,KOKALI,91.23842,23.22175,13299,1
BAKSHA GONJ HIGH SCHOOL,106089,School,COMILLA,NANGALKOT,KOKALI,91.23842,23.22014,13300,1
AL-HAJ SALAMAT ULLAH HIGH SCHOOL,106109,School,COMILLA,NANGALKOT,MANNARA,91.28128,23.07558,13301,1
DHALUA HIGH SCHOOL,106091,School,COMILLA,NANGALKOT,DAKSHIN BADARPUR,91.25622,23.17419,13302,1
ALHERA HOSIN BIN SALHA ACADAME,131301,School,COMILLA,NANGALKOT,SIJIARA,91.25319,23.08475,13303,1
SIZIARA  HIGH SCHOOL,106079,School,COMILLA,NANGALKOT,SINGARIA,91.23842,23.06767,13304,1
CHOWKURI HIGH SCHOOL,106086,School,COMILLA,NANGALKOT,CHAWKARI,91.23575,23.06769,13305,1
DOULKHAR HIGH SCHOOL,106081,School,COMILLA,NANGALKOT,DAULKHAR,91.23853,23.12403,13306,1
KANDAL IDEAL GIRLS HIGH SCHOOL,106112,School,COMILLA,NANGALKOT,KANDAL,91.25217,23.11197,13307,1
BATTALIA A. MOTIN HIGH SCHOOL,106077,School,COMILLA,NANGALKOT,KASHIPUR,91.22775,23.11978,13308,1
SONDAIL HIGH SCHOOL,106073,School,COMILLA,NANGALKOT,SONDAIL,91.23831,23.12911,13309,1
DAYEM CHATI HIGH SCHOOL,106093,School,COMILLA,NANGALKOT,HESAKHAL,91.21572,23.09717,13310,1
HESAKHAL BAZAR HIGH SCHOOL,106095,School,COMILLA,NANGALKOT,HESAKHAL,91.20953,23.07256,13311,1
GHORA MAIDAN JUNIOR SECONDARY SCHOOL,106110,School,COMILLA,NANGALKOT,GHORAMAYDAN,91.21592,23.10983,13312,1
BAIARA ZAINAL HIGH SCHOOL,106078,School,COMILLA,NANGALKOT,BAIARA,91.17297,23.16728,13313,1
JODDA BAZAR PUBLIC HIGH SCHOOL,106100,School,COMILLA,NANGALKOT,JODDA,91.16122,23.17733,13314,1
NISCHINTAPUR ABDUL GAFOR BHUIYAN HIGH SCHOOL,106085,School,COMILLA,NANGALKOT,NISCHINTAPUR,91.188,23.15136,13315,1
PANKARA HAFAJA HIGH SCHOOL,106084,School,COMILLA,NANGALKOT,PANKARA,91.18381,23.14383,13316,1
CHANDGORA HIGH SCHOOL,106107,School,COMILLA,NANGALKOT,CHANDGARA,91.19833,23.10431,13317,1
MAYURA HIGH SCHOOL,106082,School,COMILLA,NANGALKOT,MAJHI PARA,91.17431,23.12472,13318,1
MOKRABPUR HIGH SCHOOL,106094,School,COMILLA,NANGALKOT,MOKRABPUR,91.22194,23.21667,13319,1
AL-FARUQ ACCADEMY JUNIOR SCHOOL,131214,School,COMILLA,NANGALKOT,PURBA DAIARA,91.2215,23.12714,13320,1
BARA SANGISHWAR BALIKA BIDUYANIKATAN,106101,School,COMILLA,NANGALKOT,BARA SANGISHWAR,91.21975,23.14022,13321,2
KAKAIRTALA HIGH SCHOOL,106088,School,COMILLA,NANGALKOT,UTTAR KAKAIRTALA,91.21975,23.14022,13322,2
LAKSHMI PADUA RAHAMATIA HIGH SCHOOL,106096,School,COMILLA,NANGALKOT,LAKSHMI PADUA,91.18475,23.18822,13323,1
MAHINI HIGH SCHOOL,106097,School,COMILLA,NANGALKOT,MAHINI,91.17839,23.19344,13324,1
TULATOLI HIGH SCHOOL,106104,School,COMILLA,NANGALKOT,TULATALI,91.19664,23.16217,13325,1
JHIKATIA ISHAQ MOZUMDER IDEAL GIRLS  H.SCHOOL,106105,School,COMILLA,NANGALKOT,JHIKOTIA,91.19683,23.16231,13326,1
JAGATPUR SADHANA HIGH SCHOOL,105541,School,COMILLA,TITAS,JAGATPUR,91.24125,23.18483,13327,1
mozidpur high school,105550,School,COMILLA,TITAS,MAJIDPUR,91.24336,23.17978,13328,1
NEWRA M.i.HIGH SCHOOL,105714,School,COMILLA,COMILLA SADAR DAKSHIN,NEORA SAIDPUR,90.77744,23.57819,13329,1
JANGALIA POWER DEVELOPMENT BOARD  HIGH SCHOOL, COMILLA,105710,School,COMILLA,COMILLA SADAR DAKSHIN,UTTAR RASULPUR (DULIPARA),90.76397,23.56531,13330,1
BELTALI HIGH SCHOOL,105717,School,COMILLA,COMILLA SADAR DAKSHIN,RAMNAGAR,90.71778,23.58025,13331,1
BATABARIA GIRL'S HIGH SCHOOL,105728,School,COMILLA,COMILLA SADAR DAKSHIN,KAZI PARA,91.13078,23.40556,13332,1
SURUJ MEMORIAL HIGH SCHOOL,105896,School,COMILLA,COMILLA SADAR DAKSHIN,TULATALI BELGHAR,91.17506,23.44889,13333,1
JAMUA HIGH SCHOOL,105874,School,COMILLA,COMILLA SADAR DAKSHIN,JAMUA,91.15556,23.44506,13334,1
PARATI HIGH SCHOOL,105879,School,COMILLA,COMILLA SADAR DAKSHIN,PARATI,91.13719,23.43822,13335,2
RAHMAT ALI MIAZI HIGH SCHOOL,105841,School,COMILLA,COMILLA SADAR DAKSHIN,HALDIA,91.22617,23.37128,13336,1
GOVERNMENT LABORATORY HIGH SCHOOL,105709,School,COMILLA,COMILLA SADAR DAKSHIN,SAKTALA,91.14061,23.44606,13337,1
MADHYAM BIJOYPUR ADARSHA HIGH SCHOOL,105727,School,COMILLA,COMILLA SADAR DAKSHIN,LALMAI,91.17189,23.43153,13338,1
KAMALPUR HIGH SCHOOL,105704,School,COMILLA,COMILLA SADAR DAKSHIN,KAMALPUR,89.19511,25.96872,13340,1
ELLIOTGONJ R.B.HIGH SCHOOL,105531,School,COMILLA,DAUDKANDI,MOBARAKPUR,89.15956,26.02356,13342,1
DHANESHWAR SECONDARY,105720,School,COMILLA,COMILLA SADAR DAKSHIN,DHANISHWAR,91.26451,23.37846,13344,1
KALI BAZAR SECONDARY SCHOOL,105699,School,COMILLA,COMILLA SADAR DAKSHIN,MANIPUR,91.2237,23.41535,13346,1
BARAPARA AMENA BEGUM GIRLS HIGH SCHOOL,105701,School,COMILLA,COMILLA SADAR DAKSHIN,BARA PARA,91.17671,23.4721,13348,1
LAKSHMIPUR SHAHID SMRITE GIRLS HIGH SCHOOL,105149,School,COMILLA,BARURA,MANUA,91.17802,23.29224,13354,1
SUDRA TAYAB ALI HIGH SCHOOL,105120,School,COMILLA,BARURA,SUDRA,91.17222,23.33025,13355,1
PAYALGACHA MULTI. HGIH SCHOOL,105132,School,COMILLA,BARURA,PAYALGACHHA,91.03136,23.23653,13356,2
SONAI MURI HIGH SCHOOL,105142,School,COMILLA,BARURA,SONAIMURI,91.0354,23.26607,13357,1
HAFIZ AHMED HIGH SCHOOL,105117,School,COMILLA,BARURA,EKABERIA,91.03281,23.29525,13358,1
PERPETY HIGH SCHOOL,105135,School,COMILLA,BARURA,PERPETI,91.00192,23.28376,13359,1
NALUA MONAOHARPUR HIGH SCHOOL,105146,School,COMILLA,BARURA,PASCHIM NALUA,91.00067,23.28879,13360,1
NARINDRAPUR NOADDA HIGH SCHOOL,105151,School,COMILLA,BARURA,NARENDRAPUR,91.012,23.28201,13361,1
JOUR PUKURIA HIGH SCHOOL,105139,School,COMILLA,BARURA,JOR PUKURIA,90.9889,23.30464,13362,1
MOGGAON ADARSHA HIGH SCHOOL,105148,School,COMILLA,BARURA,MUGGAON,91.01536,23.3121,13363,1
SHAKPUR HIGH SCHOOL,105119,School,COMILLA,BARURA,SAKPUR,91.01564,23.31473,13364,1
GALIMPUR T.C. HIGH SCHOOL,105129,School,COMILLA,BARURA,GALIMPUR,91.00047,23.32678,13365,1
GHOSPA C. F. U. C HIGH SCHOOL,105140,School,COMILLA,BARURA,GHOSHPA,91.00646,23.33176,13366,1
BARA KAYANI HIGH SCHOOL,105125,School,COMILLA,BARURA,BEKI,91.02305,23.33499,13367,1
ADDA UMEDIA HIGH SCHOOL,105123,School,COMILLA,BARURA,ADDA,91.07045,23.30978,13368,1
KRISHNA PUR HIGH SCHOOL,105118,School,COMILLA,BARURA,DAKSHIN KRISHNAPUR,91.07382,23.31071,13369,1
CHOTA TULAGAON HIGH SCHOOL,105136,School,COMILLA,BARURA,CHOTA TALAGAON,91.04167,23.33342,13370,1
RAMMOHAN TOMIZIA HIGH SCHOOL,105194,School,COMILLA,BARURA,RAMMOHAN,90.98767,23.3436,13371,1
HARIPUR AGANGAR HIGH SCHOOL,105133,School,COMILLA,BARURA,BARA HARIPUR,90.97924,23.32574,13373,1
JOYNAGOR SCHEDUL CAST HIGH SCHOOL,105122,School,COMILLA,BARURA,JOYNAGAR,91.00886,23.42542,13374,1
MOHESHPUR AZIZIA HIGH SCHOOL,105143,School,COMILLA,BARURA,BARA MAHESHPUR,91.02713,23.4266,13375,1
BARHATUA HIGH SCHOOL,105124,School,COMILLA,BARURA,ADAMPUR,91.0298,23.43531,13376,1
AGANAGAR ABUL BASHIR TECHNICAL HIGH SCHOOL,105154,School,COMILLA,BARURA,AGANAGAR,91.03884,23.43249,13377,1
SHARAFATI HIGH SCHOOL,105126,School,COMILLA,BARURA,SARABATI,91.04083,23.4081,13378,1
BATAI CHARI HIGH SCHOOL,105131,School,COMILLA,BARURA,BARA HAGINA,91.06615,23.4452,13379,1
DIMDUL ADORSHA HIGH SCHOOL,105152,School,COMILLA,BARURA,DIMDOL,91.0779,23.42659,13380,1
BARURA HAJI NOWAB ALI PILOT HIGH SCHOOL,105128,School,COMILLA,BARURA,BARURA (PART-2),91.07029,23.41601,13381,1
BARURA GOVT GIRLS HIGH SCHOOL,105127,School,COMILLA,BARURA,BARURA (PART),91.06597,23.41054,13382,1
KADABA TALAGRAM TARINI LAHA CHARAN HIGH SCHOOL,105130,School,COMILLA,BARURA,TOLAGRAM,91.09151,23.35706,13383,1
DEORA SECONDARY SCHOOL,105141,School,COMILLA,BARURA,DEORA (WEST PART),91.0875,23.35757,13384,1
MAKUNDA PUR HIGH SCHOOL,105150,School,COMILLA,BARURA,CHITADDA,91.05777,23.37643,13385,1
PLIGIRI KHARUL HAZI ABBAS ALI ADDARSA HIGH SCHOOL,105144,School,COMILLA,BARURA,PILGIRI,91.00425,23.4006,13387,1
AMRATALI C.ALI HIGH SCHOOL,105134,School,COMILLA,BARURA,AMRATALI,91.00487,23.39737,13388,1
SHILMURI R.R. HIGH SCHOOL,105137,School,COMILLA,BARURA,BALUA,90.97764,23.37569,13389,1
BHATASHWAR HIGH SCHOOL,105145,School,COMILLA,BARURA,BHATESHWAR,91.01293,23.35477,13390,1
POYAL GACHA TECHNICAL GIRLS HIGH SCHOOL,105121,School,COMILLA,BARURA,ADAMPUR,91.01486,23.35368,13391,1
NALUA CHANDPUR HIGH  SCHOOL,105153,School,COMILLA,BARURA,CHANDPUR,91.00555,23.36928,13392,1
MUGUZI MASTER SOBHAN JUNIOR HIGH SCHOOL,105155,School,COMILLA,BARURA,MUGJI,91.01022,23.42423,13394,1
CHANDLA K.B. HIGH SCHOOL AND COLLEGE,105206,School and College,COMILLA,BRAHMAN PARA,PASCHIM CHANDLA,91.1075,23.62297,25827,1
SHAITSHALA ADARSHA HIGH SCHOOL AND COLLEGE,105217,School and College,COMILLA,BRAHMAN PARA,SHAITSALA,91.07797,23.6625,25828,1
FAKIR BAZAR HIGH SCHOOL & COLLEGE,105336,School and College,COMILLA,BURICHANG,KHARERA,91.10172,23.60742,25829,1
MAINAMATI HIGH SCHOOL AND COLLEGE,105338,School and College,COMILLA,BURICHANG,MAINAMATI,91.12592,23.55333,25830,1
ABIDPUR  HIGH  SCHOOL  AND  COLLEGE,105337,School and College,COMILLA,BURICHANG,ABIDPUR,91.0585,23.48192,25831,1
BIJOYKARA   SCHOOL  AND  COLLEGE,105518,School and College,COMILLA,CHAUDDAGRAM,BIJOYKARA,91.27167,23.195,25832,1
GANA UDDOG GIRLS HIGH SCHOOL AND COLLEGE,105899,School and College,COMILLA,LAKSAM,BARA RAJAPUR,91.22353,23.31831,25833,1
MUDAFORGANJ ALI NOWAB HIGH SCHOOL & COLLEGE,105964,School and College,COMILLA,LAKSAM,MUDAFARGANJ,91.22128,23.32019,25834,1
RAHMANIA CHIRA SABUJ HIGH SCHOOL AND COLLEGE,105963,School and College,COMILLA,LAKSAM,BIJRA,91.05158,23.21656,25835,1
BARKOTA SCHOOL &  COLLEGE,105583,School and College,COMILLA,DAUDKANDI,NOAGAON,90.73861,23.56989,25836,1
MOLLAKANDI LALMIA PILOT HIGH SCHOOL AND COLLEGE,105536,School and College,COMILLA,DAUDKANDI,BARA HARINA,90.74522,23.43519,25837,1
MUZAFFAR ALI HIGH SCHOOL & COLLEGE,105977,School and College,COMILLA,MEGHNA,HARIPUR,90.87817,23.71067,25838,1
BHOLAIN BAZAR SCHOOL  AND COLLEGE,106167,School and College,COMILLA,NANGALKOT,BHULAIN,91.15292,23.15933,25839,1
MONTOLI HIGH SCHOOL AND COLLEGE,106092,School and College,COMILLA,NANGALKOT,JHIKOTIA,91.22931,23.05972,25841,1
COMILLA SHIKKHA BOARD MODEL SCHOOL AND COLLEGE,132092,School and College,COMILLA,COMILLA SADAR DAKSHIN,UTTAR BIJOYPUR,91.13664,23.52917,25842,1
IBN TAIMIYA SCHOOL & COLLEGE,105751,School and College,COMILLA,COMILLA SADAR DAKSHIN,DHANPUR,91.04111,23.58722,25843,1
HAZI AKRAM UDDIN HIGH SCHOOL AND COLLEGE,105708,School and College,COMILLA,COMILLA SADAR DAKSHIN,DAKSHIN RASULPUR(DULU PARA),91.27147,23.37743,25844,1
KHOSH BASH HIGH SCHOOL & COLLEGE,105195,School and College,COMILLA,BARURA,PURBA ILLASHPUR,90.96751,23.34661,25845,1
JHALAM HIGH SCHOOL AND COLLEGE,105193,School and College,COMILLA,BARURA,JALAM,91.11332,23.36394,25846,1
