inst name, eiin, inst_type, district, thana, mauza, long, lat, serial,isUnique
DHALADIA COLLEGE,109426,College,GAZIPUR,SREEPUR,DHALADIA,90.50332,24.09835,735,1
ABDUL AWAL COLLEGE,109425,College,GAZIPUR,SREEPUR,TELIHATI,90.37673,24.2318,736,1
SREEPUR MUKTIJODDHA RAHMAT ALI COLLEGE,109423,College,GAZIPUR,SREEPUR,SREEPUR UTTAR PARA,90.43688,24.22614,737,1
MIZANUR RAHMAN KHAN DERGEE  COLLEGE,109420,College,GAZIPUR,SREEPUR,SREEPUR DAKSHIN PARA,90.40438,24.27641,738,1
PEAR ALI  COLLEGE,109422,College,GAZIPUR,SREEPUR,MAONA,90.46784,24.20706,739,1
BARMI COLLEGE,109421,College,GAZIPUR,SREEPUR,PATHAN TEK,90.40256,24.221,740,1
SHARIF MOMTAJUDDIN  AHMED degree  COLLEGE,109325,College,GAZIPUR,KAPASIA,UJALI,90.56839,24.2297,741,1
SHAHID TAJUDDIN AHMAD DEGREE COLLEGE, HAILJOR,109321,College,GAZIPUR,KAPASIA,SAHA BIDYARKOT,90.68919,24.17621,742,1
BANGATAJ COLLEGE,109322,College,GAZIPUR,KAPASIA,KSHIRATI,90.59806,24.21482,743,1
ALHAJ  REZAUL  HAQUE  MOHILA  COLLEGE,109324,College,GAZIPUR,KAPASIA,GHAGOTIA,90.68558,24.16726,744,1
KAPASIA DEGREE COLLEGE,109323,College,GAZIPUR,KAPASIA,KHODADIA,90.50878,24.06908,745,1
JAMALPUR COLLEGE,109181,College,GAZIPUR,KALIGANJ,JAMALPUR,90.61611,23.97773,746,1
KALIGONJ SRAMIK COLLEGE,109180,College,GAZIPUR,KALIGANJ,BAGHERDIA,90.58293,23.93902,747,1
KALIGONJ   MOHILA degree COLLEGE,109182,College,GAZIPUR,KALIGANJ,MUNSURPUR,90.58701,23.92776,748,1
BARAI BARI ADARSHA  COLLEGE,109111,College,GAZIPUR,KALIAKAIR,BARAIBARI,90.27212,24.13622,749,1
KALIAKAIR DEGREE COLLEGE,109110,College,GAZIPUR,KALIAKAIR,BARDAL,90.22432,24.05242,750,1
JATIR PITA BANGABANDHU COLLEGE,109112,College,GAZIPUR,KALIAKAIR,DAINKINI,90.15971,24.02654,751,1
GAZIPUR CANTONMENT BOARD COLLEGE,109033,College,GAZIPUR,GAZIPUR SADAR,CHATAR ORDINANCE FACTORY,90.40357,24.04031,752,1
PUBAIL ADARSHA COLLEGE,109036,College,GAZIPUR,GAZIPUR SADAR,KHILGAON,90.44006,23.97644,753,1
KAZI AZIMUDDIN COLLEGE, GAZIPUR,109032,College,GAZIPUR,GAZIPUR SADAR,PURBA JOYDEBPUR,90.42645,23.9193,754,1
BHAWL BADRE ALAM GOVT. COLLEGE,109031,College,GAZIPUR,GAZIPUR SADAR,ITAHATA (PART),90.38758,23.96621,755,1
KONABARI degree COLLEGE,109037,College,GAZIPUR,GAZIPUR SADAR,MIRPUR (PART),90.37769,23.97732,756,1
BHAWAL MIRZAPUR DEGREE COLLEGE,109035,College,GAZIPUR,GAZIPUR SADAR,MIRZAPUR,90.38293,23.98808,757,1
ROVER POLLY DEGREE  COLLGE,109034,College,GAZIPUR,GAZIPUR SADAR,BAUPARA,90.36993,24.06732,758,1
GAZIPUR GOVT MOHILA COLLEGE,109030,College,GAZIPUR,GAZIPUR SADAR,HARINAL,90.34852,24.08325,759,1
TONGI GOVT. COLLEGE,109061,College,GAZIPUR,GAZIPUR SADAR,AUCH PARA (PART-1),90.42869,23.9992,760,1
MUKTIJODDHA COLLEGE,109029,College,GAZIPUR,GAZIPUR SADAR,MAHONA BHABANIPUR,90.4084,24.02021,761,1
TONGI CITY COLLEGE,135926,College,GAZIPUR,GAZIPUR SADAR,BARA DEORA,90.95172,23.23683,762,1
RAFIQUL ISLAM CADET MADRASAH,136774,Madrasha,GAZIPUR,GAZIPUR SADAR,PASCHIM SOULDUBI,88.65572,24.59731,4937,1
GALDAPARA REAZ UDDIN DHAKIL MADRASHA,109408,Madrasha,GAZIPUR,SREEPUR,DHAMLAI,89.65077,23.63014,4939,1
BARKUL ISLAMIA DAKHIL MADRASHA,109400,Madrasha,GAZIPUR,SREEPUR,BARNAL,90.47231,24.30392,4940,1
LUCKCHATAL ISLAMIA DAKHIL MADRASHA,109406,Madrasha,GAZIPUR,SREEPUR,SATKHAMAIR,90.5129,24.30478,4941,1
SAGORIA GIRLS DHAKHIL MADRASHA,109390,Madrasha,GAZIPUR,SREEPUR,GARARAN,90.53945,24.27097,4942,1
GARARAN KHALILIA FAZIL MADRASA,109388,Madrasha,GAZIPUR,SREEPUR,GARARAN,90.50729,24.2656,4943,1
BARAMA GIRLS DAKHIL MADRASHA,109411,Madrasha,GAZIPUR,SREEPUR,BARAMA,90.4819,24.25046,4944,1
BARAMA ISLAMIA FAJIL MADRASA,109396,Madrasha,GAZIPUR,SREEPUR,BARAMA,90.48678,24.24495,4945,1
GILASWAR GIRLS DAKHIL MADRASAH,109410,Madrasha,GAZIPUR,SREEPUR,GHILASAIR,90.49136,24.23395,4946,1
PELAID DARUSSUNNAH DAKHIL MADRASHA,109392,Madrasha,GAZIPUR,SREEPUR,PALIED,90.53546,24.23079,4947,1
KHOJAKHANI AYESHA SIDDIKA GIRLS DAKHIL MADRASHA,109412,Madrasha,GAZIPUR,SREEPUR,NIJ KHOZEKHANI,90.52051,24.23784,4948,1
PATKA DAKHIL MADRASAH,109394,Madrasha,GAZIPUR,SREEPUR,PATKA,90.51451,24.23636,4949,1
LATIFUR ASHRAFUL ULUM ALIM  MADRASAH,109382,Madrasha,GAZIPUR,SREEPUR,LATIFPUR,90.53664,24.1906,4950,1
GOSINGA ALIM MADRASHA,109387,Madrasha,GAZIPUR,SREEPUR,GOSINGA,90.49133,24.1603,4951,1
KHILPARA GIRLS DAKHIL MADRASHA,109405,Madrasha,GAZIPUR,SREEPUR,GOSINGA,90.51117,24.15374,4952,1
BINDUBARE G A SINIOR MADRASHA,109398,Madrasha,GAZIPUR,SREEPUR,BINDUBARI,90.55009,24.15584,4953,1
BAMON GAON ASHRAFIA BALIKA DAKHIL MADRASA,109399,Madrasha,GAZIPUR,SREEPUR,RAJABARI,90.53767,24.17761,4954,1
RAJABARI ISLAMIA ALIM MADRAHAD,109383,Madrasha,GAZIPUR,SREEPUR,RAJABARI,90.5417,24.16686,4955,1
CHINASUKHANIA DAKHIL MADRASAH,109401,Madrasha,GAZIPUR,SREEPUR,RAJABARI,90.46677,24.14141,4956,1
GAZARIA MUSHARRAFUL ULUM DAKHIL MADRASHA,109393,Madrasha,GAZIPUR,SREEPUR,GAZARIA,90.51609,24.0963,4957,1
DAMDAMA MADINATUL ULUM DAKHIL MADRASHA,109395,Madrasha,GAZIPUR,SREEPUR,DAMDAMA,90.48351,24.1104,4958,1
MORICHARCHALA ISLAMIA DAKHIL MADRASHA,109404,Madrasha,GAZIPUR,SREEPUR,LOHAGACHHIA,90.47249,24.07349,4959,1
NIMURIA ISLAMIA DAKHIL MADRASAH,109402,Madrasha,GAZIPUR,SREEPUR,NIMURIA,90.47893,24.053,4960,1
GAZIPUR FAZIL MADRASA,109381,Madrasha,GAZIPUR,SREEPUR,GAZIPUR,90.46821,24.02258,4961,1
GAZIPUR IDEAL GIRLS DAKHIL MADRASHA,109413,Madrasha,GAZIPUR,SREEPUR,GAZIPUR,90.4862,24.0365,4962,1
DHANUA KACHARIPARA AHAMMADIA DAKHIL MADRASHA,109409,Madrasha,GAZIPUR,SREEPUR,DHANUA,90.35179,24.26931,4963,1
DHANUA BARACHALA DHAKHIL MADRASHA,109416,Madrasha,GAZIPUR,SREEPUR,DHANUA,90.3368,24.26361,4964,1
CHAKPARA HAZEE NAZIBULLAH DAKHIL MADRASHA,109397,Madrasha,GAZIPUR,SREEPUR,MAONA,90.36515,24.27402,4965,1
AKTAPARA  A.S.M. DAKHIL MADRASHA,109403,Madrasha,GAZIPUR,SREEPUR,MAONA,90.37467,24.26925,4966,1
TAPIR BARI HAZI ABDUL WAHAB DAKHIL MADRASHA,109407,Madrasha,GAZIPUR,SREEPUR,TEPIRBARI,90.38574,24.23952,4967,1
SHAITALIA DAKHIL MADRASHA,109391,Madrasha,GAZIPUR,SREEPUR,TELIHATI,90.38673,24.20906,4968,1
SREEPUR BHANGNAHATI RAHMANIA KAMIL MADRASAH,109385,Madrasha,GAZIPUR,SREEPUR,BHANGAHATI (PART),90.4049,24.26867,4969,1
KEWA KHADIZATUL KUBRA (RA:) MOHILA Fazil MADRASAH,109386,Madrasha,GAZIPUR,SREEPUR,KEWA EAST (PART),90.47123,24.23701,4970,1
BANGNAHATI GIRLS DAKHIL MADRASHA,109389,Madrasha,GAZIPUR,SREEPUR,BHANGAHATI (PART) DAKSHIN,90.48141,24.19778,4971,1
KEWA TAMIR UDDIN ALIM MADRASHA,109384,Madrasha,GAZIPUR,SREEPUR,KEWA PASCHIM (PART),90.448,24.21462,4972,1
BEDHAI DAKHIL MADRASHA,109418,Madrasha,GAZIPUR,SREEPUR,DHAMLAI,90.45008,24.18915,4973,1
NANDIA SANGUN IDEAL DAKHIL MADRASAH,109414,Madrasha,GAZIPUR,SREEPUR,NANDIA SANGUN,90.40692,24.22248,4974,1
RAJENDRAPUR ADARSHA DAKHIL MADRASHA,109417,Madrasha,GAZIPUR,SREEPUR,NOAGAON,90.40011,24.222,4975,1
BAIRAGIR CHALA DASKHIN PARA MADINATUIL ULUM DAKHIL MADRASA,109415,Madrasha,GAZIPUR,SREEPUR,BAIRAGIRCHALA,90.4096,24.21124,4976,1
BORIBARI ISLAMIA DAKHIL MADRASAH,109275,Madrasha,GAZIPUR,KAPASIA,SINGASREE,90.52424,24.23418,4977,1
BORI BARI BALIKA DAKHIL MADRASHA,109268,Madrasha,GAZIPUR,KAPASIA,SINGASREE,90.46256,24.09117,4978,1
HARIADI HOSSIANIA DAKHIL  MADRASHA,109295,Madrasha,GAZIPUR,KAPASIA,HARIADI,90.45539,24.1977,4979,1
NAMILA ANCHARIA FAZIL MADRASHA,109265,Madrasha,GAZIPUR,KAPASIA,SINGASREE,90.42572,24.20622,4980,1
KURIADI KARAMAT ALI ISLAMIA GIRL'S DAKHIL MADRASHA,109283,Madrasha,GAZIPUR,KAPASIA,SINGASREE,90.55106,24.26025,4981,1
SOHAGPUR ALIM MADRASHA,109263,Madrasha,GAZIPUR,KAPASIA,SINGASREE,90.54246,24.2598,4982,1
SINGHA SREE M. B. DAKHIL MADRASAH,109267,Madrasha,GAZIPUR,KAPASIA,SINGASREE,90.54873,24.23491,4983,1
TOKE NAGAR DARUL HADHIS ALIM MADRASHA,109277,Madrasha,GAZIPUR,KAPASIA,TOKNAGAR,90.56075,24.24084,4984,1
BARCHALA AMIR UDDIN DAKHIL MADRASHA,109281,Madrasha,GAZIPUR,KAPASIA,UJALI,90.60425,24.23038,4985,1
UZALI DIGHIRPAR J U ALIM MADRASHA,109273,Madrasha,GAZIPUR,KAPASIA,UJALI,90.59747,24.23125,4986,1
BIR UZALE I. M. BALIKA DAKHIL MADRASAH,109309,Madrasha,GAZIPUR,KAPASIA,UJALI,90.63714,24.2624,4987,1
SULTANPUR MAMUNIA BALIKA DAKHIL MADRASHA,109312,Madrasha,GAZIPUR,KAPASIA,SULTANPUR,90.635,24.25308,4988,1
ARALIA BALAIKA DAKHIL MADRASHA,109270,Madrasha,GAZIPUR,KAPASIA,ARALIA,90.62026,24.22661,4989,1
ARALIA KARAMATIA FAZIL MADRASHA,109257,Madrasha,GAZIPUR,KAPASIA,ARALIA,90.6349,24.23467,4990,1
PACHUA DARUS SUNNAH DAKHIL MADRASHA,109302,Madrasha,GAZIPUR,KAPASIA,PANCHUA,90.63911,24.24051,4991,1
DIGHBO AMGADIA FAZAIL MADRASHA,109271,Madrasha,GAZIPUR,KAPASIA,PANCHUA,90.65532,24.24929,4992,1
LOHADI DARUL ULUM ALIM GIRLS MADRASHA,109278,Madrasha,GAZIPUR,KAPASIA,LOHADIA,90.68266,24.24187,4993,1
PURBA LOHADI ISLAMIA DAKHIL MADRASAH,109310,Madrasha,GAZIPUR,KAPASIA,LOHADIA,90.68065,24.23315,4994,1
GOARAR ALAUDDIN SHAHI GIRLS DAKHIL MADRASHA,109296,Madrasha,GAZIPUR,KAPASIA,GAORAR,90.66657,24.23286,4995,1
NOYANOGAR MOTTAKIN PARA ALIM MADRASHA,109272,Madrasha,GAZIPUR,KAPASIA,NAYANAGAR,90.64822,24.21417,4996,1
DAMOAR CHALA A . D.U GIRLS DAKHIL MADRASHA,109289,Madrasha,GAZIPUR,KAPASIA,NAYANAGAR,90.64762,24.22422,4997,1
VIKERTAKE SABEDIA DAKHI MADRASHA,109293,Madrasha,GAZIPUR,KAPASIA,BHIKAR TEK,90.6366,24.18625,4998,1
CHOWKER CHALA DAKHIL MADRASHA,109260,Madrasha,GAZIPUR,KAPASIA,BARISHABA,90.63741,24.19175,4999,1
ISLAMTAJ GIRL'S DAKHIL MADRASHA,109285,Madrasha,GAZIPUR,KAPASIA,BARJAPUR,90.63338,24.19213,5000,1
SALODIA ABDUL MANNAN BUIYA GIRLS DAKHIL MADRASAH,109290,Madrasha,GAZIPUR,KAPASIA,SELDIA,90.65462,24.19287,5001,1
RAYED DARUSSONNA DHAKIL MADRASH,109282,Madrasha,GAZIPUR,KAPASIA,RAYED,90.66729,24.1738,5003,1
BELASHI FAZIL MADRASHA,109258,Madrasha,GAZIPUR,KAPASIA,BELASI,90.57364,24.21492,5004,1
BELASHI MADINATUL ULUM BALIKA ALIM MADRASHA,109301,Madrasha,GAZIPUR,KAPASIA,BELASI,90.5736,24.20508,5005,1
BARAHAR A MEZID MOLLA BALIKA DAKHIL MADRASHA,109308,Madrasha,GAZIPUR,KAPASIA,BARAHAR,90.57787,24.19315,5006,1
KHIRATI SENIOR FAZIL MADRASHA,109264,Madrasha,GAZIPUR,KAPASIA,KSHIRATI,90.60402,24.19606,5007,1
SALDAOI FAZIL MADRASAH,109305,Madrasha,GAZIPUR,KAPASIA,SHALDAI,90.68774,24.15217,5008,1
GHAGOTIA SALAMIA DAKHIL MADRASAH,109315,Madrasha,GAZIPUR,KAPASIA,GHAGOTIA,90.67912,24.15761,5009,1
DIGDHA DARUL ULOM FAZIL MADRASHA,109259,Madrasha,GAZIPUR,KAPASIA,UTTAR DIGHADIA,90.66286,24.15991,5010,1
BAGHIA ABU MORAL DAKHIL MADRASaH,109318,Madrasha,GAZIPUR,KAPASIA,BAGHIA,90.6624,24.13815,5011,1
UTTAR KHAMER DAKHIL MADRASHA,109317,Madrasha,GAZIPUR,KAPASIA,MATIKATA,90.58208,24.1682,5012,1
ANZABO MAHILa ALIM  MADRSAH,109313,Madrasha,GAZIPUR,KAPASIA,ANJABA,90.59824,24.14638,5013,1
KARIHATA UNION ALIM MADRASHA,109274,Madrasha,GAZIPUR,KAPASIA,KARIHATA,90.61437,24.15377,5014,1
MERUA SINIOR ALIM MADRASHA,109292,Madrasha,GAZIPUR,KAPASIA,MERUA,90.61948,24.1374,5015,1
EKURIA SERAGIA BALIKA DAKHIL MADRASHA,109286,Madrasha,GAZIPUR,KAPASIA,EKURIA,90.61824,24.132,5016,1
DAKHINGAON KALIABO DAKHIL MADRASAH,109279,Madrasha,GAZIPUR,KAPASIA,DAKSHINGAON,90.62161,24.11547,5017,1
DAKSHINGAON BALIKA DAKHIL MADRASHA,109316,Madrasha,GAZIPUR,KAPASIA,DAKSHINGAON,90.61536,24.11105,5018,1
SANMANIA DAKHIL MADRASHA,109269,Madrasha,GAZIPUR,KAPASIA,SANMANIA,90.65427,24.10739,5019,1
CHAPAT AKBARIA DAKHIL MADRASHA,109304,Madrasha,GAZIPUR,KAPASIA,CHAPHAD,90.66463,24.10464,5020,1
RAONAT HASANIA SENIOR MADRASHA,109306,Madrasha,GAZIPUR,KAPASIA,RAONAT,90.67785,24.11649,5021,1
DAILGAON AZIZIA DHAKIL MADRASAH,109294,Madrasha,GAZIPUR,KAPASIA,DALINAGAR,90.67957,24.11568,5022,1
FULBARIA DURGAPUR R.G. DAKHIL MADRASHA,109300,Madrasha,GAZIPUR,KAPASIA,DURGAPUR,90.70044,24.10431,5023,1
MASAK ISLAMIA GIRL'S DAKHIL MADRASHA,109287,Madrasha,GAZIPUR,KAPASIA,MASAK,90.61459,24.0955,5024,1
DURGAPUR DARUL MILLAT DAKHIL MADRASHA,109314,Madrasha,GAZIPUR,KAPASIA,DURGAPUR,90.59659,24.09351,5025,1
BAROIGAON MAHILA DAKHIL MADRASA,109266,Madrasha,GAZIPUR,KAPASIA,BARAIGAON,90.59614,24.07239,5026,1
BEGUN HATI FAZIL MADRASHA,109256,Madrasha,GAZIPUR,KAPASIA,BEGUNHATI,90.59609,24.06159,5027,1
KHIL GAON B.K. DAKHIL BALIKA MADRASHA,109288,Madrasha,GAZIPUR,KAPASIA,KHILGAON,90.60961,24.069,5028,1
KAMRA MASHAK FAZAIL MADRASHA,109261,Madrasha,GAZIPUR,KAPASIA,KAMRA,90.634,24.06969,5029,1
EKDALA AWALIA BALIKA ALIM MADRASHA,109298,Madrasha,GAZIPUR,KAPASIA,EKDALA,90.63116,24.05557,5030,1
CHANDPUR AMDADUL ULOM ALIM MADRASHA,109291,Madrasha,GAZIPUR,KAPASIA,CHANDPUR,90.61662,24.05245,5031,1
TILSUNIA DARUS SONNAH DAKHIL MADRASHA,109307,Madrasha,GAZIPUR,KAPASIA,TILSUNIA,90.64028,24.04759,5032,1
KAPASIA SENIOR ALIM MADRASHA,109303,Madrasha,GAZIPUR,KAPASIA,BARUN,90.54469,24.05402,5033,1
RAUTKONA FAZIL MADRASHA,109280,Madrasha,GAZIPUR,KAPASIA,RAUTKONA,90.50369,24.05083,5034,1
BIBADIA ISLAMIA DAKHIL MADRASAH  AND S.S.C VOC,109311,Madrasha,GAZIPUR,KAPASIA,RAYED,90.57399,24.10646,5035,1
CHARDURLAB KHAN MONIRUL ULUM ALIM  MADRASAH,109262,Madrasha,GAZIPUR,KAPASIA,CHAR DURLOV KHAN,90.55587,24.14145,5036,1
CHANGNA GIRLS DAKHIL MADRASHA,109297,Madrasha,GAZIPUR,KAPASIA,CHENGANA,90.60154,24.25651,5037,1
SHAH DEYANTOLLAH BALIKA  DAKHIL MADRASHA,109299,Madrasha,GAZIPUR,KAPASIA,CHAR DURLOV KHAN,90.64695,24.25524,5038,1
AFSAR IDDIN AHMAD KARIGORY MOHILA DAKHIL MADRASHA,109320,Madrasha,GAZIPUR,KAPASIA,KAPASIA,90.64139,24.25607,5039,1
PAKIAB SUMAIAH ISLAMIA GIRLS ALIM MADRASHA,109319,Madrasha,GAZIPUR,KAPASIA,PAKIABA,90.66528,24.23098,5040,1
DIGHABO AMANULLA GIRL'S DAKHIL MADRASHA,109284,Madrasha,GAZIPUR,KAPASIA,DIGHABA,90.63591,24.21552,5041,1
NORUN DAKHIL MADRASHA,109154,Madrasha,GAZIPUR,KALIGANJ,NARUN,90.65625,24.16741,5042,1
AZMATPUR DAKHIL MADRASHA,109174,Madrasha,GAZIPUR,KALIGANJ,AZMATPUR,90.55072,24.12081,5043,1
KULTHON GIRLS DAKHIL MADRASHA,109167,Madrasha,GAZIPUR,KALIGANJ,KULTHUN,90.61947,24.16951,5044,1
SAILDIA DAKHIL MADRASHA,109165,Madrasha,GAZIPUR,KALIGANJ,SALDIA,90.65407,24.21573,5045,1
BAGHOON M. U ALIM MADRASAH,109166,Madrasha,GAZIPUR,KALIGANJ,BHITI BAGUN,90.53633,24.02947,5046,1
SINGLAB GIRLS DAKHIL MADRASAH,109178,Madrasha,GAZIPUR,KALIGANJ,SINGLABA,90.53936,24.02433,5047,1
CHUPAIR JAMIUL ULUM ALIM MADRASHA,109150,Madrasha,GAZIPUR,KALIGANJ,CHUPAIR,90.54908,24.02661,5048,1
JAMALPUR DARUL ULUM ALIM MADRASHA,109163,Madrasha,GAZIPUR,KALIGANJ,JAMALPUR,90.58,24.02953,5049,1
RATKANA JAMIUL ULUM DAKHIL BALIKA MADRASHA,109152,Madrasha,GAZIPUR,KALIGANJ,RATKANA,90.60185,24.02594,5050,1
DEMRA PRAGATI IBRAHIMIA DAKHIL MADRASHA,109168,Madrasha,GAZIPUR,KALIGANJ,DEMRA,90.57995,23.98527,5051,1
BARAGAON BAITUL ULUM ALIM MADRASHA,109151,Madrasha,GAZIPUR,KALIGANJ,BARAGAON,90.62858,24.00077,5052,1
SHAORAID DAKHIL MADRASHA,109177,Madrasha,GAZIPUR,KALIGANJ,SEORAIT,90.61284,23.96389,5053,1
DAKHINBAG DARUS SALAM DAKHIL MADRASHA,109153,Madrasha,GAZIPUR,KALIGANJ,DAKSHINBHAG,90.64009,24.03392,5054,1
JAMALPUR GIRLS DAKHIL MADRASAH,109176,Madrasha,GAZIPUR,KALIGANJ,JAMALPUR,90.60893,24.00746,5055,1
KHALAPARA DARUL AMAN DAKHIL MADRASHA,109175,Madrasha,GAZIPUR,KALIGANJ,KHALAPARA,90.58847,23.99312,5056,1
MULGAON DARUL ULLM DHAKHIL MADRASHA,109157,Madrasha,GAZIPUR,KALIGANJ,MULGAON,90.61632,23.9846,5057,1
DURBATI MADINATUL ULUM ALIA KAMIL MADRASHA,109156,Madrasha,GAZIPUR,KALIGANJ,BANGAL HAOLA,90.58406,23.92684,5058,1
BERUA A. U.I. ALIM MADRASHA,109169,Madrasha,GAZIPUR,KALIGANJ,BERUA,90.57368,23.92464,5059,1
BRAHMANGOAN GIRLS DAHKIL MADRASH,109172,Madrasha,GAZIPUR,KALIGANJ,BRAHMANGAON,90.5608,23.92777,5060,1
FULDI GOUSIA SUNNIA DAKHIL MADRASHA,109164,Madrasha,GAZIPUR,KALIGANJ,PHULDI,90.55626,23.93718,5061,1
CHHATIANI ALIM MADRASHA,109159,Madrasha,GAZIPUR,KALIGANJ,CHHATIANI,90.54623,23.97056,5062,1
JANGALIA SIDDIK MIA FAZIL MADRASHA,109158,Madrasha,GAZIPUR,KALIGANJ,JANGALIA,90.5469,23.97842,5063,1
SHOM MOZADDEDIA SUNNIA DHAKIL MADRASAH,109162,Madrasha,GAZIPUR,KALIGANJ,SOM,90.55044,23.98346,5064,1
KALIKOTI NAZ iMIA MODINATUL ULUM DAKHIL MADRASAH,109171,Madrasha,GAZIPUR,KALIGANJ,BARAKAW,90.51203,23.99975,5065,1
CHURIA KHOLA DAKHIL MADRASHA,109160,Madrasha,GAZIPUR,KALIGANJ,CHUARIAKHOLA,90.55057,24.01084,5066,1
UTTAR JAMALPUR SABKER PARA DARUL ULUM BALIKA DAKHIL MADRASHA,109179,Madrasha,GAZIPUR,KALIGANJ,JAMALPUR,90.60582,24.02623,5067,1
BHATIRA MADRASHATUL BANAT AL ISLAMIA,109173,Madrasha,GAZIPUR,KALIGANJ,BHATIRA,90.55851,23.92791,5068,1
SHALDAHPARA MOLLA HOSSAIN DAKHIL MADRASHA,109108,Madrasha,GAZIPUR,KALIAKAIR,UTTAR SHIMULIA,90.53706,24.02813,5069,1
FULBARIA  TAMIRUL  ZAMAYAH  DAKHIL MADRSAH,109109,Madrasha,GAZIPUR,KALIAKAIR,MOTHAJURI,90.31196,24.22714,5070,1
GACHBARI EBADIA  DAKHIL    MADRSAH,109106,Madrasha,GAZIPUR,KALIAKAIR,MADHYACHAK,90.26744,24.1734,5071,1
MOZADDADIA ISLAMIA ALIM MADRASAH,109107,Madrasha,GAZIPUR,KALIAKAIR,GOSAINBARI,90.30682,24.19737,5072,1
KALIAKAIR FAZIL MADRASHA,109104,Madrasha,GAZIPUR,KALIAKAIR,KALIAKAIR (PART),90.27533,24.1067,5073,1
CHANDABAHA ISLAMIA FAZIL MADRASHA,109105,Madrasha,GAZIPUR,KALIAKAIR,CHANDABA,90.1814,24.00684,5074,1
PABURIA CHALA ISLAMIA ALIM MADRASHA,109102,Madrasha,GAZIPUR,KALIAKAIR,MADHYACHAK,90.3363,24.08417,5075,1
SATKURA SUFFINAGAR DAKHIL MADRASA,109103,Madrasha,GAZIPUR,KALIAKAIR,DHULIGARA,90.28454,24.0974,5076,1
PIRUJALI AMANIA FAZIL MADRASHA,108998,Madrasha,GAZIPUR,GAZIPUR SADAR,PIRUJALI,90.24033,24.15887,5077,1
NAYAPARA  EBDADIA  DAKHIL MADRASA,108997,Madrasha,GAZIPUR,GAZIPUR SADAR,SARUPAITALI (PART),90.31205,24.13193,5078,1
GAZARIA PARA HAMIDIA DAKHIL MADRASHA,109001,Madrasha,GAZIPUR,GAZIPUR SADAR,ARISA PRASAD (PART),90.37072,24.13898,5079,1
HATIABO  ISLAMIA  ALIM MADRASHA,109020,Madrasha,GAZIPUR,GAZIPUR SADAR,HATIABA,90.39301,24.12595,5080,1
BHOWRAID MUNSHI MOMIRUDDIN DAKHIL MADRASHA,109015,Madrasha,GAZIPUR,GAZIPUR SADAR,ARISA PRASAD (PART),90.39651,24.13171,5081,1
GAZIPUR FAZIL DIGREE MADRASHA (CHATAR),109004,Madrasha,GAZIPUR,GAZIPUR SADAR,CHATAR BAZAR,90.39612,24.05431,5082,1
SALNA ISLAMIA FAZIL MADRASA,109010,Madrasha,GAZIPUR,GAZIPUR SADAR,DAKSHIN SALNA,90.42155,24.04,5083,1
JAMUNA ISLAMIA BALIKA DAKHIL MADRASHA,109022,Madrasha,GAZIPUR,GAZIPUR SADAR,JAMUNA,90.42115,24.03818,5084,1
KHATIA BONDAN IS.FAZIL MADRASHA,109013,Madrasha,GAZIPUR,GAZIPUR SADAR,BANDHAN,90.41862,24.03227,5085,1
KANAIA DURUS SUNNAH DAKHIL MADRASA,109023,Madrasha,GAZIPUR,GAZIPUR SADAR,KANAIA,90.46978,24.0055,5086,1
KALNI ISLAMIA FAZIL MASRASHA,109007,Madrasha,GAZIPUR,GAZIPUR SADAR,KALNI,90.47924,24.00525,5087,1
PUBAIL RAHMANIA ALIM MADRASAH,109018,Madrasha,GAZIPUR,GAZIPUR SADAR,PUBAIL,90.49041,23.99609,5088,1
BHARARUL HARAN MAMUD ISLAMIA DAKHIL MADRASAh,109059,Madrasha,GAZIPUR,GAZIPUR SADAR,BHARARUL,90.48983,23.96184,5089,1
HAYDRABAD HOSSAINIA FAZIL MADRASHA,109009,Madrasha,GAZIPUR,GAZIPUR SADAR,HYDARABAD,90.4867,23.93989,5090,1
CHANDA PARA DARUIT TALIM JAMERIA DAKHIL MADRASA,109014,Madrasha,GAZIPUR,GAZIPUR SADAR,CHAND PARA,90.41444,23.98841,5091,1
CHANDARA RAHMANIA FAZIL MADRASHA,109011,Madrasha,GAZIPUR,GAZIPUR SADAR,CHANDARA,90.38318,23.94416,5092,1
DEGARCHALA SAYDANA M.U. ALIM MADRASHA,109016,Madrasha,GAZIPUR,GAZIPUR SADAR,DEGERCHALA,90.39221,23.98634,5093,1
LALDIGHI JANNATUL BAKI D.U. DAKHIL MADRASA,109026,Madrasha,GAZIPUR,GAZIPUR SADAR,BARENDA,90.37437,23.93189,5094,1
ALHAZ AINUDDIN SARKER ALIM MADRASA,109019,Madrasha,GAZIPUR,GAZIPUR SADAR,CHANDNA (PART),90.37634,23.98938,5095,1
KATHORA  ISLAMIA  DAKHIL MADRASA,109024,Madrasha,GAZIPUR,GAZIPUR SADAR,TEK KATHORA,90.30958,24.01022,5096,1
JOLAR PAR GIRLS DAKHIL MADRASHA,109025,Madrasha,GAZIPUR,GAZIPUR SADAR,JOLAR PARA,90.37324,23.99194,5097,1
PAINSAIL GAS  PUKURIA   PARH DAKHIL  MADRASA,109000,Madrasha,GAZIPUR,GAZIPUR SADAR,PAINSAIL,90.38019,24.01941,5098,1
PURBA DHIRASRAM DR. BAKHAR UDDIN ISLAMIA DAKHIL MADRASA,109005,Madrasha,GAZIPUR,GAZIPUR SADAR,DHIRASHRAM,90.34835,24.09649,5099,1
TONGI ASHRAFUL ULUM ISLAMIA ALIM MADRASHA,109057,Madrasha,GAZIPUR,GAZIPUR SADAR,PAGAR (PART-1),90.37499,24.06615,5100,1
KATHORA MOHAMMADIA GIRLS DAKHIL MADRASAH,109017,Madrasha,GAZIPUR,GAZIPUR SADAR,KATHORA,90.43212,23.99692,5101,1
PORABARI SABERIA DAKHIL MADRASHA,109002,Madrasha,GAZIPUR,GAZIPUR SADAR,UTTAR SALNA,90.41942,23.97354,5102,1
MONIPUR MOSTAFIA DAKHIL MADRASHA,109021,Madrasha,GAZIPUR,GAZIPUR SADAR,BISAIYA KURIBARI,90.44753,23.99039,5103,1
JOYDEBPUR DARUS SALAM FAZIL MADRASA,109003,Madrasha,GAZIPUR,GAZIPUR SADAR,PURBA JOYDEBPUR,90.3764,24.05244,5104,1
MIRASH PARA HAMIDIA DAKHIL MADRASAH,109060,Madrasha,GAZIPUR,GAZIPUR SADAR,PURBA ARISPUR (PART-2),90.4299,23.96509,5105,1
TONGI ISLAMIA ALIM MADRASHA,109058,Madrasha,GAZIPUR,GAZIPUR SADAR,DATTAPARA PART-1,90.43003,23.96842,5106,1
BAGBARI HAKKANIA SALEHIA ALIM MADRASAh,108999,Madrasha,GAZIPUR,GAZIPUR SADAR,PASCHIM SOULDUBI,90.42888,23.94976,5107,1
M. A. RAZZAK MASTER DAKHIL MADRASA,109027,Madrasha,GAZIPUR,GAZIPUR SADAR,CHANDNA (PART),90.35739,24.05862,5108,1
TAMIRUL MILLAT KAMIL MADRASHA, TONGI BRANCH,109006,Madrasha,GAZIPUR,GAZIPUR SADAR,GAZIPURA,90.41299,24.14602,5109,1
MADINATUL ULUM ALIM MADRASHA,109012,Madrasha,GAZIPUR,GAZIPUR SADAR,PASCHIM JOYDEBPUR,90.42372,24.12718,5110,1
JOGIRSIT HIGH SCHOOL,109366,School,GAZIPUR,SREEPUR,DHAMLAI,89.51602,23.59994,15064,1
BALDIGHAT J.M. SARKER HIGH SCHOOL,109351,School,GAZIPUR,SREEPUR,DHAMLAI,89.56625,23.69929,15065,1
GALDAPARA NIAMAT ALI JOUNIOR SCHOOL,109359,School,GAZIPUR,SREEPUR,DHAMLAI,89.51514,23.66401,15066,1
DHAMLAI  HIGH SCHOOL,109369,School,GAZIPUR,SREEPUR,DHAMLAI,89.56748,23.70518,15067,1
HOYDEBPUR DR KAMAL UDDIN  HIGH SCHOOL,109365,School,GAZIPUR,SREEPUR,DHAMLAI,90.45171,24.33245,15068,1
KAORAID JUNIOR GIRLS SCHOOL,109370,School,GAZIPUR,SREEPUR,KAORAID,90.43936,24.30902,15069,1
KAORAID K.N HIGH SCHOOL,109343,School,GAZIPUR,SREEPUR,KAORAID,90.44783,24.31598,15070,1
BAPTA MOLICK BARI HIGH SCHOOL,109372,School,GAZIPUR,SREEPUR,BAPTA,90.43992,24.31401,15071,1
TRIMOHINI B D ISLAMIA HIGH SCHOOL,109347,School,GAZIPUR,SREEPUR,NANDIA SANGUN,90.46881,24.31566,15072,1
SATKHAMAIR HIGH SCHOOL,109337,School,GAZIPUR,SREEPUR,SATKHAMAIR,90.51047,24.30953,15073,1
BHITI PARA K. H K HIGH SCHOOL,109352,School,GAZIPUR,SREEPUR,SATKHAMAIR,90.52397,24.28177,15074,1
BARMI UNION  HIGH SCHOOL,109345,School,GAZIPUR,SREEPUR,KEWA PASCHIM (PART),90.48148,24.21401,15075,1
BARMI BAZAR HIGH SCHOOL,109338,School,GAZIPUR,SREEPUR,PATHAN TEK,90.49294,24.21996,15076,1
KHOJEKHANI GIRLS HIGH SCHOOL,109374,School,GAZIPUR,SREEPUR,NIJ KHOZEKHANI,90.53079,24.22307,15077,1
BAWNI GIRLS HIGH SCHOOL,109361,School,GAZIPUR,SREEPUR,BAUNI,90.526,24.24806,15078,1
HAZI ABDUL KADER PRODHAN HIGH SCHOOL,109357,School,GAZIPUR,SREEPUR,GOSINGA,90.54351,24.2063,15079,1
LATIFPUR   HIGH SCHOOL,109355,School,GAZIPUR,SREEPUR,LATIFPUR,90.53775,24.19533,15080,1
GOSINGA HIGH SCHOOL,109333,School,GAZIPUR,SREEPUR,GOSINGA,90.49988,24.18773,15081,1
IZZATPUR HIGH SCHOOL,109353,School,GAZIPUR,SREEPUR,KAPILATALI,90.54872,24.1546,15082,1
BHAWAL RAJABARI HIGH SCHOOL,109336,School,GAZIPUR,SREEPUR,RAJABARI,90.53956,24.17585,15083,1
DIGHIR CHALA HIGH SCHOOL,109375,School,GAZIPUR,SREEPUR,RAJABARI,90.47123,24.16836,15084,1
CHINA SUKHANIA High  SCHOOl,109360,School,GAZIPUR,SREEPUR,RAJABARI,90.51512,24.12452,15085,1
DHALADIA HIGH SCHOOL,109363,School,GAZIPUR,SREEPUR,DHALADIA,90.50146,24.11034,15086,1
PABORIA CHALA ADarsha  HIGH SCHOOL,109373,School,GAZIPUR,SREEPUR,GAZARIA,90.50735,24.08685,15087,1
RAJENDRA PUR HIGH SCHOOL,109346,School,GAZIPUR,SREEPUR,RAJARAMPUR,90.50379,24.08237,15088,1
FAUGAN HIGH SCHOOL,109356,School,GAZIPUR,SREEPUR,PHAGUAIN,90.47666,24.09644,15089,1
DUMNI MALLIKA KHATUN ADARSHA HIGH SCHOOL,109332,School,GAZIPUR,SREEPUR,DUMNI,90.48484,24.10291,15090,1
PROHLADPUR HIGH SCHOOL,109349,School,GAZIPUR,SREEPUR,PRAHLADPUR,90.47722,24.10243,15091,1
BANSHKOPA HIGH SCHOOL,109376,School,GAZIPUR,SREEPUR,BANSHKOPA,90.4584,24.08776,15092,1
PROTAPPUR HIGH SCHOOL,109342,School,GAZIPUR,SREEPUR,LOHAGACHHIA,90.47406,24.05876,15093,1
MARTA HIGH SCHOOL,109362,School,GAZIPUR,SREEPUR,MARTA,90.49717,24.05943,15094,1
NANAIYA  HIGH SCHOOL,109378,School,GAZIPUR,SREEPUR,KISMAT NANAIA,90.45177,24.05883,15095,1
SHAILAT HIGH SCHOOL,109344,School,GAZIPUR,SREEPUR,SAILAT,90.45526,24.04808,15096,1
NIZMAWNA HIGH SCHOOL,109371,School,GAZIPUR,SREEPUR,GAZIPUR,90.46124,24.04706,15097,1
GAZIPUR HIGH SCHOOL,109334,School,GAZIPUR,SREEPUR,GAZIPUR,90.47583,24.02455,15098,1
DHANUA JUNIOR HIGH SCHOOL,109368,School,GAZIPUR,SREEPUR,DHANUA,90.33467,24.28309,15099,1
DHANUA HIGH SCHOOL,109358,School,GAZIPUR,SREEPUR,DHANUA,90.34858,24.2878,15100,1
SINGERDIGHI HIGH SCHOOL,109327,School,GAZIPUR,SREEPUR,MAONA,90.34032,24.25736,15101,1
BAROTOPA AFSAR UDDIN  HIGH SCHOOL,109331,School,GAZIPUR,SREEPUR,BARA RATHURA,90.38037,24.2625,15102,1
HAZI SUTA KALIM HIGH SCHOOL,109377,School,GAZIPUR,SREEPUR,MULAID,90.38909,24.26572,15103,1
TaPIR BARI HIGH SCHOOL,109364,School,GAZIPUR,SREEPUR,TELIHATI,90.38196,24.24926,15104,1
TELIHATY HIGH SCHOOL,109354,School,GAZIPUR,SREEPUR,TELIHATI,90.40996,24.2372,15105,1
AL HAJ NOWAB ALI ADARSHA HIGH SCHOOL,109350,School,GAZIPUR,SREEPUR,TENGRA,90.43286,24.24362,15106,1
BAIRAGIR CHALA HIGH SCHOOL,109348,School,GAZIPUR,SREEPUR,BAIRAGIRCHALA,90.42832,24.2691,15107,1
SRIPUR PILOT HIGH SCHOOL,109340,School,GAZIPUR,SREEPUR,SREEPUR DAKSHIN PARA,90.48062,24.20203,15108,1
ABED ALI GIRLS HIGH SCHOOL,109335,School,GAZIPUR,SREEPUR,BERAIDARCHALA,90.46267,24.20758,15109,1
MAWNA MULTILaTERAL HIGH SCHOOL,109339,School,GAZIPUR,SREEPUR,KEWA PASCHIM (PART),90.44687,24.20289,15110,1
ALHAZ DHANAI BEPARI MEMORIAL HIGH SCHOOL,109329,School,GAZIPUR,SREEPUR,KEWA EAST (PART),90.4559,24.29952,15111,1
TAPIR BARI ANSAR  HIGH SCHOOL,109379,School,GAZIPUR,SREEPUR,TENGRA,90.53129,24.2772,15112,1
KAPALESWAR HIGH SCHOOL,109216,School,GAZIPUR,KAPASIA,SINGASREE,90.42453,24.23789,15113,1
SINGHASREE UNION HIGH SCHOOL,109207,School,GAZIPUR,KAPASIA,SINGASREE,90.533,24.24406,15114,1
JPDS IDEAL HIGH SCHOOL,109253,School,GAZIPUR,KAPASIA,SINGASREE,90.55236,24.23095,15115,1
BIR UZALI HIGH SCHOOL,109238,School,GAZIPUR,KAPASIA,UJALI,90.59659,24.23771,15116,1
ARALIA HIGH SCHOOL,109239,School,GAZIPUR,KAPASIA,ARALIA,90.63325,24.24173,15117,1
DOMDIA HIGH SCHOOL,109252,School,GAZIPUR,KAPASIA,DUMDIA,90.68578,24.24066,15118,1
SHAHID GIAS HIGH SCHOOL,109241,School,GAZIPUR,KAPASIA,NAYANAGAR,90.61443,24.20906,15119,1
KIRTUNIA YOUSUB ALI BHUYAN G.H SCHOOL,109194,School,GAZIPUR,KAPASIA,KIRTANIA,90.62371,24.21297,15120,1
CHANGNA HIGH SCHOOL,109226,School,GAZIPUR,KAPASIA,CHENGANA,90.6283,24.1931,15121,1
NOROTTAMPUR HIGH SCHOOL,109244,School,GAZIPUR,KAPASIA,NAROTTAMPUR,90.654,24.19837,15122,1
SINGUA HIGH SCHOOL,109204,School,GAZIPUR,KAPASIA,BARISHABA,90.66129,24.1975,15123,1
RAYED UNION GIRLS HIGH SCHOOL,109186,School,GAZIPUR,KAPASIA,RAYED,90.65215,24.17029,15124,1
UNION HIGH SCHOOL, HAILJOR,109219,School,GAZIPUR,KAPASIA,HAILJOR,90.65196,24.2071,15125,1
HAFIZ UDDIN HIGH SCHOOL,109193,School,GAZIPUR,KAPASIA,BHULESHWAR,90.56135,24.21545,15126,1
AMRAID JUNIOR GIRL'S HIGH SCHOOL,109236,School,GAZIPUR,KAPASIA,AMRAID,90.57561,24.19252,15127,1
CHARBAGHUA JUNIOR GIRSL HIGH SCHOOL,109231,School,GAZIPUR,KAPASIA,CHAR BAGUA,90.57365,24.18078,15128,1
KHIRATI PURBA PARA DR.A.R. GIRL'S HIGH SCHOOL,109212,School,GAZIPUR,KAPASIA,KSHIRATI,90.58871,24.21422,15129,1
SINGUA FAKIR SAHABUDDIN GIRLS HIGH SCHOOL,109188,School,GAZIPUR,KAPASIA,BAGUA,90.59335,24.1726,15130,1
GHAGOTIA SHAHINA REZA  HIGH SCHOOL,109228,School,GAZIPUR,KAPASIA,GHAGOTIA,90.68775,24.15376,15131,1
KAMAR GAON HIGH SCHOOL,109197,School,GAZIPUR,KAPASIA,KAMARGAON,90.68702,24.14725,15132,1
FAKIR SHAHAB UDDIN ADARSHA HIGH SCHOOL,109195,School,GAZIPUR,KAPASIA,URUN,90.66337,24.15721,15133,1
HASANIa HIGH SCHOOL,109189,School,GAZIPUR,KAPASIA,BAMANKHOLA,90.64721,24.14569,15134,1
IDGAH HIGH SCHOOL,109209,School,GAZIPUR,KAPASIA,MATIKATA,90.67718,24.15095,15135,1
UTTAR KHAMER M.A  HIGH SCHOOL,109229,School,GAZIPUR,KAPASIA,TARGAON,90.58375,24.15612,15136,1
UTTAR KHAMER GIRLS HIGH SCHOOL,109208,School,GAZIPUR,KAPASIA,TARGAON,90.57714,24.14916,15137,1
KOHINUR GIRLS HIGH SCHOOL,109187,School,GAZIPUR,KAPASIA,TARGAON,90.55656,24.15338,15138,1
PAORITE WAHABIA HIGH SCHOOL,109223,School,GAZIPUR,KAPASIA,PEORAIT,90.58697,24.14277,15139,1
PIRIZPUR HIGH SCHOOL,109221,School,GAZIPUR,KAPASIA,PIRIJPUR,90.59753,24.14289,15140,1
RAMPUR HIGH SCHOOL,109192,School,GAZIPUR,KAPASIA,BARA RAMPUR,90.6008,24.14081,15141,1
KARIHATA HIGH SCHOOL,109184,School,GAZIPUR,KAPASIA,KARIHATA,90.5706,24.11997,15142,1
AKTHER BANU HIGH SCHOOL,109232,School,GAZIPUR,KAPASIA,ARAL,90.62602,24.13213,15143,1
ARAL SECONDARY SCHOOL,109190,School,GAZIPUR,KAPASIA,ARAL,90.62357,24.12531,15144,1
DAKHINGAON MIRZANAGAR GIRLS HIGH SCHOOL,109191,School,GAZIPUR,KAPASIA,MIRZANAGAR,90.61843,24.10262,15145,1
SANMANIA HIGH SCHOOL,109237,School,GAZIPUR,KAPASIA,SANMANIA,90.64156,24.09188,15146,1
SONMANIA ADARSHA GIRLS HIGH SCHOOL,109185,School,GAZIPUR,KAPASIA,SANMANIA,90.6512,24.11677,15147,1
AL-HAJ DR. A.AZIZ HIGH SCHOOL,109254,School,GAZIPUR,KAPASIA,CHAR ALINAGAR,90.66049,24.10656,15148,1
FULBARIA ADARSHA UCCHA BIDYALAYA,109230,School,GAZIPUR,KAPASIA,DURGAPUR,90.68919,24.10389,15149,1
RANIGANJ HIGH SCHOOL,109199,School,GAZIPUR,KAPASIA,GOSAINGAON,90.61036,24.07948,15150,1
NASHERA HIGH SCHOOL,109242,School,GAZIPUR,KAPASIA,NASRA,90.59572,24.05858,15151,1
DARIMERUN GIRLS HIGH SCHOOL,109248,School,GAZIPUR,KAPASIA,DARIMERUN,90.62502,24.07243,15152,1
BHAWAL CHANDPUR HIGH SCHOOL,109224,School,GAZIPUR,KAPASIA,CHANDPUR,90.60792,24.04233,15153,1
VAKOADI GIRLS HIGH SAHOOL,109218,School,GAZIPUR,KAPASIA,BHAKOADI,90.62853,24.04954,15154,1
VAKOADI HIGH SCHOOL,109196,School,GAZIPUR,KAPASIA,BHAKOADI,90.64441,24.04423,15155,1
BARASIT ADARSHA HIGH SCHOOL,109251,School,GAZIPUR,KAPASIA,DEFULIA,90.57801,24.04309,15156,1
NALGAON HIGH SCHOOL,109225,School,GAZIPUR,KAPASIA,NALGAON,90.57645,24.04294,15157,1
MAISHADHMNA  HIGH SCHOOL,109249,School,GAZIPUR,KAPASIA,MAISHADHAMNA,90.55282,24.05573,15158,1
BARUN HIGH SCHOOL,109245,School,GAZIPUR,KAPASIA,BARUN,90.55473,24.05636,15159,1
KAPASIA HARIMONJUIR PILOT GIRLS HIGH SCHOOL,109200,School,GAZIPUR,KAPASIA,KHODADIA,90.5243,24.05791,15160,1
BHUBANER CHALA HIGH SCHOOL,109234,School,GAZIPUR,KAPASIA,SURJYA NARAYANPUR,90.56437,24.08332,15161,1
TAZUDDIN ADARSHA  HIGH SCHOOL,109243,School,GAZIPUR,KAPASIA,DUSHYA NARAYANPUR,90.56591,24.08045,15162,1
VIKAR TEAK JUNIOR GIRLS HIGH SCHOOL,109233,School,GAZIPUR,KAPASIA,BHIKAR TEK,90.57588,24.10407,15163,1
LOHADI HIGH SCHOOL,109205,School,GAZIPUR,KAPASIA,LOHADIA,90.5527,24.10401,15164,1
CHARDURLAV  KHAN  ABDUL HYE SARKAR HIGH SCHOOL,109222,School,GAZIPUR,KAPASIA,CHAR DURLOV KHAN,90.53162,24.10885,15165,1
RAONAT ADARSHA UCHCHA BIDYANIKETAN,109201,School,GAZIPUR,KAPASIA,RAONAT,90.54366,24.13231,15166,1
KHIRATI A. K. HIGH SCHOOL,109215,School,GAZIPUR,KAPASIA,KSHIRATI,90.60264,24.19559,15167,1
GHAGOTIA CHALA HIGH SCHOOL,109206,School,GAZIPUR,KAPASIA,GHAGOTIA,90.6651,24.19793,15168,1
KAPASIA PILOT HIGH SCHOOL,109198,School,GAZIPUR,KAPASIA,BANAR HAOLA,90.62592,24.21127,15169,1
PABUR GIRLS HIGH SCHOOL,109227,School,GAZIPUR,KAPASIA,PABUR,90.68725,24.17929,15170,1
EKURIA HIGH SCHOOL,109214,School,GAZIPUR,KAPASIA,EKURIA,90.59749,24.09104,15171,1
AMRAID YAKUB ALI SIKDER HIGH SCHOOL,109246,School,GAZIPUR,KAPASIA,AMRAID,90.68386,24.14922,15172,1
ARAL G.L. HIGH SCHOOL,109210,School,GAZIPUR,KAPASIA,ARAL,90.6745,24.15061,15173,1
ALAUDDIN KHAN HIGH SCHOOL,109247,School,GAZIPUR,KAPASIA,BARAKAIKA,90.56684,24.10782,15174,1
MOISON  UNION GIRLS HIGH SCHOOL,109213,School,GAZIPUR,KAPASIA,MAISAN,90.54687,24.09259,15175,1
KOHINOOR BOYS HIGH SCHOOL,109220,School,GAZIPUR,KAPASIA,TARGAON,90.62095,24.10142,15176,1
CHANADULY BAGHIA M.R HIGH SCHOOL,109217,School,GAZIPUR,KAPASIA,CHINADULI,90.60592,24.19658,15177,1
ULUSARA ABDUL KADIR BHUIYA HIGH SCHOOL,109250,School,GAZIPUR,KAPASIA,ULUSARA,90.65587,24.11738,15178,1
TOKE S B GIRL S HIGH SCHOOL,109203,School,GAZIPUR,KAPASIA,NAYAN BAZAR,90.54442,24.26265,15179,1
TOKE RANENDRA HIGH SCHOOL,109202,School,GAZIPUR,KAPASIA,NAYAN BAZAR,90.58791,24.16765,15180,1
PANCHUA HIGH SCHOOL,109240,School,GAZIPUR,KAPASIA,PANCHUA,90.5754,24.12203,15181,1
NARUN HIGH SCHOOL,109137,School,GAZIPUR,KALIGANJ,NARUN,90.68559,24.18984,15182,1
NOAPARA MAIZUDDIN HIGH SCHOOL,109118,School,GAZIPUR,KALIGANJ,NOAPARA,90.50713,24.03066,15183,1
BAGHOON HIGH SCHOOL,109138,School,GAZIPUR,KALIGANJ,BHITI BAGUN,90.50706,24.03562,15184,1
BORAID HIGH SCHOOL,109140,School,GAZIPUR,KALIGANJ,BARAID,90.60633,24.02859,15185,1
BEGUM RABEYA AHMED HIGH SCHOOL,109123,School,GAZIPUR,KALIGANJ,BASAIR,90.59377,24.01007,15186,1
MUKTERPUR HIGH SCHOOL,109117,School,GAZIPUR,KALIGANJ,MOKTARPUR,90.61135,23.98237,15187,1
VIR MUKTIZODDA RUHUL AMIN DHALI HIGH SCHOOL,109114,School,GAZIPUR,KALIGANJ,BARAGAON,90.60341,24.00086,15188,1
JAMAL PUR R.M BADYAPITH,109121,School,GAZIPUR,KALIGANJ,JAMALPUR,90.65468,24.02761,15189,1
SHAORAID HIGH SCHOOL,109133,School,GAZIPUR,KALIGANJ,SEORAIT,90.6131,24.01296,15190,1
CHUPAIR HIGH SCHOOL,109116,School,GAZIPUR,KALIGANJ,KALAPATUA,90.64309,24.01174,15191,1
CHUPAiR GIRLS high SCHOOL,109131,School,GAZIPUR,KALIGANJ,CHUPAIR,90.59517,23.9716,15192,1
BEGUM SHAHID MOLLA GIRLS HIGH SCHOOL,109144,School,GAZIPUR,KALIGANJ,JAMALPUR,90.64041,24.00766,15193,1
SHAHID FOKIR SMSUDDIN SROMIK HIGH SCHOOL,109146,School,GAZIPUR,KALIGANJ,KHALAPARA,90.61864,23.99029,15194,1
JUGALI HIGH SCHOOL,109149,School,GAZIPUR,KALIGANJ,DHOLA SADHUKHAN,90.58727,23.99067,15195,1
SHADERGAON HIGH SCHOOL,109147,School,GAZIPUR,KALIGANJ,KHANJANA,90.61735,23.98293,15196,1
BALIGAON HIGH SCHOOL,109119,School,GAZIPUR,KALIGANJ,BALIGAON,90.61234,23.95543,15197,1
KALIGANJ GOVT. GIRL'S HIGH SCHOOL,109122,School,GAZIPUR,KALIGANJ,MUNSURPUR,90.61429,23.95163,15198,1
KALIGANJ R.R.N. PILOT GOVT. HIGH SCHOOL,109125,School,GAZIPUR,KALIGANJ,MUNSURPUR,90.5941,23.94806,15199,1
MUSLIN COTTON MILLS HIGH SCHOOL,109129,School,GAZIPUR,KALIGANJ,UTTAR BHADARATI,90.60807,23.94113,15200,1
KHAIKARA HIGH SCHOOL,109126,School,GAZIPUR,KALIGANJ,KHAIKARA,90.5802,23.92714,15201,1
BERUA A.R KHAN HIGH SCHOOL,109139,School,GAZIPUR,KALIGANJ,BERUA,90.56779,23.92469,15202,1
JANATA HIGH SCHOOL,109136,School,GAZIPUR,KALIAKAIR,MOTHAJURI,90.53922,23.96564,15203,1
PUNSHAHI HIGH SCHOOL,109145,School,GAZIPUR,KALIGANJ,PUNSHAHI,90.52723,23.97311,15204,1
JANGALIA HIGH SCHOOL,109130,School,GAZIPUR,KALIGANJ,JANGALIA,90.55096,23.97865,15205,1
BHAIASHUTY HIGH SCHOOL,109142,School,GAZIPUR,KALIGANJ,BHAIASUTI,90.53122,24.00017,15206,1
JANNATA HIGH SCHOOL,109100,School,GAZIPUR,KALIGANJ,PHULDI,90.54247,23.979,15207,1
JATHALIA MAZID CHALA HIGH SCHOOL,109096,School,GAZIPUR,KALIAKAIR,JATHILA,90.5591,23.92728,15208,1
M.M.P. SECONDARY HIGH SCHOOL,109098,School,GAZIPUR,KALIAKAIR,MOTHAJURI,90.602,23.97696,15209,1
AKKEL ALI HIGH SCHOOL,109081,School,GAZIPUR,KALIAKAIR,MOTHAJURI,90.56155,23.98274,15210,1
BOALI NARENDRA NARAYAN HIGH SCHOOL,109083,School,GAZIPUR,KALIAKAIR,BOALI,90.32234,24.20608,15211,1
KAZI SYEDUL ALAM HIGH SCHOOL,109068,School,GAZIPUR,KALIAKAIR,SONATALA,90.27316,24.19989,15212,1
DHOL SOMUDRA GIRLS BIDDA NIKETON,109088,School,GAZIPUR,KALIAKAIR,DAKURAIL,90.31573,24.18614,15213,1
RASHIIDPUR HIGH SCHOOL,109093,School,GAZIPUR,KALIAKAIR,RASHIDPUR,90.30037,24.11895,15214,1
FALU PahLOAN HIGH SCHOOL,109094,School,GAZIPUR,KALIAKAIR,CHAPAIR,90.31111,24.12877,15215,1
CHAPAIR  B B HIGH SCHOOL,109072,School,GAZIPUR,KALIAKAIR,CHAPAIR,90.3304,24.10577,15216,1
BIJOY SMARANI JR. SCHOOL,109097,School,GAZIPUR,KALIAKAIR,SUTRAPUR,90.22595,24.13111,15217,1
GOLAM NABI PILOT HIGH SCHOOL,109073,School,GAZIPUR,KALIAKAIR,KALIAKAIR (PART),90.23877,24.13765,15218,1
KALIAKAIR PILOT GIRLS HIGH SCHOOL,109070,School,GAZIPUR,KALIAKAIR,SIMAILTALI (PART),90.21099,24.08878,15219,1
BEGUM SUFIA MODEL HIGH SCHOOL,109071,School,GAZIPUR,KALIAKAIR,SREEFALTALI (PART),90.27681,24.10424,15220,1
KHALPAR POLLI MONGAL HIGH SCHOOL,109092,School,GAZIPUR,KALIAKAIR,GABTALI,90.19492,24.09044,15221,1
BHRINGARAJ TALIBABAD HIGH SCHOOL,109076,School,GAZIPUR,KALIAKAIR,BHINGRAJ,90.21871,24.07756,15222,1
BALIADI M.L HIGH SCHOOL,109077,School,GAZIPUR,KALIAKAIR,BALIADI,90.21663,24.07975,15223,1
SEORATALI BHUBANESWARI GIRLS HIGH SCHOOL,109078,School,GAZIPUR,KALIAKAIR,BALIADI,90.22585,24.0781,15224,1
BENUPUR BAZLUR RAHMAN HIGH SCHOOL,109069,School,GAZIPUR,KALIAKAIR,BENUPUR,90.20704,24.04452,15225,1
BANGURI ABDUL HAKIM HIGH SCHOOL,109084,School,GAZIPUR,KALIAKAIR,BAIKUNTHAPUR,90.20171,24.05819,15226,1
ARAIGANJ AZIM HIGH SCHOOL,109079,School,GAZIPUR,KALIAKAIR,DHALJORA,90.20527,24.0508,15227,1
ASRAF ALI  M.L HIGH SCHOOL,109075,School,GAZIPUR,KALIAKAIR,SAHBAJPUR,90.2014,24.05081,15228,1
GOSATRA DR. JALILUR RAHMAN HIGH SCHOOL,109095,School,GAZIPUR,KALIAKAIR,GOSATRA,90.20974,24.0549,15229,1
JATIR PITA BANGA BANDHU HIGH SCHOOL,109064,School,GAZIPUR,KALIAKAIR,DAINKINI,90.16629,24.05222,15230,1
MOUCHAK SCOUT HIGH SCHOOL,109074,School,GAZIPUR,KALIAKAIR,KAUCHAKURI,90.21,24.03112,15231,1
MALIK CHOWDHURY MEMORIAL GIRLS HIGH SCHOOL,109089,School,GAZIPUR,KALIAKAIR,SAFIPUR (PART),90.21176,24.02156,15232,1
SHINABAHA HIGH SCHOOL,109090,School,GAZIPUR,KALIAKAIR,SINABA,90.23948,24.04747,15233,1
MAZUKHAN HIGH SCHOOL,109099,School,GAZIPUR,KALIAKAIR,MAJHUKHAN,90.23472,24.04666,15234,1
BORABO HIGH SCHOOL,109080,School,GAZIPUR,KALIAKAIR,BARABA,90.25285,24.03543,15235,1
NAYANAGAR HIGH SCHOOL,109091,School,GAZIPUR,KALIAKAIR,MADHYAPARA,90.28881,24.01978,15236,1
SATURIA SOLHATI HIGH SCHOOL,109085,School,GAZIPUR,KALIAKAIR,SATURIA SOLAHATI,90.27574,24.02473,15237,1
NORTH LOSHKAR CHALA HIGH SCHOOL,109087,School,GAZIPUR,KALIAKAIR,UTTAR LASKARCHALA,90.27047,24.06491,15238,1
SAKASWAR H K HIGH SCHOOL,109082,School,GAZIPUR,KALIAKAIR,SAKASAR,90.29933,24.06239,15239,1
RAMCHANDRAPUR HIGH SCHOOL,109067,School,GAZIPUR,KALIAKAIR,KHALISAJANI,90.31447,24.04623,15240,1
AKULI CHALA  HIGHSCHOOL,109101,School,GAZIPUR,KALIAKAIR,THAKUR PARA,90.30622,24.07713,15241,1
PEROJALI HIGH SCHOOL,108949,School,GAZIPUR,GAZIPUR SADAR,PIRUJALI,90.32432,24.05796,15242,1
PIRUZALI ADARSHA HIGH SCHOOL,108940,School,GAZIPUR,GAZIPUR SADAR,PIRUJALI,90.2741,24.09264,15243,1
MONIPUR HIGH SCHOOL,108989,School,GAZIPUR,GAZIPUR SADAR,BOKRAN MANIPUR,90.3278,24.06984,15244,1
BHABANI PUR HIGH SCHOOL,108977,School,GAZIPUR,GAZIPUR SADAR,MAHONA BHABANIPUR,90.37158,24.13225,15245,1
PORABARI SHAH SUFI FASI UDDIN HIGH SCHOOL,108963,School,GAZIPUR,GAZIPUR SADAR,ARISA PRASAD (PART),90.37647,24.1356,15246,1
HATIAB HAZI SAMIR UDDIN HIGH SCHOOL,108958,School,GAZIPUR,GAZIPUR SADAR,HATIABA,90.41448,24.14444,15247,1
MOFIZ UDDIN KHAN HIGH SCHOOL,108991,School,GAZIPUR,GAZIPUR SADAR,CHAPULIA (PART),90.29325,23.98572,15248,1
CANTONMENT BOARD HIGH SCHOOL,108986,School,GAZIPUR,GAZIPUR SADAR,BARUI PARA (PART),90.41541,24.05228,15249,1
HARBAID HIGH SCHOOL,108978,School,GAZIPUR,GAZIPUR SADAR,NANDIBARI,90.40274,24.04622,15250,1
B O F HIGH SCHOOL,108960,School,GAZIPUR,GAZIPUR SADAR,CHATAR ORDINANCE FACTORY,90.41368,24.04776,15251,1
GAZIPUR CANTON MENT BOARD HIGH SCHOOL,108957,School,GAZIPUR,GAZIPUR SADAR,CHATAR ORDINANCE FACTORY,90.42052,24.04301,15252,1
SECURITY PRINTING CORPORATION HIGH SCHOOL,108969,School,GAZIPUR,GAZIPUR SADAR,CHAPULIA (PART),90.41965,24.04026,15253,1
BANGLADESH MACHINE TOOLS FACTORY HIGH SCHOOL,108962,School,GAZIPUR,GAZIPUR SADAR,CHAPULIA (PART),90.45196,23.89648,15254,1
B.D.P.SECONDARY SCHOOL,108987,School,GAZIPUR,GAZIPUR SADAR,FAOKAIL (PART),90.41402,24.03289,15255,1
BHOWAL BARIA UNION HIGH SCHOOL,108972,School,GAZIPUR,GAZIPUR SADAR,BARIA,90.42097,24.02488,15256,1
ATURI ADARSHA HIGH SCHOOL,108983,School,GAZIPUR,GAZIPUR SADAR,ATURI,90.39075,24.0265,15257,1
KAYER HIGH SCHOOL,108984,School,GAZIPUR,GAZIPUR SADAR,KAYER,90.43042,23.9987,15258,1
PUBAIL HIGH SCHOOL,108973,School,GAZIPUR,GAZIPUR SADAR,PUBAIL,90.46785,23.9965,15259,1
MAGDUBI ADARSA HIGH SCHOOL,108990,School,GAZIPUR,GAZIPUR SADAR,MEGHDUBI,90.50331,23.93967,15260,1
CHOTO DEWRA AGRANI HIGH SCHOOL,108980,School,GAZIPUR,GAZIPUR SADAR,CHHOTA DEORA,90.49708,23.93906,15261,1
G K ADARSHA HIGH SCHOOL,108974,School,GAZIPUR,GAZIPUR SADAR,DHIRASHRAM,90.4539,23.92438,15262,1
SHAHEED SMRITY HIGH SCHOOL,108970,School,GAZIPUR,GAZIPUR SADAR,PASCHIM JOYDEBPUR,90.43714,23.96022,15263,1
HAYDARABAD RAMONI KUMAR PAIT HIGH SCHOOL,108971,School,GAZIPUR,GAZIPUR SADAR,HYDARABAD,90.44363,23.94078,15264,1
KHAILKUR BADSHA MIAH AGRANI BIDYALAYA,108988,School,GAZIPUR,GAZIPUR SADAR,KHALIKAIR (PART),90.43219,23.98083,15265,1
BANGLADESH RICE RESEARCH INSTITUTE(BRRI) HIGH SCHOOL,108959,School,GAZIPUR,GAZIPUR SADAR,CHANDNA (PART) LASMIPURA,90.42979,23.93464,15266,1
B. A. R. I. HIGH SCHOOL,108956,School,GAZIPUR,GAZIPUR SADAR,CHANDNA (PART) LASMIPURA,90.4225,23.98519,15267,1
GACHA HIGH SCHOOL,108967,School,GAZIPUR,GAZIPUR SADAR,GACHHA,90.41961,23.9945,15268,1
KAMAR JUR YOUSUF ALI HIGH SCHOOL,108966,School,GAZIPUR,GAZIPUR SADAR,GACHHA,90.40463,23.9877,15269,1
BASAN TAIZUDDIN HIGH SCHOOL,108982,School,GAZIPUR,GAZIPUR SADAR,BASAN,90.40196,23.97312,15270,1
KASHIMPUR HIGH SCHOOL,108976,School,GAZIPUR,GAZIPUR SADAR,KASIMPUR,90.35916,23.928,15271,1
BAGHIA HIGH SCHOOL,108942,School,GAZIPUR,GAZIPUR SADAR,BAGIA (PART),90.32461,23.96822,15272,1
KONABARI M.A. KUDDUSHIGH SCHOOL,108968,School,GAZIPUR,GAZIPUR SADAR,MIRPUR (PART),90.30295,23.98608,15273,1
ROVER POLLI HIGH SCHOOL,108943,School,GAZIPUR,GAZIPUR SADAR,BAUPARA,90.3315,23.99897,15274,1
BHAWAL MIRZAPUR HAZI JAMIR UDDIN HIGH SCHOOL,108935,School,GAZIPUR,GAZIPUR SADAR,MIRZAPUR,90.36144,23.99211,15275,1
DAGARI ADARSHA  HGIH SCHOOL,108939,School,GAZIPUR,GAZIPUR SADAR,DAGARI,90.37822,24.03889,15276,1
KAZI RAZIA SULTANA GIRLS HIGH SCHOOL,108964,School,GAZIPUR,GAZIPUR SADAR,SARPARA,90.35137,24.08468,15277,1
SATAISH HIGH SCHOOL,109053,School,GAZIPUR,GAZIPUR SADAR,SATISH,90.3571,24.09342,15278,1
bhADUN multelateral HIGH SCHOOL,108941,School,GAZIPUR,GAZIPUR SADAR,MAIJGAON,90.45226,23.97049,15279,1
RANI BILASH MONI  GOVT. BOYs HIGH SCHOOL,108955,School,GAZIPUR,GAZIPUR SADAR,NOAGAON,90.36004,23.94572,15280,1
JOYDEBPUR GOVT. GIRLS HIGH SCHOOL,108954,School,GAZIPUR,GAZIPUR SADAR,HARINAL,90.36032,24.03849,15281,1
NILER PARA HIGH SCHOOL,108979,School,GAZIPUR,GAZIPUR SADAR,NELER PARA,90.41674,24.12522,15282,1
KADERIA TEXTAIL MILS ADARSHA HIGH SCHOOL,109048,School,GAZIPUR,GAZIPUR SADAR,AUCH PARA (PART-1),90.45855,23.93808,15283,1
T&T COLONY ADARSHA HIGH SCHOOL,109047,School,GAZIPUR,GAZIPUR SADAR,MORKUN,90.43647,23.97651,15284,1
SILMOON ABDUL HAKIM MASTER HIGH SCHOOL,109050,School,GAZIPUR,GAZIPUR SADAR,SHILMON,90.44427,23.99371,15285,1
SHAHEED SMRITY HIGH SCHOOL,109044,School,GAZIPUR,GAZIPUR SADAR,PURBA ARISPUR (PART-1),90.44754,23.99514,15286,1
MaZIDA GOVT. HIGH SCHOOL,109049,School,GAZIPUR,GAZIPUR SADAR,AUCH PARA (PART-2),90.43328,23.96386,15287,1
NISHAT JUTE MILLS ADARSHA BIDYALAY,109055,School,GAZIPUR,GAZIPUR SADAR,MACHIMPUR,90.43692,23.96807,15288,1
NOyAGAoN M A MAjID MIAH HIGH SCHOOL,109052,School,GAZIPUR,GAZIPUR SADAR,HIMAR DIGHI,90.4363,23.96385,15289,1
ASHRAF TEXTILE MILLS HIGH SCHOOL,109054,School,GAZIPUR,GAZIPUR SADAR,TONGI BORAM,90.43387,23.95986,15290,1
OLIMPIA TEXTILE MILLS HIGH SCHOOL,109056,School,GAZIPUR,GAZIPUR SADAR,MACHIMPUR,90.42685,23.95777,15291,1
T&T ADARSHA HIGH SCHOOL,108951,School,GAZIPUR,GAZIPUR SADAR,TELI PARA,90.42786,23.97043,15292,1
KALMASWER ROKEYA SMARANI GIRL'S SCHOOL,108993,School,GAZIPUR,GAZIPUR SADAR,CHAPULIA (PART),90.42584,23.94577,15293,1
MOJLISHPUR HIGH SCHOOL,108944,School,GAZIPUR,GAZIPUR SADAR,MAJLISHPUR,90.42443,23.95744,15294,1
KAWAL  TIA ZAHIR UDDIN HIGH SCHOOL,108985,School,GAZIPUR,GAZIPUR SADAR,KAYAILTIA,90.423,23.96244,15295,1
BAGHER BAZAR HIGH SCHOOL,108938,School,GAZIPUR,GAZIPUR SADAR,MAHONA BHABANIPUR,90.38719,23.99465,15296,1
BINDHAN HIGH SCHOOL,108981,School,GAZIPUR,GAZIPUR SADAR,CHANDARA,90.37923,23.96112,15297,1
MUDAFA HAZI SAYED ALI HIGH SCHOOL,108945,School,GAZIPUR,GAZIPUR SADAR,KAKIL SATAISH,90.35554,23.92441,15298,1
CHHAYABEETHI SOCIETY HIGH SCHOOL,108994,School,GAZIPUR,GAZIPUR SADAR,NOAGAON,90.35724,24.00907,15299,1
MONNOO TEXTILE MILLS HIGH SCHOOL,108946,School,GAZIPUR,GAZIPUR SADAR,MACHIMPUR,90.44931,23.9187,15300,1
BANGABANDHU SHEIKH MUJIBUR RAHMAN AGRICULTURAL UNIVERSITY SCHOOL,108953,School,GAZIPUR,GAZIPUR SADAR,DESHI PARA,90.42604,23.98963,15301,1
B. R. T. C. PUBLIC SCHOOL,108996,School,GAZIPUR,GAZIPUR SADAR,TEK NAGPARA,90.2925,23.97043,15302,1
SHARIFPUR ZIASH KHAN HIGH SCHOOL,108948,School,GAZIPUR,GAZIPUR SADAR,SONDA,90.38105,24.08038,15303,1
GAZIPUR UMEDA BEGUM GIRLS HIGH SCHOOL,108995,School,GAZIPUR,GAZIPUR SADAR,HARINAL,90.42201,24.15283,15304,1
TARAGANJ H. N. UCCHA MADHYAMIC BIDYLAYA,109326,School and College,GAZIPUR,KAPASIA,EKDALA,90.62411,24.06274,25985,1
AZMATPUR ADARSHA SCHOOL AND COLLEGE,109183,School and College,GAZIPUR,KALIGANJ,AZMATPUR,90.54822,24.00969,25986,1
BARAI BARI A.K.U.INSTITUTION AND COLLEGE,109113,School and College,GAZIPUR,KALIAKAIR,BARAIBARI,90.27773,24.1138,25987,1
VASHA SHAHEED ABDUL JABBAR ANSAR VDP SCHOOL aND COLLEGE,109086,School and College,GAZIPUR,KALIAKAIR,SAFIPUR (PART),90.20134,24.01201,25988,1
KAZIMUDDIN CHOWDHURY  SCHOOL AND COLLEGE,108961,School and College,GAZIPUR,GAZIPUR SADAR,AUTPARA,90.40072,23.9343,25989,1
HATIMARA UCHCHA MADYAMIK BIDYALAYA,109028,School and College,GAZIPUR,GAZIPUR SADAR,BARENDA,90.37657,23.94982,25990,1
ALEKJAN GIRL'S HIGH SCHOOL AND COLLEGE,108950,School and College,GAZIPUR,GAZIPUR SADAR,NAOJURI,90.32712,23.97912,25991,1
SALNA NASIR UDDIN MEMORIAL HIGH SCHOOL AND COLLEGE,109042,School and College,GAZIPUR,GAZIPUR SADAR,DAKSHIN SALNA,90.43323,24.02577,25992,1
SAFIUDDIN  SARKER  ACADEMY  AND  COLLEGE,109063,School and College,GAZIPUR,GAZIPUR SADAR,CHAPULIA (PART),90.43196,23.99875,25993,1
TONGI PILOT SCHOOL AND GIRLS COLLEGE,109062,School and College,GAZIPUR,GAZIPUR SADAR,AUCH PARA (PART-1),90.41596,23.98902,25994,1
SIRAJ UDDIN SARKER VIDYANIKETAN AND COLLEGE,109046,School and College,GAZIPUR,GAZIPUR SADAR,DAKSHIN ARISPUR (PART),90.44596,23.99126,25995,1
AMZAD ALI SARKAR PILOT GIRLS HIGH SCHOOL AND COLLEGE,109045,School and College,GAZIPUR,GAZIPUR SADAR,PASCHIM ARISPUR (PART),90.44477,23.99649,25996,1
SHAHAJUDDIN SARKER MODEL HIGHER SECONDARY SCHOOL,109051,School and College,GAZIPUR,GAZIPUR SADAR,DATTAPARA PART-1,90.43354,23.9673,25997,1
RAJENDRAPUR CANTonment PUBLIC SCHOOL AND COLLEGE,109039,School and College,GAZIPUR,GAZIPUR SADAR,BARUI PARA (PART),90.36567,24.00176,25998,1
M.E.H.ARIF COLLEGE,109043,School and College,GAZIPUR,GAZIPUR SADAR,MIRPUR (PART),90.40759,23.9548,25999,1
