inst name, eiin, inst_type, district, thana, mauza, long, lat, serial,isUnique
DR.IMDADUL HUQ MEMORIAL DEGREE COLLEGE,130645,College,GOPALGANJ,TUNGIPARA,JHANJHANIA,89.88247,22.92061,764,1
GOVT. SHEIKH MUJIBUR RAHMAN COLLEGE,109678,College,GOPALGANJ,TUNGIPARA,PATGATI (PART),89.91536,22.88969,765,1
M.H KHAN DEGREE COLLEGE,109485,College,GOPALGANJ,GOPALGANJ SADAR,ULPUR,89.8545,22.91806,766,1
GOVT NAZRUL DEGREE COLLEGE SATPAR,109484,College,GOPALGANJ,GOPALGANJ SADAR,BARA SATPAR,89.87039,23.09636,767,1
SHEIKH FAZILATUNNESSA GOVT MOHILA COLLEGE,109483,College,GOPALGANJ,GOPALGANJ SADAR,PURBA GHOSHER CHAR,89.86794,23.04789,768,1
HAJI  LALMIA  CITY  COLLEGE,109482,College,GOPALGANJ,GOPALGANJ SADAR,GHOSER CHAR,89.87408,23.02944,769,1
SABIRA - ROUF COLLEGE,131937,College,GOPALGANJ,GOPALGANJ SADAR,COURT MASJID PARA (KHATRA),89.81331,22.99381,770,1
GOVT.BANGABANDHU COLLEGE, GOPALGONJ,109481,College,GOPALGANJ,GOPALGANJ SADAR,LAUNCHGHAT PARA (KHATRA),89.82958,23.00236,771,1
MUKSUDPUR COLLEGE,109654,College,GOPALGANJ,MUKSUDPUR,DAKSHIN CHANDIBARDI,89.83119,23.00789,772,1
BANGA RATNA COLLEGE,KALIGRAM,109655,College,GOPALGANJ,MUKSUDPUR,KALIGRAM,89.98697,23.25286,773,1
UJANI B.K. B UNION COLLEGE,109653,College,GOPALGANJ,MUKSUDPUR,UJANI,89.86347,23.19697,774,1
KOTWALIPARA SHEIKH LUTFAR RAHMAN ADARSHA GOVT. COLLEGE,109591,College,GOPALGANJ,KOTALIPARA,MOKSHA KOTALI(PART),90.00539,22.98939,775,1
SHEKH RASEL COLLAGE,109590,College,GOPALGANJ,KOTALIPARA,KALABARI,90.01111,23.12786,776,1
SHEIKH HASINA ADRSA MAHABIDYALAY,109593,College,GOPALGANJ,KOTALIPARA,DHARA BASAIL,89.99797,22.92764,777,1
RAMSHIL COLLEGE,109589,College,GOPALGANJ,KOTALIPARA,RAMSHIL,90.08558,23.02358,778,1
KAZI MANTU COLLEGE,109592,College,GOPALGANJ,KOTALIPARA,KONERBHITA,90.07642,23.09764,779,1
GOVT. S.K COLLEGE RAMDIA KASHIANI  GOPALGANJ,109539,College,GOPALGANJ,KASHIANI,RAMDIA,89.77044,23.15175,780,1
M.A. KHALEQUE DEGREE COLLEGE, KASIANI, GOPALGONJ,109538,College,GOPALGANJ,KASHIANI,PONA,89.76072,23.16942,781,1
JOYNAGAR YAR ALI KHAN DEGREE COLLEGE,109536,College,GOPALGANJ,KASHIANI,MAHESHPUR,89.81378,23.25567,782,1
RAJPAT COLLEGE,109535,College,GOPALGANJ,KASHIANI,RAJPAT,89.85936,23.13819,783,1
RATOIL IDEAL COLLEGE,109537,College,GOPALGANJ,KASHIANI,RATAIL,89.71703,23.18269,784,1
GIMADANGA GOZALIA MOHILA FAZIL MADRASHA,109677,Madrasha,GOPALGANJ,TUNGIPARA,GIMADANGA,90.39658,23.96896,5111,1
GIMADANGA NESARIA FAZIL MADRASHA,109676,Madrasha,GOPALGANJ,TUNGIPARA,GIMADANGA (PART),89.83531,22.93669,5112,1
ULPUR  MOHILA  DAKHIL MADRASA,109476,Madrasha,GOPALGANJ,GOPALGANJ SADAR,ULPUR,89.89253,22.89022,5113,1
GOPALGONJ MOHILA Fazil Model MADRASHA,109478,Madrasha,GOPALGANJ,GOPALGANJ SADAR,LAUNCHGHAT PARA (KHATRA),89.95314,23.10417,5114,1
KARPARA  UNIUON Dakhil MADRASA,109474,Madrasha,GOPALGANJ,GOPALGANJ SADAR,KARPARA,89.82486,23.00456,5115,1
NILOKHI   DAKHIL MADRADA,109475,Madrasha,GOPALGANJ,GOPALGANJ SADAR,DURGAPUR,89.76636,23.12706,5116,1
GOPALGONJ SALEHIA KAMIL MADRASAH,109477,Madrasha,GOPALGANJ,GOPALGANJ SADAR,PASCHIM THANAPARA (KHATRA),89.82131,23.00875,5117,1
FASLIS  DSS  DAKHIL  MADRASA,109529,Madrasha,GOPALGANJ,KASHIANI,FALSI,89.82503,22.99875,5118,1
PROVAKARDI  A S DAKHIL MADRASHA,109642,Madrasha,GOPALGANJ,MUKSUDPUR,UTTAR PROVAKARDI,89.82831,23.00711,5119,1
MUKSUDPUR FAZIL  MADRASHA,109643,Madrasha,GOPALGANJ,MUKSUDPUR,TENGRAKHOLA,89.78736,23.11775,5120,1
KAMLAPUR ALIM MADRASAH,109646,Madrasha,GOPALGANJ,MUKSUDPUR,PURBA KAMALPUR,89.86869,23.32042,5121,1
JHUTIGRAM ISLAMIA DAKHIL MADRASHA,109652,Madrasha,GOPALGANJ,MUKSUDPUR,JUTHIGRAM,89.88353,23.29325,5122,1
BAHARA MOHILA DAKHIL MADRASAH,109641,Madrasha,GOPALGANJ,MUKSUDPUR,BARA BAHARA,89.87233,23.24272,5123,1
BAHARA MOULOVI BAZAR ALIM MADRASHA,109644,Madrasha,GOPALGANJ,MUKSUDPUR,BARA BAHARA,89.86247,23.23969,5124,1
VAJANDI ADORSHO BALIKA DAKHIL MADRASHA,109650,Madrasha,GOPALGANJ,MUKSUDPUR,BHAJANDI,89.96244,23.341,5125,1
DIGNAGAR FAZIL MADRASHA,109636,Madrasha,GOPALGANJ,MUKSUDPUR,DIGNAGAR,89.95722,23.34431,5126,1
SALINA BOXA DAKHIL MADRASAH,109648,Madrasha,GOPALGANJ,MUKSUDPUR,SALINABAKSA,90.00442,23.30239,5127,1
BEJRA VATRA mu ALIM MADRASHA,109637,Madrasha,GOPALGANJ,MUKSUDPUR,BEJARA,89.91986,23.24556,5128,1
BEZRA VATRA SIDDIQUIA MOHILA ALIM MADRASAH,109647,Madrasha,GOPALGANJ,MUKSUDPUR,BEJARA,89.91867,23.22014,5129,1
PANCHARA ASLAM MUNSHI DAKHIL MADRASHA,131701,Madrasha,GOPALGANJ,MUKSUDPUR,PANCHRA,89.84289,23.24653,5130,1
LOHACHURA DARUL ULUM ISLAMIA DAKHIL MADRASAH,109640,Madrasha,GOPALGANJ,MUKSUDPUR,LOHACHURA,89.84303,23.26108,5131,1
SHIEKH FAZILATUNNESA MODEL MOHILA ALIM MADRASHA,109649,Madrasha,GOPALGANJ,MUKSUDPUR,LOHACHURA,89.841,23.24258,5132,1
LOHAIR DARUL ULUM FAZIL MADRASHA,109638,Madrasha,GOPALGANJ,MUKSUDPUR,LOHAIR,89.84278,23.24472,5133,1
BANGRAM ISLAMIA DAKHIL MADRASAH,109635,Madrasha,GOPALGANJ,MUKSUDPUR,MADHYA BANAGRAM,89.85019,23.258,5134,1
SHEIKH ABDUR RAZZAK ALIM MADRASAH,109651,Madrasha,GOPALGANJ,MUKSUDPUR,KRISHNADIA,89.94336,23.27042,5135,1
PANCHURIA DAKHIL MADRASA,109634,Madrasha,GOPALGANJ,MUKSUDPUR,PANCHURIA,89.96189,23.21886,5136,1
UJANI AZIZIA DAKHIL MADRASA,109639,Madrasha,GOPALGANJ,MUKSUDPUR,UJANI,89.89703,23.21075,5137,1
PURBA UTTAR KOTALI PARA FAZIL MADRASHA,109585,Madrasha,GOPALGANJ,KOTALIPARA,GACHHA PARA,89.89725,23.19372,5138,1
BALUHAR  ISLAMIA  DAKHIL MADRASA,109588,Madrasha,GOPALGANJ,KOTALIPARA,BALUHAR,90.06428,22.98314,5139,1
KUSHLA NESARIA SENIOR FAZIL MADRASHA,109584,Madrasha,GOPALGANJ,KOTALIPARA,TUTA PARA,90.00289,22.90244,5140,1
RADHAGANJ  SARBAJANIN  DAKHIL MADRASA,131619,Madrasha,GOPALGANJ,KOTALIPARA,CHHOTA DIGHALIA,89.98169,22.95081,5141,1
DOMRAKANDI NURUL ISLAM FAZIL MADRASAH,109530,Madrasha,GOPALGANJ,KASHIANI,RAJPAT DOMRAKANDI,89.70022,23.20972,5142,1
GOALGRAM KAMIL MADRASHA,109526,Madrasha,GOPALGANJ,KASHIANI,GOALGRAM,89.72747,23.22675,5143,1
JOYNAGOR M.U. SENIOR (ALIM) MADRASHA,109527,Madrasha,GOPALGANJ,KASHIANI,MAHESHPUR,89.82028,23.24353,5144,1
PARULIA  DAKHIL MADRASA,109533,Madrasha,GOPALGANJ,KASHIANI,BARA PARULIA,89.81439,23.18014,5145,1
BOROIHAT SIDDIQUIA SENIOR ALIM MADRASHA,109525,Madrasha,GOPALGANJ,KASHIANI,BARA BAHIRBHAG,89.78833,23.21769,5146,1
PARKARFA ZALALIA DAKHIL MADRASHA,109531,Madrasha,GOPALGANJ,KASHIANI,PAR KARFA,89.69092,23.18636,5147,1
MAJRA MOHIUL ULAM FAZIL MADRASAH,109524,Madrasha,GOPALGANJ,KASHIANI,BHATTAI DHOBA,89.74261,23.18906,5148,1
BASURIA SENERCHAR HIGH SCHOOL,109668,School,GOPALGANJ,TUNGIPARA,BARNI,90.32108,24.02118,15306,1
BORNI HIGH SCHOOL,109661,School,GOPALGANJ,TUNGIPARA,BARNI,90.36376,23.97036,15307,1
BEGUM FATEMA SGCONDARY GIRLS SCHOOL,109672,School,GOPALGANJ,TUNGIPARA,JHANJHANIA,90.43223,24.00358,15308,1
BASHBARIA JHANJHANIA SECONDARY SCHOOL,109667,School,GOPALGANJ,TUNGIPARA,JHANJHANIA,90.40511,24.06242,15309,1
DUMARIA ML SECONDARY SCHOOL,109662,School,GOPALGANJ,TUNGIPARA,CHHOTA DUMURIA,89.87039,22.93258,15310,1
TARAIL ADARSHA MADHYAMIK VIDYALOY,109671,School,GOPALGANJ,TUNGIPARA,BHAIRABNAGAR,89.86903,22.95969,15311,1
BUADHANA SILNA BINDU BASHINI HIGH SHOOL,109660,School,GOPALGANJ,TUNGIPARA,GUADHANA,89.94278,22.85072,15312,1
GOPALPUR PANCHA PALLI HIGH SCHOOL,109663,School,GOPALGANJ,TUNGIPARA,GOPALPUR,89.942,22.84914,15313,1
KUSHLI ISLAMIA HIGH SCHOOL,109664,School,GOPALGANJ,TUNGIPARA,KUSHLI,89.94719,22.91508,15314,1
NILFA  BOYRA  HIGH SCHOOL,109659,School,GOPALGANJ,TUNGIPARA,NILFA,89.93775,22.85556,15315,1
TREEPALLI SHAK ABU NASAR JU SCHOOL,109675,School,GOPALGANJ,TUNGIPARA,PATGATI (PART),89.87664,22.98044,15316,1
GIMADANGA IDEAL HIGH SCHOOL,109665,School,GOPALGANJ,TUNGIPARA,GIMADANGA (PART),89.92703,22.97828,15317,1
BANGABANDHU SMRITY GOVT.  GIRLS HIGH SCHOOL,109670,School,GOPALGANJ,TUNGIPARA,GIMADANGA (PART),89.91742,22.95356,15318,1
GIMADANGA TUNGIPARA GOVT HIGH SCHOOL,109658,School,GOPALGANJ,TUNGIPARA,GIMADANGA (PART),89.85936,22.94367,15319,1
KUSHLI KHAN SAHEB SK, MOSHARRAF HOSSAIN junior SCHOOL,109674,School,GOPALGANJ,TUNGIPARA,KUSHLI,89.87744,22.92061,15320,1
HAZI KHORSHED SAPTA PALLI HIGH SCHOOL,109459,School,GOPALGANJ,GOPALGANJ SADAR,MAKIMPUR MANIKHA,89.88953,22.89731,15321,1
NIZRA SIKIPARA S K M JR. SCHOOL,109469,School,GOPALGANJ,GOPALGANJ SADAR,PADMABILA,89.88983,22.89653,15322,1
WOOLPUR P.C HIGH SCHOOL,109438,School,GOPALGANJ,GOPALGANJ SADAR,ULPUR,89.87997,22.92056,15323,1
SATPAR HEMLATA ADARSHA high SCHOOL,109471,School,GOPALGANJ,GOPALGANJ SADAR,BARA SATPAR,89.77958,23.01872,15324,1
SUKTAIL UNION HIGH SCHOOL,109433,School,GOPALGANJ,GOPALGANJ SADAR,SUKTAIL,89.82903,23.07347,15325,1
NIZRA SAPTAGAM B.K HIGH SCHOOL,109431,School,GOPALGANJ,GOPALGANJ SADAR,PADMABILA,89.83411,23.06906,15326,1
TUTHAMANDRA  HIGH SCHOOL,109441,School,GOPALGANJ,GOPALGANJ SADAR,TUTAMANDRA,89.84136,23.06419,15327,1
BENNABARI SAMMILITA HIGH SCHOOL,109439,School,GOPALGANJ,GOPALGANJ SADAR,BHENNABARI,89.92258,23.12472,15328,1
SATPAR DINNNATH GOYALI CHANDRA HIGH SCHOOL,109451,School,GOPALGANJ,GOPALGANJ SADAR,BARA SATPAR,89.91814,23.13333,15329,1
PAIKKANDI HIGH SCHOOL,109432,School,GOPALGANJ,GOPALGANJ SADAR,PAIKKANDI,89.73436,23.08122,15330,1
SULTANSHAHI KEKANIA HIGH SCHOOL,109434,School,GOPALGANJ,GOPALGANJ SADAR,SULTANSI,89.85744,23.09564,15331,1
RAGHUNATH PUR DINANATH HIGH SCHOOL,109430,School,GOPALGANJ,GOPALGANJ SADAR,RAGHUNATHPUR,89.91589,23.10211,15332,1
PANCHA PALLI BARHa DOMRASHUR HIGH SCHOOL,109440,School,GOPALGANJ,GOPALGANJ SADAR,BARA DOMRASUR,89.93683,23.15669,15333,1
DALNIA I.A. HIGH SCHOOL,109443,School,GOPALGANJ,GOPALGANJ SADAR,DALINA,89.92111,23.13644,15334,1
DASHAPALLI N.K. HIGH SCHOOL,109453,School,GOPALGANJ,GOPALGANJ SADAR,MAJHIGATI,89.77797,23.04308,15335,1
NARIKEL BARI HIGH SCHOOL,109466,School,GOPALGANJ,GOPALGANJ SADAR,NIZRA,89.75528,23.04936,15336,1
NIJRA HIGH SCHOOL,109470,School,GOPALGANJ,GOPALGANJ SADAR,NIZRA,89.86869,23.00422,15337,1
K K T HAJI N C INSTITUTION,109437,School,GOPALGANJ,GOPALGANJ SADAR,KATI (PART),89.82808,23.01236,15338,1
SWARNAKALI HIGH SCHOOL,109449,School,GOPALGANJ,GOPALGANJ SADAR,DAKSHIN GHOSHER CHAR,89.82586,23.00731,15339,1
JUGOSHIKHA JUNIOR GIRLS SCHOOL,131455,School,GOPALGANJ,GOPALGANJ SADAR,PASCHIM THANAPARA (KHATRA),89.82625,23.01061,15340,1
SHERORABARI BICHARAN ASWANI SHASHTHAPALLI HIGH SCHOOL,109456,School,GOPALGANJ,GOPALGANJ SADAR,SEORABARI,89.83456,23.01692,15341,1
BALAKAIR AZHARIA HIGH SCHOOL,109463,School,GOPALGANJ,GOPALGANJ SADAR,BALAURI,89.84558,23.01411,15342,1
KARPARA UNION (MUL) HIGH SCHOOL,109446,School,GOPALGANJ,GOPALGANJ SADAR,KARPARA,89.89778,23.02436,15343,1
BANGABANDHU SMRITY HIGH SCHOOL,109444,School,GOPALGANJ,GOPALGANJ SADAR,MATLA,89.83319,23.01425,15344,1
PALLI MANGAL UNITED ACADEMY,109460,School,GOPALGANJ,GOPALGANJ SADAR,KAJULIA,89.95306,23.07908,15345,1
PITHA BARI S.P.S.C  JUNIOR HIGH SCHOOL,109467,School,GOPALGANJ,GOPALGANJ SADAR,BIL KAJULIA,89.89636,23.06606,15346,1
GOPINATHPUR HIGH SCHOOL,109442,School,GOPALGANJ,GOPALGANJ SADAR,MARY GOPINATHPUR,89.87906,23.07664,15347,1
ARPARA ISLAMIA HIGH SCHOOL,109455,School,GOPALGANJ,GOPALGANJ SADAR,BADE KHAGAIL,89.88747,23.07397,15348,1
HARIDASPUR SAPTAPALLI JUNIOR HIGH SCHOOL,109473,School,GOPALGANJ,GOPALGANJ SADAR,HARIDASPUR,89.73472,23.11825,15349,1
UNITED ACADEMY KHALIA,109458,School,GOPALGANJ,GOPALGANJ SADAR,KHALIA,89.94367,23.02286,15350,1
SHAHID GOLZER GIRLS HIGH SCHOOL,109464,School,GOPALGANJ,GOPALGANJ SADAR,GOBRA,89.92653,23.06053,15351,1
CHARBOYRA GHONAPARA HIGH SCHOOL,109445,School,GOPALGANJ,GOPALGANJ SADAR,GHONA PARA (PART),89.76228,23.10056,15352,1
SHAEED SMRITY JUNIOR SCHOOL,109435,School,GOPALGANJ,GOPALGANJ SADAR,GOBRA,89.81317,23.04558,15353,1
KHONDKER  SHAKSUDDIN  SMRITY  HIGH SCHOOL,109428,School,GOPALGANJ,GOPALGANJ SADAR,BARA GOPINATHPUR,89.82197,23.02928,15354,1
HAZI  NADER  ALI SADEK ALI  HIGH SCHOOL,109472,School,GOPALGANJ,GOPALGANJ SADAR,BETGRAM (PART),89.82703,22.94797,15356,1
DURGAPUR HIGH SCHOOL,109462,School,GOPALGANJ,GOPALGANJ SADAR,DURGAPUR,89.81372,22.96311,15357,1
SHEIKH MUJIB ADARSHA HIGH SCHOOL,109461,School,GOPALGANJ,GOPALGANJ SADAR,BORASI,89.84567,23.01964,15358,2
BOUTALI SAHAPUR SAMMILANI HIGH SCHOOL,109450,School,GOPALGANJ,GOPALGANJ SADAR,BAULTALI,89.84567,23.01964,15359,2
CHANDRA DIGHALIA HIGH SCHOOL,109465,School,GOPALGANJ,GOPALGANJ SADAR,BHUIYA PARA,89.84781,23.05044,15360,1
WAHAB ADARSHA HIGH SCHOOL,109436,School,GOPALGANJ,GOPALGANJ SADAR,PACHURIA,89.84769,23.03667,15361,1
BAJUNIA PANCHAPALLI BANKA BIHARI HIGH SCHOOL,109468,School,GOPALGANJ,GOPALGANJ SADAR,BAJUNIA,89.81919,22.99917,15362,1
GOPALGANJ GIRLS HIGH SCHOOL,109429,School,GOPALGANJ,GOPALGANJ SADAR,DAKSHIN TEGHARIA,89.88681,23.10289,15363,1
S M MODEL GOVT. HIGH SCHOOL,109447,School,GOPALGANJ,GOPALGANJ SADAR,COURT MASJID PARA (KHATRA),89.82156,23.00161,15364,1
GOPALGANJ HIGH SCHOOL,109454,School,GOPALGANJ,GOPALGANJ SADAR,GOPALGANJ H.SCHOOL AREA(KHATRA,89.83569,23.01353,15365,1
BINAPANI GOVT. GIRLS HIGH SCHOOL,109448,School,GOPALGANJ,GOPALGANJ SADAR,DAKSHIN BAZARPARA (KHATRA),89.82939,23.00494,15366,1
MUKSUDPUR PILOT BOY'S HIGH SCHOOL,109601,School,GOPALGANJ,MUKSUDPUR,DAKSHIN CHANDIBARDI,89.82964,23.00542,15367,1
SIMULsUR DIGRA GACUA JUNIOR SCHOOL,109631,School,GOPALGANJ,MUKSUDPUR,NAGAR SUNDARD,89.82975,23.01008,15368,1
ABDUL KHALEQUE ACADEMY,109633,School,GOPALGANJ,MUKSUDPUR,PURBA KAMALPUR,89.85731,23.32481,15369,1
GOLBARIA HIGH SCHOOL,109618,School,GOPALGANJ,MUKSUDPUR,GOLABARIA,89.90917,23.26081,15370,1
HADIUZZAMAN MEMORIAL HIGH SCHOOL,109625,School,GOPALGANJ,MUKSUDPUR,BALIAKANDI,89.86447,23.31325,15371,1
BOALIA NEZAMUDDIN HIGH SCHOOL,109613,School,GOPALGANJ,MUKSUDPUR,BOALIA,89.87356,23.31964,15372,1
KALINAGAR HIGH SCHOOL,109598,School,GOPALGANJ,MUKSUDPUR,KALINAGAR,89.88728,23.33036,15373,1
BAHUGRAM P.C HIGH SCHOOL,109604,School,GOPALGANJ,MUKSUDPUR,BAHUGRAM,89.89061,23.3295,15374,1
GARAL GATI K.M. HIGH SCHOOL,109610,School,GOPALGANJ,MUKSUDPUR,GARALGATI,89.88447,23.26311,15375,1
KAHALDIA HIGH SCHOOL,109628,School,GOPALGANJ,MUKSUDPUR,KAHALDIA,89.91161,23.27283,15376,1
BARAIHATI IDEAL HIGH SCHOOL,131380,School,GOPALGANJ,MUKSUDPUR,BARAIHAT,89.89511,23.26264,15377,1
DIGNAGAR HIGH SCHOOL,109605,School,GOPALGANJ,MUKSUDPUR,DIGNAGAR,89.96839,23.33089,15378,1
SURUPI SALINA BOXA HIGH SCHOOL,109615,School,GOPALGANJ,MUKSUDPUR,SALINABAKSA,89.98528,23.27803,15379,1
GOHALA T.C.A.L HIGH SCHOOL,109595,School,GOPALGANJ,MUKSUDPUR,GOHALA,90.00922,23.29053,15380,1
GOHALA GIRLS HIGH SCHOOL,109621,School,GOPALGANJ,MUKSUDPUR,GOHALA,90.00442,23.30203,15381,1
EAST LAKSHNDA JARATORI JUNIOR SCHOOL,109616,School,GOPALGANJ,MUKSUDPUR,JIRATALI,89.82744,23.27097,15382,1
SURJAKANTA JANAKEE ADARSHA HIGH SCHOOL,109620,School,GOPALGANJ,MUKSUDPUR,KALIGRAM,89.81217,23.29019,15383,1
J.K.M.B MALLICK HIGH SCHOOL,109602,School,GOPALGANJ,MUKSUDPUR,JALIRPAR,89.80836,23.28483,15384,1
GUNOHAR SADEK MALLIK MEMORIAL HIGH SCHOOL,109632,School,GOPALGANJ,MUKSUDPUR,GUNAHAR,89.98969,23.25303,15385,1
M.K.B.H HIGH SCHOOL,109626,School,GOPALGANJ,MUKSUDPUR,KASALIA,89.97525,23.24483,15386,1
BEDGRAM HIGH SCHOOL,109608,School,GOPALGANJ,MUKSUDPUR,BETGRAM,89.97025,23.20758,15387,1
JASHIMONNESSA HIGH SCHOOL,109609,School,GOPALGANJ,MUKSUDPUR,BEJARA,89.97286,23.22061,15388,1
KHANDARPARA UNION INDUHATI HALADAR HIGH SCHOOL,109603,School,GOPALGANJ,MUKSUDPUR,INDUHATI,89.96706,23.21786,15389,1
DR.SAIDUR RAHMAN LASKER ACADEMY,131381,School,GOPALGANJ,MUKSUDPUR,KHANDARPAR,89.93958,23.25367,15390,1
MAHARAJPUR HIGH SCHOOL,109614,School,GOPALGANJ,MUKSUDPUR,MAHARAJPUR,89.86219,23.26356,15391,1
AIKDIA ACHIA HIGH SCHOOL,109623,School,GOPALGANJ,MUKSUDPUR,AIKDIA,89.91294,23.30739,15392,1
NOWHATA A.R.M HIGH SCHOOL,109606,School,GOPALGANJ,MUKSUDPUR,NAHATTA,89.904,23.31369,15393,1
S.M MODEL SECONDARY SCHOOL,133745,School,GOPALGANJ,MUKSUDPUR,GOALGRAM,89.89972,23.31269,15394,1
KOLIGRAM MONIMOHAN FULL GOSPEL CHURCH MODEL HIGH SCHOOL,109627,School,GOPALGANJ,MUKSUDPUR,BIL CHANDA,89.94294,23.30731,15395,1
NANIKHIR HIGH SCHOOL,109600,School,GOPALGANJ,MUKSUDPUR,NANIKSHIR,89.93636,23.31322,15396,1
A.P.F. BADIUZZAMAN HIGH SCHOOL,109619,School,GOPALGANJ,MUKSUDPUR,PANCHURIA,89.92814,23.29567,15397,1
CHAGAL CHHIRA ADARSA HIGH SCHOOL,109629,School,GOPALGANJ,MUKSUDPUR,CHHAGALCHHIRA,89.95914,23.212,15398,1
ROKEYA BEGUM BIDYANIKETON,109630,School,GOPALGANJ,MUKSUDPUR,BASUDEBPUR,89.80022,23.30358,15399,1
BASURIA HIGH SCHOOL,109607,School,GOPALGANJ,MUKSUDPUR,BASURIA,89.82281,23.33544,15400,1
D.M.D JU SCHOOL,131391,School,GOPALGANJ,MUKSUDPUR,MAHATALI,89.80094,23.30414,15401,1
B. U. K. UNION HIGH SCHOOL,109611,School,GOPALGANJ,MUKSUDPUR,UJANI,90.01789,23.273,15402,1
B.P.B. HIGH SCHOOL,109617,School,GOPALGANJ,MUKSUDPUR,PATKELBARI,90.01628,23.27308,15403,1
BANDHABARI J.B.P HIGH SCHOOL,109542,School,GOPALGANJ,KOTALIPARA,BANDHABARI,89.89889,23.23719,15404,1
KOTALI PARA S N INSTITUTION,109548,School,GOPALGANJ,KOTALIPARA,MADHURNAGRA,89.91311,23.20064,15405,1
KAMALKURI BIDDYANIKETON,109540,School,GOPALGANJ,KOTALIPARA,BAGAN UTTARPAR(PART),89.89753,23.23661,15406,1
KOTALIPARA UNION INSTITUTION PILOT,109544,School,GOPALGANJ,KOTALIPARA,DAHAR PARA,89.90222,23.22606,15407,1
KOTWALIPARA SHAHANA RASHID GIRLS SCHOOL,109568,School,GOPALGANJ,KOTALIPARA,GHAGAR(PART),90.04189,23.00586,15408,1
KOTALIPARA PUBLIC INSTITUTION,109541,School,GOPALGANJ,KOTALIPARA,BALUHAR,90.06389,23.00331,15409,1
SONAR BANGLA HIGH SCHOOL,109565,School,GOPALGANJ,KOTALIPARA,HIRAN,90.00575,22.97297,15410,1
HIRAN PANCHA PALLI HIGH SCHOOL,109570,School,GOPALGANJ,KOTALIPARA,HIRAN,89.99233,22.98933,15411,1
WEST KOTWALIPARA UNION INSTITUTION,109545,School,GOPALGANJ,KOTALIPARA,MAJHBARI,90.01636,22.99367,15412,1
POLSAIR TRI POLLI HIGH  SCHOOL,109575,School,GOPALGANJ,KOTALIPARA,POLSAIR,90.02319,22.99608,15413,1
PANCO POLLI high  SCHOOL,109582,School,GOPALGANJ,KOTALIPARA,BAIKUNTHAPUR,90.00514,22.98239,15414,1
BINOY KRISHNA ADARSHA HIGH SCHOOL,109550,School,GOPALGANJ,KOTALIPARA,KALABARI,89.95058,22.98114,15415,1
RADHAKANTA HIGH SCHOOL,109567,School,GOPALGANJ,KOTALIPARA,KALABARI,89.96042,22.99053,15416,1
BISHNUPUR JANAKALYAN HIGH SCHOOL,109579,School,GOPALGANJ,KOTALIPARA,MANDARBARI,89.97169,23.00622,15417,1
S. K. M. H. HIGH SCHOOL,109577,School,GOPALGANJ,KOTALIPARA,BISHNUPUR,89.92636,22.99769,15418,1
DHARABASHAIL HIGH SCHOOL,109553,School,GOPALGANJ,KOTALIPARA,KANDI,89.99833,23.09564,15419,1
KANDI HIGH SCHOOL,109564,School,GOPALGANJ,KOTALIPARA,KANDI,90.00664,23.09353,15420,1
KANDI JUNIOR  SCHOOL,109572,School,GOPALGANJ,KOTALIPARA,KANDI,90.02047,23.06511,15421,1
PUBLIC HIGH SCHOOL,109554,School,GOPALGANJ,KOTALIPARA,TALPUKURIA (BHENNABARI),90.01986,23.07197,15422,1
TALPUKURIA PANCHA PALLI  HIGH SCHOOL,109559,School,GOPALGANJ,KOTALIPARA,MACHARTARA,89.99564,23.09344,15423,1
UTTAR KOTALIPARA RAMMOHAN BIDDYALAYA,109547,School,GOPALGANJ,KOTALIPARA,CHARKHALI,90.02089,22.92686,15424,1
MANDRA RADHAGANJ UNITED INSTITUTION,109557,School,GOPALGANJ,KOTALIPARA,MANDRA,90.02089,22.91936,15425,1
GOPALPUR KARIMUN-NESSA HIGH SCHOOL,109556,School,GOPALGANJ,KOTALIPARA,GOPALPUR,89.98683,22.89017,15426,1
PINJURI  UNION HIGH SCHOOL.,109543,School,GOPALGANJ,KOTALIPARA,PINJURI,89.99236,22.92603,15427,1
DOUGLAS MEMORIAL HIGH SCHOOL,109566,School,GOPALGANJ,KOTALIPARA,BHABANIPUR,89.99503,23.03831,15428,1
UMACHARAN SARBA JANIN HIGH SCHOOL, DEBGRAM,109558,School,GOPALGANJ,KOTALIPARA,GOBINDAPUR,90.01108,23.04728,15429,1
NARIKELBARI HIGH SCHOOL,109551,School,GOPALGANJ,KOTALIPARA,NARIKELBARI,89.98097,23.01464,15430,1
EAST KOTALIPARA UNION HIGH SCHOOL,109546,School,GOPALGANJ,KOTALIPARA,RAMSHIL JAHARERKANDI,90.04189,23.03875,15431,1
KHAGBARI JUNIOR HIGH SCHOOL,109569,School,GOPALGANJ,KOTALIPARA,RAMSHIL KHAGBARI,90.01931,23.03381,15432,1
SOULADAH  MUSHURIA HIGH SCHOOL,109563,School,GOPALGANJ,KOTALIPARA,RAMSHIL MUSURIA,90.06344,23.05308,15433,1
RAJAPUR ADARSHA HIGH SCHOOL,109578,School,GOPALGANJ,KOTALIPARA,RAJAPUR,90.01486,23.04886,15434,1
RAMSHIL ADARSHA HIGH SCHOOL,109561,School,GOPALGANJ,KOTALIPARA,RAMSHIL,90.04506,23.01069,15435,1
HAZRABARI TIKARIBARI HIGH SCHOOL,109583,School,GOPALGANJ,KOTALIPARA,HAZRABARI,90.08592,23.01617,15436,1
LAKHANDA TULSIBARI MADHYAMIK ADARSH BIDDAYAPATH,109571,School,GOPALGANJ,KOTALIPARA,RAMSHIL LAKHANDA,90.10169,23.04903,15437,1
TALIMPUR TELIHATI HIGH SCHOOL,109555,School,GOPALGANJ,KOTALIPARA,SADULLAPUR,90.08189,22.99461,15438,1
SARALAMOYE GIRLS HIGH SCHOOL,109576,School,GOPALGANJ,KOTALIPARA,SADULLAPUR,90.10425,23.01569,15439,1
NAIARBARI BOHUMUKHI HIGH SCHOOL,109562,School,GOPALGANJ,KOTALIPARA,RAMSHIL NAYARBARI,90.10286,23.01044,15440,1
WEST PIRAR BARI  HIGH SCHOOL,109573,School,GOPALGANJ,KOTALIPARA,RAMSHIL PIRARBARI,90.03397,23.07117,15441,1
KOTALIPARA DAYAL HALDER ADARSHA BIDYAPITH,109560,School,GOPALGANJ,KOTALIPARA,NARAYANKHANA,90.04619,23.064,15442,1
FUKRA MADAN MOHAN ACADEMY,109492,School,GOPALGANJ,KASHIANI,FUKURA,90.05589,23.06544,15443,1
GHONAPARA R R HIGH SCHOOL,109498,School,GOPALGANJ,KASHIANI,JOTKURA,90.10189,23.09044,15444,1
NARAIL JNANANJAN JUNIOR HIGH SCHOOL,109516,School,GOPALGANJ,KASHIANI,BARA NARAIL,90.09594,23.07378,15445,1
RAMDIA SHREE KRISHNA SHASHI KAMOL VIDYAPITH,109497,School,GOPALGANJ,KASHIANI,RAMDIA,90.04436,23.06283,15446,1
RAMDIA GIRLS HIGH SCHOOL,109507,School,GOPALGANJ,KASHIANI,RAMDIA,90.05664,22.94644,15447,1
TARAIL HIGH SCHOOL,109512,School,GOPALGANJ,KASHIANI,TARAIL,89.847,23.13111,15448,1
HATIARA HIGH SCHOOL,109518,School,GOPALGANJ,KASHIANI,HATIARA,89.814,23.13456,15449,1
BHATIA PARA HIGH SCHOOL,109489,School,GOPALGANJ,KASHIANI,JANGAL MUKUNDAPUR,89.80042,23.16097,15450,1
PONA M.A. KHALEQUE  HIGH SCHOOL,109522,School,GOPALGANJ,KASHIANI,PONA,89.80411,23.16472,15451,1
DHIGHARGATI R.S.B. HIGH SCHOOL,109501,School,GOPALGANJ,KASHIANI,DIGARGATI,89.88111,23.16261,15452,1
SATASHIA SHARIFUL MARIAM HIGH SCHOOL,109519,School,GOPALGANJ,KASHIANI,SATASIA,89.89239,23.18069,15453,1
BATHANDANGA HIGH SCHOOL,109506,School,GOPALGANJ,KASHIANI,KORAMARI,89.72611,23.22675,15454,1
JOYNAGAR SECONDARY SCHOOL,109508,School,GOPALGANJ,KASHIANI,MAHESHPUR,89.82794,23.22483,15455,1
JOYNAGAR SECONDARY GIRLS SCHOOL,109511,School,GOPALGANJ,KASHIANI,MAHESHPUR,89.83411,23.19856,15456,1
SHIBGATI JONASUR JR.HIGH SCHOOL,109520,School,GOPALGANJ,KASHIANI,JONASUR,89.84069,23.19381,15457,1
NIZAMKANDI HIGH SCHOOL,109500,School,GOPALGANJ,KASHIANI,NIJAMKANDI,89.77444,23.28236,15458,1
ORAKANDI MEAD HIGH ACHOOL,109493,School,GOPALGANJ,KASHIANI,ORAKANDI,89.77478,23.28139,15459,1
ORAKANDI DEBI SANTI SATYA BHAMA  jr high balika shikshalay,109495,School,GOPALGANJ,KASHIANI,ORAKANDI,89.77789,23.26922,15460,1
SYEDUNNESA HIGH SCHOOL,109515,School,GOPALGANJ,KASHIANI,TILCHHARA,89.77322,23.2825,15461,1
KUMARIA LAKSHMIPUR KUNIOR HIGH SCHOOL,109490,School,GOPALGANJ,KASHIANI,KUMARIA,89.77333,23.28064,15462,1
PARULIA HIGH SCHOOL,109491,School,GOPALGANJ,KASHIANI,BARA PARULIA,89.80231,23.11236,15463,1
DEBSUR HIGH SCHOOL,109517,School,GOPALGANJ,KASHIANI,DEASUR,89.81964,23.17733,15464,1
SITARAMPUR MOFAJJEL HOSSAIN HIGH SCHOOL,109509,School,GOPALGANJ,KASHIANI,SITARAMPUR,89.774,23.18461,15465,1
RAJPAT MULTILATERAL HIGH SCHOOL,109502,School,GOPALGANJ,KASHIANI,RAJPAT,89.81639,23.22369,15466,1
SUKTAGRAM ideal HIGH SCHOOL,131414,School,GOPALGANJ,KASHIANI,SUKTAGRAM,89.78969,23.21647,15467,1
BHADULIA ADARSHA HIGH SCHOOL,131335,School,GOPALGANJ,KASHIANI,BHADULA,89.83419,23.15028,15468,1
CHARBHAT PARA HIGH SCHOOL,109513,School,GOPALGANJ,KASHIANI,CHAR BHAT PARA,89.85217,23.1865,15469,1
DHANKORA HIGH SCHOOL,109503,School,GOPALGANJ,KASHIANI,DHANKORA,89.84183,23.16669,15470,1
SOBURON NESSA JUNIAR HIGH SCHOOL KHAGRABARIA,109523,School,GOPALGANJ,KASHIANI,KHAGRABARIA,89.84669,23.1765,15471,1
NAEBUNNESA GIRL'S  HIGH SCHOOL,109504,School,GOPALGANJ,KASHIANI,CHAPTA KHALISAKHALI,89.85183,23.18339,15472,1
NAYEBUN NESSA INSTITUTION RATOIL,109505,School,GOPALGANJ,KASHIANI,RATAIL,89.76661,23.19897,15473,1
AL HAJJ A.G. HIGH SCHOOL,109486,School,GOPALGANJ,KASHIANI,MAJRA,89.79328,23.18658,15474,1
SAJAIL GOPI MOHAN HIGH SCHOOL,109494,School,GOPALGANJ,KASHIANI,SAJAIL,89.74292,23.18867,15475,1
SINGA K.C.C. M HIGH SCHOOL,109499,School,GOPALGANJ,KASHIANI,PATIGRAM,89.71028,23.18022,15476,1
SAPTA   PALLI JOARIA  HIGH  SCHOOL AND COLLEGE,109666,School and College,GOPALGANJ,TUNGIPARA,JOARIA,89.92928,22.88881,26001,1
DURBASUR ADARSHA  HIGH SCHOOL AND COLLEGE,109624,School and College,GOPALGANJ,MUKSUDPUR,DUBLASUR,89.89681,23.31283,26002,1
BATIKA MARI UCHCHA MADHYAMIK MADHYAMIR BIDYALAY,109657,School and College,GOPALGANJ,MUKSUDPUR,BATIKAMARI,89.84586,23.22461,26003,1
MOULOVI ABDUL HYE MEMORIAL SCHOOL and college,109596,School and College,GOPALGANJ,MUKSUDPUR,GOBINDAPUR,89.95125,23.31819,26004,1
NESARUDDIN TALUKDER UCHCHA MADYAMIC BIDYALAYA,109594,School and College,GOPALGANJ,KOTALIPARA,SITAIKUNDA,89.99764,22.95903,26005,1
UDYAN BIDYA PITH HIGHER SECONDARY SCHOOL,109496,School and College,GOPALGANJ,KASHIANI,RAHUTHAR,89.80522,23.16325,26006,1
