inst name, eiin, inst_type, district, thana, mauza, long, lat, serial,isUnique
MIRZA AZAM COLLEGE,110078,College,JAMALPUR,MADARGANJ,GUNERBARI,89.787941,24.826931,801,1
SARISABARI COLLEGE,110215,College,JAMALPUR,SARISHABARI UPAZILA,BIR DHANATA,89.83719,24.74992,802,1
SHARISABARI MAHMUDA SALAM MOHILA COLLEGE,110214,College,JAMALPUR,SARISHABARI UPAZILA,BHURARBARI,89.832,24.74539,803,1
BANGA BANDHU COLLEGE,110216,College,JAMALPUR,SARISHABARI UPAZILA,BIR DHANATA,89.83447,24.74925,804,1
SUJAT ALI COLLEGE PINGNA,110217,College,JAMALPUR,SARISHABARI UPAZILA,BARAIPATAL,89.86761,24.75542,805,1
POGALDIGHA COLLEGE,110218,College,JAMALPUR,SARISHABARI UPAZILA,POGALDIGHA,89.79278,24.70975,806,1
SHAHEED ZIAUR RAHMAN COLLEGE,109995,College,JAMALPUR,JAMALPUR SADAR,BEGHERHATA,89.96544,24.90389,807,1
GOVT. ASHEK MAHMUD COLLEGE, JAMALPUR,109996,College,JAMALPUR,JAMALPUR SADAR,BAGABAID,89.94475,24.92361,808,1
GOVT. ZAHEDA SAFIR MOHILA COLLEGE,109994,College,JAMALPUR,JAMALPUR SADAR,MAHILA COLLEGE AREA,89.91067,24.92256,809,1
JHAWLA GOPALPUR COLLEGE,109992,College,JAMALPUR,JAMALPUR SADAR,JHAULA,90.05381,24.82225,810,1
DIGPAIT SHAMSL HOQ   DEGREE    COLLEGE,109997,College,JAMALPUR,JAMALPUR SADAR,DIGPAITH,89.92747,24.76786,811,1
JINNATON AFSOR MOHILA COLLGE,109993,College,JAMALPUR,JAMALPUR SADAR,NARUNDI,89.85886,24.84192,812,1
NANDINA SHEKH ANWAR HOSSAIN COLLEGE,109991,College,JAMALPUR,JAMALPUR SADAR,KHARKHARIA,90.03153,24.86528,813,1
TULSHI PUR COLLEGE,109999,College,JAMALPUR,JAMALPUR SADAR,RASHIDPUR,90.03694,24.86847,814,1
DR ABDUL MAZID TALLUKDER COLLEGE,110000,College,JAMALPUR,JAMALPUR SADAR,RUPSI,89.92825,24.82942,815,1
MELANDAHA GOVT.COLLEGE,110150,College,JAMALPUR,MELANDAHA,UTTAR ADIPAIT (PART),89.85094,24.97931,816,1
JAHANARA LATIF MOHILA COLLEGE,110149,College,JAMALPUR,MELANDAHA,MELENDAH BAZAR,89.83089,24.98236,817,1
HAZRABARI SIRAJUL HAQUE DEGREE COLLEGE,110151,College,JAMALPUR,MELANDAHA,HAZRABARI,89.81692,25.0585,818,1
S. M. SHEKHA MUKHLESUR RAHMAN COLLEGE,131967,College,JAMALPUR,MELANDAHA,SAGUNA,89.81433,24.85867,819,1
SHEIKH KAMAL COLLEGE,110148,College,JAMALPUR,MELANDAHA,GHOSHER PARA,89.80642,24.8675,820,1
ALEYA AZAM COLLEGE,110147,College,JAMALPUR,MELANDAHA,TANKI,89.78611,24.99106,821,1
HABIBUR RAHMAN COLLEGE,110152,College,JAMALPUR,MELANDAHA,NANGLA PARA BAGA,89.77503,24.967,822,1
MADERGONJ A.H.Z GOVT.COLLEGE,110076,College,JAMALPUR,MADARGANJ,DAKSHIN GABER GARAM,89.85544,24.95169,823,1
NURUNNAHA MIRZA KASEM MOHILA DEGREE COLLEGE,110077,College,JAMALPUR,MADARGANJ,BALAD BHARA,89.74019,24.95053,824,1
KHAJA SHAH SUFI YOUNUS ALI COLLEGE,110079,College,JAMALPUR,MADARGANJ,KHURDA JONAIL (PART),89.77325,24.89783,825,1
BARISTER ABDUS SALAM TALUKDER COLLEGE,110075,College,JAMALPUR,MADARGANJ,GUNARITALA,89.77625,24.88367,826,1
ISLAMPUR M A SAMAD PARVEZ MEMORIAL MOHILA COLLEGE,109855,College,JAMALPUR,ISLAMPUR,MAUZA ZALLA,89.79094,24.88958,827,1
ISLAMPUR COLLEGE,109857,College,JAMALPUR,ISLAMPUR,GAONKURA,89.75508,25.13283,828,1
S,N,C,ADORSHA COLLEGE,109858,College,JAMALPUR,ISLAMPUR,CHINADULI,89.72861,25.05739,829,1
MOLOM GONJ MODEL COLLEGE,109856,College,JAMALPUR,ISLAMPUR,PATHARSHI,89.75342,25.13069,830,1
SANANDA BARI DEGREE COLLEGE,109777,College,JAMALPUR,DEWANGANJ,SANANDABARI,89.742,25.33367,831,1
A K MEMORIAL COLLEGE,109776,College,JAMALPUR,DEWANGANJ,CHUKAIBARI(PART),89.71853,25.22614,832,1
M M MEMORIAL COLLEGE,109778,College,JAMALPUR,DEWANGANJ,HATEBHANGA,89.769,25.28583,833,1
BAKSHIGANJ GOVT.KIAMAT ULLAH COLLEGE,109725,College,JAMALPUR,BAKSHIGANJ,RAJENDRAGANJ,89.84242,25.21481,834,1
KHATEMON MOIN MOHILA DEGREE COLLEGE,109724,College,JAMALPUR,BAKSHIGANJ,CHAR KAURIA,89.87411,25.19028,835,1
KASTOSINGA ISLAMIA DAKHIL MADRASHA,109983,Madrasha,JAMALPUR,JAMALPUR SADAR,KASHTASINGA,90.01928,24.22167,5194,1
SRISHABARI BALIKA DAKHIL MADRASHA,110206,Madrasha,JAMALPUR,SARISHABARI UPAZILA,SATPOA,90.07806,24.26567,5195,1
ARAMNAGoR KAMIL MADRASAH,110193,Madrasha,JAMALPUR,SARISHABARI UPAZILA,SATPOA,89.89725,24.799,5196,1
DOULATPUR FAZIL MADRASHA,110195,Madrasha,JAMALPUR,SARISHABARI UPAZILA,DAYALPUR,89.91717,24.77533,5197,1
PANCHASHI REZAUL HQUE KABERIA DAKHOL MADRASA,110208,Madrasha,JAMALPUR,SARISHABARI UPAZILA,PANCHASI,89.85586,24.78075,5198,1
NAUGOLA FAYZER MORE DAKHIL MADRASHA,110203,Madrasha,JAMALPUR,SARISHABARI UPAZILA,KUTURIA,89.81778,24.66417,5199,1
MOHISHA BADURIA DAKHIL MADRASHa,110205,Madrasha,JAMALPUR,SARISHABARI UPAZILA,MOHISHABADURIA,89.85881,24.66769,5200,1
DIKKIR BONDA DARUS SUNNAH ALIM MADRASHA,110198,Madrasha,JAMALPUR,SARISHABARI UPAZILA,CHAPARKONA,89.87231,24.77842,5201,1
GARADOBA SIRATUNNABI ALIM MADRASHA,110204,Madrasha,JAMALPUR,SARISHABARI UPAZILA,GRAM NIKAI,89.87658,24.81275,5202,1
BARBARIA DAKHIL MADRASAH,110191,Madrasha,JAMALPUR,SARISHABARI UPAZILA,BARABARIA,89.84325,24.71067,5203,1
SHUAKAIR HASSEN ALI DAKHIL MADRSHA,110192,Madrasha,JAMALPUR,SARISHABARI UPAZILA,SUAKAIR,89.8625,24.67975,5204,1
BANGRAM H T L DAKHIL MADRASAH,110197,Madrasha,JAMALPUR,SARISHABARI UPAZILA,BANAGRAM,89.85061,24.75403,5205,1
BILBALIA MOHILA DAKHIL MADRASHA,110196,Madrasha,JAMALPUR,SARISHABARI UPAZILA,BILBALIA,89.89925,24.74561,5206,1
HIRANNA BARI DARUSSUNNA DAKHIL MADRASA,110199,Madrasha,JAMALPUR,SARISHABARI UPAZILA,HIRAN NAYABARI,89.86639,24.75819,5207,1
SENGUA DARUL HUDA FAZIL MADRASHA,110194,Madrasha,JAMALPUR,SARISHABARI UPAZILA,SENGUA,89.90489,24.75503,5208,1
BAGASRA ISLAMIA DAKHIL MADRASHA,110210,Madrasha,JAMALPUR,SARISHABARI UPAZILA,DARIMIA,89.89767,24.765,5209,1
PATABUGA DAKHIL MADRASA,110207,Madrasha,JAMALPUR,SARISHABARI UPAZILA,BINNAFAIR,89.82014,24.70103,5210,1
ADRA ABDUL GAFUR ZAINAL ABEDIN ALIM MADRASHA,110201,Madrasha,JAMALPUR,SARISHABARI UPAZILA,ADRA,89.82628,24.68558,5211,1
CHAR JAMIRA NABAB ALI DHAKIL MADRASAH,110209,Madrasha,JAMALPUR,SARISHABARI UPAZILA,CHAR JAMIRA,89.8455,24.72825,5212,1
CHAR SARISHA BARI BALIKA DHAKHIL MADRASHA,110211,Madrasha,JAMALPUR,SARISHABARI UPAZILA,SARISHABARI,89.82964,24.68869,5213,1
KONABAR DAKHIL MADRASHA,110200,Madrasha,JAMALPUR,SARISHABARI UPAZILA,SIMLA MADHAB KONABARI,89.79067,24.74233,5214,1
MADARGONJ ABDUL ALI MIRZA KASEM FADIL MADRASAH,110049,Madrasha,JAMALPUR,MADARGANJ,M.PARA,89.77561,24.79531,5215,1
HAFEZA NAGAR GIRLS DAKHIL MADRASHA,109958,Madrasha,JAMALPUR,JAMALPUR SADAR,SHINGHAJANI PARA,90.14719,24.80042,5216,1
JAMAL PUR SENIOR (ALIM) MADRASAH,109966,Madrasha,JAMALPUR,JAMALPUR SADAR,SHINGHAJANI PARA,89.93108,24.94492,5217,1
 BELTIA  KAMIL MADRASAH,109957,Madrasha,JAMALPUR,JAMALPUR SADAR,BELTIA,89.96867,24.79419,5218,1
RASHIDPUR N.U.FAZIL MADRASA,109959,Madrasha,JAMALPUR,JAMALPUR SADAR,RASHIDPUR,89.94669,24.88869,5219,1
RASHIDPUR ISLAMIA DAKHIL MADRASHA,109989,Madrasha,JAMALPUR,JAMALPUR SADAR,SEKHER BHITA,89.9615,24.92228,5220,1
SHEKPARA KHOKA MANNAN DAKHIL MADRASHA,109974,Madrasha,JAMALPUR,JAMALPUR SADAR,RASHIDPUR,89.92669,24.92097,5221,1
KASHRU PARA ISLAMIA DAKHIL MADRASHA,109969,Madrasha,JAMALPUR,JAMALPUR SADAR,GHORADHAP,90.04803,24.78992,5222,1
BONDA CHITHOLIA DAKHIL MADRASHA,109978,Madrasha,JAMALPUR,JAMALPUR SADAR,BANDA CHITHALIA,90.10397,24.83169,5223,1
HARINA KANDA MADARPUR DAKIL MADRASHA,109986,Madrasha,JAMALPUR,JAMALPUR SADAR,HARINAKANDA,90.11944,24.8185,5224,1
IDILPUR DAKHIL MADRASAH,109963,Madrasha,JAMALPUR,JAMALPUR SADAR,IDILPUR,90.12597,24.81819,5225,1
GOPINATHPUR K.M.DAKHIL MADRASHA,109977,Madrasha,JAMALPUR,JAMALPUR SADAR,TARARBHITA,90.12022,24.80344,5226,1
MALLIK MONDOL DAKHIL MADRASHA,109988,Madrasha,JAMALPUR,JAMALPUR SADAR,MEGHA,89.92786,24.76453,5227,1
DOMDAMA GIRLS DAKHIL MADRASHA,109987,Madrasha,JAMALPUR,JAMALPUR SADAR,GOPALPUR,90.16969,24.83492,5228,1
ZAMTALA MIRZAPUR DAKHIL MADRASHA,109990,Madrasha,JAMALPUR,JAMALPUR SADAR,JAGIR MIRZAPUR,90.15081,24.86894,5229,1
KACHUAR PAR SAMIR UDDIN DAKHIL MADRASHA,109972,Madrasha,JAMALPUR,JAMALPUR SADAR,BARUAMARI,90.19875,24.87986,5230,1
SALAM-ABAD SHARIF AHMADIA SINIOR MADRASAH,109956,Madrasha,JAMALPUR,JAMALPUR SADAR,WAPDA COLLENY,90.16836,24.84686,5231,1
KUTAMONI ALHAJ AZIM UDDIN DAKHIL MADRASHA,109982,Madrasha,JAMALPUR,JAMALPUR SADAR,KOTAMANI,89.90917,24.85853,5232,1
NARUNDI M L FOYAZIA SENIOR MADRASAH,109971,Madrasha,JAMALPUR,JAMALPUR SADAR,NARUNDI,89.86067,24.83489,5233,1
BANARER PER FAZIL MADRASAH,109964,Madrasha,JAMALPUR,JAMALPUR SADAR,BANARERPAR,90.05914,24.82811,5234,1
SHAMSUNNAHAR MOHAMODIA MOHILA DAKHIL MADRASHA,109984,Madrasha,JAMALPUR,JAMALPUR SADAR,GOBINDABARI,90.04561,24.84561,5235,1
MOHESHPUR ISLAMIA DAKHIL MADRASHA,109967,Madrasha,JAMALPUR,JAMALPUR SADAR,MAHESHPUR,90.03625,24.87144,5236,1
RANAGACHA DAKHIL MADRASHA,109976,Madrasha,JAMALPUR,JAMALPUR SADAR,RANAGACHHA,90.04058,24.86717,5237,1
PAKULLA ISLAMIA DAKHIL MADRASHA,109968,Madrasha,JAMALPUR,JAMALPUR SADAR,PAKULLA (PART),90.05689,24.86472,5238,1
KADIDOLA HAQUE DAKHIL MADRASHA,109975,Madrasha,JAMALPUR,JAMALPUR SADAR,SREEPUR (IST PORTION),89.96403,24.81756,5239,1
AULAI SHAHBAZPUR DAKHIL MADRASAH,109965,Madrasha,JAMALPUR,JAMALPUR SADAR,SAHABAJPUR,89.98219,24.81433,5240,1
BADECHANDI K.I. DAKHIL MADRASHA,109970,Madrasha,JAMALPUR,JAMALPUR SADAR,BADE CHANDI,90.00039,24.87408,5241,1
GOBINDOPUR AFSARUL ULUM MOHAMMAD ALI DAKHAIL MADRASHA,131823,Madrasha,JAMALPUR,JAMALPUR SADAR,GOBINDAPUR,89.93803,24.79858,5242,1
DARIPARA K.M.DAKHIL MADRASHA,109981,Madrasha,JAMALPUR,JAMALPUR SADAR,RAMKRISHNAPUR,90.02128,24.78964,5243,1
KESHABPUR DAKHIL MADRASHA,109962,Madrasha,JAMALPUR,JAMALPUR SADAR,KESHABPUR,90.02175,24.78836,5244,1
KAMAL KHAN HAT FAZIL MADRASA,109960,Madrasha,JAMALPUR,JAMALPUR SADAR,NARAYANPUR,90.02433,24.78283,5245,1
DOWATALA ISLAMIA DAKHIL MADRASHA,109980,Madrasha,JAMALPUR,JAMALPUR SADAR,TULSIR CHAR,90.0435,24.89503,5246,1
MELANDAH SADR ISLAMIA SENIOR FAZIL MADRASHA,110123,Madrasha,JAMALPUR,MELANDAHA,UTTAR SHAHJADPUR (PART),90.14614,24.89636,5247,1
PURBA THURI DAKHIL MADRASHA,110145,Madrasha,JAMALPUR,MELANDAHA,THURI,89.83383,24.97261,5248,1
SHIRIGHAT TEGURIA DAKHIL MADRASAH,110125,Madrasha,JAMALPUR,MELANDAHA,TEGHARIA,89.81386,24.93414,5249,1
RAYERBAKAI ISLAMIA DAKHIL MADRASAH,110126,Madrasha,JAMALPUR,MELANDAHA,ROYERBAKAI,89.83764,24.93722,5250,1
JANGALIA MIRJA AZAM DAKHIL MADRASAH,110139,Madrasha,JAMALPUR,MELANDAHA,JANGALIA,89.86736,24.93303,5251,1
SHOROLIA AHAMMADIA BALIKA DAKHIL MADRASHA,110143,Madrasha,JAMALPUR,MELANDAHA,SARALIA,89.88267,24.91267,5252,1
KONA  NALANCHA  AMENA  DAKHIL MADRASA,110131,Madrasha,JAMALPUR,MELANDAHA,KONA MALANCHA,89.79547,25.05911,5253,1
BRAHMON PARA DAKHIL MADRASHA,110137,Madrasha,JAMALPUR,MELANDAHA,BRAHMAN PARA,89.81417,25.05239,5254,1
BELTAIL ISLAMIAH  DAKHIL MADRASAH,110128,Madrasha,JAMALPUR,MELANDAHA,KHOER PARA,89.82389,24.92406,5255,1
DOKHIN GHOSER PARA ISLAMIA DAKHIL MADRASHA,110144,Madrasha,JAMALPUR,MELANDAHA,GHOSHER PARA,89.85006,24.89367,5256,1
K G S KHALIL BAREK AYUB DAKHIL MADRASAH,110134,Madrasha,JAMALPUR,MELANDAHA,GHOSHER PARA,89.82794,24.88917,5257,1
CHARAILDER  ZAHANARA  HABIB DAKHIL MADRASA,110138,Madrasha,JAMALPUR,MELANDAHA,GOBINDAPUR (1ST PORTION),89.78781,24.88061,5258,1
PairBARI ASRAFUL ULAM DAKHIL MADRASHA,110127,Madrasha,JAMALPUR,MELANDAHA,JHAUGARA,89.80678,24.86783,5259,1
KULIA ISLAMIA DAKHIL MADRASAH,110132,Madrasha,JAMALPUR,MELANDAHA,KULIA,89.87308,24.89336,5260,1
TARAKADKI ISLAMIA ALIM MADRASAH,110133,Madrasha,JAMALPUR,MELANDAHA,TARAKANDI,89.87389,24.85644,5261,1
CHAR MAHMUDPUR DAKHIL MADRASHA,110141,Madrasha,JAMALPUR,MELANDAHA,MAHMUDPUR,89.8235,25.02753,5262,1
NALSIA  BANABADAH ISLAMIA DAKHIL MADRASA,110135,Madrasha,JAMALPUR,MELANDAHA,MAHMUDPUR,89.74989,24.99606,5263,1
PAYLA BANIA BARI ISLAMIA FAZIL MADRASHA,110124,Madrasha,JAMALPUR,MELANDAHA,PAILA,89.75789,24.97494,5264,1
AL AMIN JAMIRIA MOHILA FAZIL MADRASHA,110136,Madrasha,JAMALPUR,MELANDAHA,PURBA KARAITALA,89.75011,24.99244,5265,1
MALONCHA AL AMIN JAMIRIA KAMIL MADRASAH,110129,Madrasha,JAMALPUR,MELANDAHA,MALANCHA,89.78969,25.00267,5266,1
HAJIPUR AL-HAJ JAYNUL ABEDIN DAKHIL MADRASHA,109973,Madrasha,JAMALPUR,JAMALPUR SADAR,BIR GAILA,89.85386,24.97556,5267,1
BALIJURI S.M. FAZIL (DEGREE)MADRASHA,110047,Madrasha,JAMALPUR,MADARGANJ,BALIJURI BAZAR,89.70756,24.89039,5268,1
JONAIL SAHATARU RAISIA BALIKA DAKHIL MADRASHA,110059,Madrasha,JAMALPUR,MADARGANJ,KHORDA JONAIL (PART),89.71653,24.90422,5269,1
HEMRA BARIO M A RASHID DAKIL MADRASHA,110072,Madrasha,JAMALPUR,MADARGANJ,HEMRABARI,89.79019,24.84494,5270,1
SANAI BANDHA ISLAMIA DAKHIL MADRASHA,110063,Madrasha,JAMALPUR,MADARGANJ,SANAIBANDA,89.75378,24.82847,5271,1
NISCHLN TAPUR GIRLS  DALHIL MADRASAH,110074,Madrasha,JAMALPUR,MADARGANJ,NISCHINTAPUR,89.72783,24.96083,5272,1
FAZILPUR GIRLS DAKHIL MADRASAH,110071,Madrasha,JAMALPUR,MADARGANJ,FAZILPUR,89.73047,24.96192,5273,1
NISCHINTA PUR ALIM MADRASAH,110052,Madrasha,JAMALPUR,MADARGANJ,NISCHINTAPUR,89.70706,24.959,5274,1
K. N. PUR NAZIMONNESHA DAKHIL MADRASAH,110069,Madrasha,JAMALPUR,MADARGANJ,NISCHINTAPUR,89.74394,24.88506,5275,1
JHARKTA GIRLS DAKHIL MADRASHA,110073,Madrasha,JAMALPUR,MADARGANJ,NALCHHIA (PART)JHARKATA,89.71578,24.9625,5276,1
F. K. T. S.S.K.. A. DAKHIL  MADRASAH,110058,Madrasha,JAMALPUR,MADARGANJ,TEGHARIA,89.75142,24.88842,5277,1
BALABHOROT DARUSSONNAH DAKHIL MADRASAH,110055,Madrasha,JAMALPUR,MADARGANJ,KHURDA JONAIL (PART),89.73453,24.89833,5278,1
GOPALPUR DAKHIL MADRASHA,110068,Madrasha,JAMALPUR,MADARGANJ,KHURDA JONAIL (PART),89.75172,24.89322,5279,1
GUNARI TALA ISLAMIA DAKHIL MADRASHA,110048,Madrasha,JAMALPUR,MADARGANJ,GUNARITALA,89.75547,24.89458,5280,1
MOYEJ UDDIN DAKHIL MADRASHA,110056,Madrasha,JAMALPUR,MADARGANJ,GUNARITALA,89.74369,24.96764,5281,1
JONAIL NAYA PARA K.K. MAMUD DAKHIL MADRASA,110050,Madrasha,JAMALPUR,MADARGANJ,KHURDA JONAIL (PART),89.74906,24.87475,5282,1
JURKHALI DAKHIL MADRASAH,110070,Madrasha,JAMALPUR,MADARGANJ,KHURDA JONAIL (PART),89.74689,24.92,5283,1
MUSLEMABAD ALIM MADRASHA,110061,Madrasha,JAMALPUR,MADARGANJ,NISCHINTAPUR,89.74375,24.93697,5284,1
CHAR PORTAZU DAKHIL MADRASHA,110067,Madrasha,JAMALPUR,MADARGANJ,JOREKHALI (GOLABARI),89.74211,24.83656,5285,1
CHAR NANGLA DAKHIL MADRASAH,110065,Madrasha,JAMALPUR,MADARGANJ,NANGLA,89.70119,24.85064,5286,1
DIGHAL KANDI ALHAZ KARIMUZZAMAN T ALIM MADRASA,110053,Madrasha,JAMALPUR,MADARGANJ,DIGHALKANDI,89.73167,24.86203,5287,1
BANGLADESH RABEYA SIRAJ GIRLS D. MADRASAH,110057,Madrasha,JAMALPUR,MADARGANJ,BHELAMARI,89.74025,24.95061,5288,1
B. G. N. M. ISLAMIA DAKHIL MADRASHA,110051,Madrasha,JAMALPUR,MADARGANJ,BINODTANGI,89.78278,24.93989,5289,1
MILON BAZAR VANBARI ALIM MADRASHA,110060,Madrasha,JAMALPUR,MADARGANJ,CHHOTA BHANGBARI,89.76028,24.90542,5290,1
MOHISH BATHAN DAKKHIN PARA DAKHIL MADRASHA,110066,Madrasha,JAMALPUR,MADARGANJ,KARAICHARA,89.76519,24.95747,5291,1
MALIPARA ADARSHA ISLAMIA DAKHIL MADRASHA,110212,Madrasha,JAMALPUR,SARISHABARI UPAZILA,MALI PARA,89.76892,24.91197,5292,1
SHIMULTOLA JAMILAKHATUN ADARSHA MOHILAD DA: MA:,131746,Madrasha,JAMALPUR,ISLAMPUR,DHENGARGAR,89.79019,25.08161,5293,1
KANDERCHAR FAKIRPARA ISLAMIA DAKHIL MADRASA,109848,Madrasha,JAMALPUR,ISLAMPUR,UTTAR GOALINIR CHAR,89.75542,25.08058,5294,1
DIGRIR CHAR DAKHIL MADRASA,131660,Madrasha,JAMALPUR,ISLAMPUR,KISMAT GOBINDI,89.86039,25.03286,5295,1
CHINADULI FAZIL MADRASA,109830,Madrasha,JAMALPUR,ISLAMPUR,CHINADULI,89.86883,25.03094,5296,1
DAKHIN CHINADULY DAKHIL MADRASHA,109842,Madrasha,JAMALPUR,ISLAMPUR,CHINADULI,89.74744,25.08667,5297,1
DEWAN PARA BALIKA DAKHIL MADRASHA,109845,Madrasha,JAMALPUR,ISLAMPUR,CHINADULI,89.72764,25.05642,5298,1
GITHAIL SENIOR MADRASAH,109825,Madrasha,JAMALPUR,ISLAMPUR,GHILABARI,89.73233,25.04372,5299,1
PASHAIM NANDANER PARA DAKHIL MADRASHA,109836,Madrasha,JAMALPUR,ISLAMPUR,BAMNA,89.73906,25.07669,5300,1
KAROI TALA ISLAMIA DAKHIL MADRASAH,109838,Madrasha,JAMALPUR,ISLAMPUR,GAIBANDHA,89.73228,25.04356,5301,1
MORAKANDI NOSIMUNNESA ISLAMIA DAKHIL MADRASA,109854,Madrasha,JAMALPUR,ISLAMPUR,GAIBANDHA,89.71625,25.08447,5302,1
PORARCHAR S.M.A. DAKHIL MADRASHA,109841,Madrasha,JAMALPUR,ISLAMPUR,GAIBANDHA,89.83331,25.08153,5303,1
MAHAL GIRI SHARKARPARA DAKHIL MADRASHA,109844,Madrasha,JAMALPUR,ISLAMPUR,KACHHIMER CHAR,89.83489,25.12733,5304,1
SHAVER CHAR D, S, D, MADRASHA,109835,Madrasha,JAMALPUR,ISLAMPUR,MAHALGIRI,89.82406,25.13342,5305,1
PASCHIM GONGA PARA ISLAMIA MADRASHA,109853,Madrasha,JAMALPUR,ISLAMPUR,GANGA PARA,89.82872,25.121,5306,1
PACHABAHALA JAMED DAKHIL MADRASHA,109831,Madrasha,JAMALPUR,ISLAMPUR,PANCHABAHALA,89.77486,25.05289,5307,1
ISLAMPUR ISLAMIA FAZIL  MADRASA,109826,Madrasha,JAMALPUR,ISLAMPUR,BAITKAMARI,89.75853,25.08017,5308,1
KULKANDI H S MADRASHA,109829,Madrasha,JAMALPUR,ISLAMPUR,KULKANDI,89.75747,25.07708,5309,1
BIR MAIZ BARI BALIKA DAKHIL MADRASHA,109852,Madrasha,JAMALPUR,ISLAMPUR,NOARPARA,89.71872,25.12222,5310,1
KAZLA ALIM SINIOR MADRASA,109834,Madrasha,JAMALPUR,ISLAMPUR,KAJLA,89.68614,24.98397,5311,1
PURBA NAYUN PARA DAKHIL MADRASHA,109851,Madrasha,JAMALPUR,ISLAMPUR,NOARPARA,89.73142,25.01572,5312,1
SHONAMOKHY  DAKHIL MADRASHA,109850,Madrasha,JAMALPUR,ISLAMPUR,CHAR GILABARI,89.72725,25.04108,5313,1
HARGILA DAKHIL MADRASAH,109837,Madrasha,JAMALPUR,ISLAMPUR,NOARPARA,89.72464,25.01122,5314,1
RAMBHADRA DAKHIL MADRASHA,109824,Madrasha,JAMALPUR,ISLAMPUR,NOARPARA,89.69894,24.98006,5315,1
BAHADURPUR SIDDIKIA DAKHIL MADRASHA,109847,Madrasha,JAMALPUR,ISLAMPUR,BAHADURPUR (PART),89.73569,25.02344,5316,1
ISLAMPUR MOHILA DAKHIL MADRASA,109827,Madrasha,JAMALPUR,ISLAMPUR,UJANPARA,89.73528,25.03831,5317,1
DHANGER GOR NURUL HUDA ALIM MADRSA,109828,Madrasha,JAMALPUR,ISLAMPUR,DHENGARGAR,89.77928,25.09714,5318,1
HARIABARI ABDUS SATTARA DAKHIL MADRASHA,109840,Madrasha,JAMALPUR,ISLAMPUR,HARIABARI,89.78272,25.09081,5319,1
JARUL TOLA KAKHIL MADRASAH,109846,Madrasha,JAMALPUR,ISLAMPUR,SINDURTALI,89.76078,25.11708,5320,1
SHOSHARIA BARI KHAN PARA DAKHIL MADRASA,109833,Madrasha,JAMALPUR,ISLAMPUR,SASARIABARI,89.7715,25.08456,5321,1
CHAR DIGHAIR DAKHIL MADRASAH,109832,Madrasha,JAMALPUR,ISLAMPUR,NOARPARA,89.75856,25.10667,5322,1
HAZROT SHAH KAMAL DAKIL MADRASHA,110142,Madrasha,JAMALPUR,MELANDAHA,HATIJA,89.75342,25.13064,5323,1
KABULIA  DAKHIL MADRASA,110140,Madrasha,JAMALPUR,MELANDAHA,KHABULI,89.67128,25.04708,5324,1
GOBINDI BALIKA DAKHIL MADRASA,110130,Madrasha,JAMALPUR,MELANDAHA,MAHMUDPUR,89.67339,25.04606,5325,1
AHMED ALI MOHILA DAKHIL MADRASHA,109772,Madrasha,JAMALPUR,DEWANGANJ,KALIKA PUR (PART),89.71867,24.99775,5326,1
DEWANGONJ KAMIL MADRASHA,109762,Madrasha,JAMALPUR,DEWANGANJ,DEWAN GONJ BAZAR,89.70511,24.98372,5327,1
BELUACHAR ISLAMIA DAKHIL MADRASHA,109775,Madrasha,JAMALPUR,DEWANGANJ,BELUR CHAR,89.76464,25.17064,5328,1
KUMRAKANDI ISJJATUNNESSA ISLAMIA DAKHIL MADRASHA,109773,Madrasha,JAMALPUR,DEWANGANJ,PAR RAMRAMPUR,89.76283,25.16983,5329,1
BAHADURABAD A. ROB SR. ALIM MADRASAH,109763,Madrasha,JAMALPUR,DEWANGANJ,BAHADURABAD,89.76219,25.25128,5330,1
PULLAKANDI RAHMANIA DAKHIL MADRASHA,109770,Madrasha,JAMALPUR,DEWANGANJ,BAHADURABAD,89.75983,25.24064,5331,1
SHAZADPUR DAKHIL MADRASHA,109767,Madrasha,JAMALPUR,DEWANGANJ,BAHADURABAD,89.76719,25.19433,5332,1
LONKAR CHAR DAKHIL MADRASHA,109774,Madrasha,JAMALPUR,DEWANGANJ,KISMAT AOMKHA,89.81444,25.31267,5333,1
SANDA BARI ISLAMINA ALIM MADRASHA,109764,Madrasha,JAMALPUR,DEWANGANJ,CHAR AOMKHAOA,89.765,25.32494,5334,1
CHAR MAGURI HAT DAKHIL MADRASHA,109771,Madrasha,JAMALPUR,DEWANGANJ,CHAR MAGURIHAT,89.75444,25.30756,5335,1
AL ZAMIATU ULUMUL ELAHIA DAKHIL MADRASHA,109761,Madrasha,JAMALPUR,DEWANGANJ,RAMPURA BALAMARI,89.76711,25.36581,5336,1
BAGHAR CHAR ISLAMIA SENIOR ALIM MADRASHA,109765,Madrasha,JAMALPUR,DEWANGANJ,BAGHAR CHAR,89.73903,25.16894,5337,1
SOBUJ PUR ISLAMIA DAKHIL MADRASHA,109769,Madrasha,JAMALPUR,DEWANGANJ,HATEBHANGA,89.76914,25.12825,5338,1
KHARMA DAKHIL MADRASHA,109768,Madrasha,JAMALPUR,DEWANGANJ,KHARMA,89.7665,25.30769,5339,1
BOALMARI F.H. DAKHIL MADRASAH,109839,Madrasha,JAMALPUR,ISLAMPUR,BAITKAMARI,89.76036,25.25767,5340,1
GHASHIR PARA (BANGALPARA)ISLAMIA MOHILA MADRASAH,109723,Madrasha,JAMALPUR,BAKSHIGANJ,GHASIR PARA,89.76758,25.12014,5341,1
BAGARCHAR TALIA PARA SHABAN ULLAH DAKHIL MADRASAH,109714,Madrasha,JAMALPUR,BAKSHIGANJ,RAMRAMPUR,89.83275,25.24097,5342,1
TANGARIPARA AYESHA KHATUN DAKHIL MADRASAH,109711,Madrasha,JAMALPUR,BAKSHIGANJ,ALIR PARA,89.82528,25.26483,5343,1
BAKSHIGANJ KOHINUR ADOSHA MOHILA DAKHIL MADRASAH,109717,Madrasha,JAMALPUR,BAKSHIGANJ,CHAR KAURIA,89.84342,25.23658,5344,1
BOKSHIGONJ KHAIR UDDIN ALIM MADRASHA,109710,Madrasha,JAMALPUR,BAKSHIGANJ,CHAR KAURIA,89.86572,25.18153,5345,1
MALIRCHAR MOULABIPARA DAKHIL MADRASAH,109718,Madrasha,JAMALPUR,BAKSHIGANJ,MALIR CHAR,89.86983,25.18458,5346,1
SURJANOGOR ROUSHAN ARA ADORSHO DAKHIL MADRASAH,109722,Madrasha,JAMALPUR,BAKSHIGANJ,SURJYANAGAR,89.88689,25.17672,5347,1
DATTER CHAR PURAN BATTA JORE MIR KAMAL DAKHIL MADRASAH,109716,Madrasha,JAMALPUR,BAKSHIGANJ,BATTAJORE,89.86942,25.19194,5348,1
BATTAJORE K. R. I. FAZIL MADRASAH,109707,Madrasha,JAMALPUR,BAKSHIGANJ,BATTAJORE,89.88183,25.23189,5349,1
SHAFALI MOFIZ GIRLS ALIM  MADRASAH,109706,Madrasha,JAMALPUR,BAKSHIGANJ,GOALGAON,89.87517,25.223,5350,1
JADURCHAR DAKHIL MADRASAH,109709,Madrasha,JAMALPUR,BAKSHIGANJ,DHANUA KAMALPUR,89.87175,25.24853,5351,1
DHANUA KAMALPUR SLAMIA DAKHIL MADRASAH,109715,Madrasha,JAMALPUR,BAKSHIGANJ,DHANUA KAMALPUR,89.87803,25.22028,5352,1
JANKIPUR ISLAMIA DAKHIL MADRASAH,109708,Madrasha,JAMALPUR,BAKSHIGANJ,JANKIPUR,89.8605,25.277,5353,1
AYER MARY ISLAMIA MAHILA MADRASAH,109720,Madrasha,JAMALPUR,BAKSHIGANJ,SADHUR PARA,89.87511,25.15089,5354,1
SADHURPARA A.K.U. DAKHIL MADRASAH,109713,Madrasha,JAMALPUR,BAKSHIGANJ,SADHUR PARA,89.88108,25.13233,5355,1
B.K.S.B. HIGH SCHOOL,133866,School,JAMALPUR,JAMALPUR SADAR,KASHTASINGA,90.01047,24.23819,15582,1
SARISHABARI ReAZ UDDIN TALUKDER HIGH SCHOOL,110158,School,JAMALPUR,SARISHABARI UPAZILA,BHURARBARI,90.07717,24.26581,15583,1
BARISTAR ABDUS SALAM TALUKDER HIGH SCHOOL,110184,School,JAMALPUR,SARISHABARI UPAZILA,CHHATARIA,89.85892,24.81719,15584,1
SARISHABARI R.D.M. PILOT HIGH SCHOOL,110159,School,JAMALPUR,SARISHABARI UPAZILA,SIMLA GOPINATH BAZZAR,89.79339,24.77322,15585,1
KUTHIR HAT HIGH SCHOOL,110170,School,JAMALPUR,SARISHABARI UPAZILA,HATBARI,89.83444,24.754,15586,1
BASH BARI HIGH SCHOOL,110185,School,JAMALPUR,SARISHABARI UPAZILA,BANSHBARI,89.83008,24.74811,15587,1
BAUSI BANGALI HIGH SCHOOL,110169,School,JAMALPUR,SARISHABARI UPAZILA,BANGALI PARA,89.83978,24.76769,15588,1
DOULATPUR HIGH SCHOOL,110178,School,JAMALPUR,SARISHABARI UPAZILA,DAYALPUR,89.87525,24.7355,15589,1
KABARIA BARI HIGH SCHOOL,110175,School,JAMALPUR,SARISHABARI UPAZILA,TARANIATA,89.83358,24.75375,15590,1
PONCHASHI HIGH SCHOOL,110167,School,JAMALPUR,SARISHABARI UPAZILA,PANCHASI,89.84167,24.76122,15591,1
BARAI PATAL HIGH SCHOOL,110166,School,JAMALPUR,SARISHABARI UPAZILA,BARAI PATAL,89.82281,24.6665,15592,1
BHATARA A.R.KHAN IDEAL  HIGH SCHOOL,110183,School,JAMALPUR,SARISHABARI UPAZILA,BHATARA,89.84264,24.64044,15593,1
SANAKOIR SHEIKH KHALILUR RAHMAN HIGH SCHOOL,110182,School,JAMALPUR,SARISHABARI UPAZILA,SANAKAIR,89.86447,24.6585,15594,1
BATIKAMARI HIGH SCHOOL,110165,School,JAMALPUR,SARISHABARI UPAZILA,GOALBATHAN,89.86019,24.81464,15595,1
CHAPARKONA M.A. GIRLS HIGH SCHOOL,110180,School,JAMALPUR,SARISHABARI UPAZILA,CHAPARKONA,89.89411,24.76883,15596,1
SARISA BARI SALEMA KHATUN GIRLS HIGH SCHOOL,110160,School,JAMALPUR,SARISHABARI UPAZILA,BHURARBARI,89.85503,24.81475,15597,1
SAIDPUR BASIR UDDIN HIGH SCHOOL,110154,School,JAMALPUR,SARISHABARI UPAZILA,SAIDPUR,89.82744,24.64992,15598,1
SHUAKAIR JAMSER ALI JUNIOR HIGH SCHOOL,110176,School,JAMALPUR,SARISHABARI UPAZILA,SUAKAIR,89.86472,24.71836,15599,1
BANAGRAM MANIK UDDIN HIGH SCHOOL,110172,School,JAMALPUR,SARISHABARI UPAZILA,BANAGRAM,89.83336,24.80686,15600,1
SENGUA HIGH SCHOOL,110173,School,JAMALPUR,SARISHABARI UPAZILA,SENGUA,89.81381,24.77992,15601,1
SHAMAR PARE F.M. GIRLS HIGH SCHOOL,110190,School,JAMALPUR,SARISHABARI UPAZILA,BANAGRAM,89.83478,24.78689,15602,1
S. H. S. HIGH SCHOOL,110189,School,JAMALPUR,SARISHABARI UPAZILA,SANAKAIR,89.81139,24.78242,15603,1
SHAMSUNNAHAR HIGH SCHOOL,110181,School,JAMALPUR,SARISHABARI UPAZILA,BASURIA,89.90331,24.75917,15604,1
PINGNA GIRLS HIGH SCHOOL,110164,School,JAMALPUR,SARISHABARI UPAZILA,PINGNA,89.90758,24.74956,15605,1
PINGNA  HIGh  SCHOOL,110161,School,JAMALPUR,SARISHABARI UPAZILA,PINGNA,89.88456,24.75453,15606,1
BOGAR PAR HIGH SCHOOL,110168,School,JAMALPUR,SARISHABARI UPAZILA,BINNAFAIR,89.816,24.59539,15607,1
BOIRA ISRAIL AHMMAD HIGH SCHOOOL,110155,School,JAMALPUR,SARISHABARI UPAZILA,*RUDRABAIRA,89.81006,24.61756,15608,1
MALIPARA HIGH SCHOOL,110188,School,JAMALPUR,SARISHABARI UPAZILA,MALI PARA,89.80919,24.61953,15609,1
RUDRA BOIRA  HIGH SCHOOL,110174,School,JAMALPUR,SARISHABARI UPAZILA,*RUDRABAIRA,89.83553,24.61142,15610,1
POGAL DIGHA HIGH SCHOOL,110163,School,JAMALPUR,SARISHABARI UPAZILA,POGALDIGHA,89.80958,24.62242,15611,1
POGALDIGAH GIRLS HIGH SCHOOL,110179,School,JAMALPUR,SARISHABARI UPAZILA,POGALDIGHA,89.83325,24.72394,15612,1
CHAR SARISABARI HIGH SCHOOL,110171,School,JAMALPUR,SARISHABARI UPAZILA,SARISHABARI,89.82875,24.70739,15613,1
R.N.C HIGH SCHOOL,110157,School,JAMALPUR,SARISHABARI UPAZILA,CHHATARIA,89.82314,24.68508,15614,1
BIJOY NAGAR HIGH SCHOOL,109946,School,JAMALPUR,JAMALPUR SADAR,BANDA CHITHALIA,89.77975,24.77536,15615,1
HARINA KANDA HIGHA SCHOOL,109901,School,JAMALPUR,JAMALPUR SADAR,HARINAKANDA,89.74672,24.78881,15616,1
JAMALPUR ZILLA SCHOOL,109873,School,JAMALPUR,JAMALPUR SADAR,AMLA PARA,89.79056,24.74722,15617,1
LANGALJURA high SCHOOL,109943,School,JAMALPUR,JAMALPUR SADAR,MUKUNDABARI,89.85717,24.761,15618,1
SINGHJANI M L HIGH SCHOOL,109872,School,JAMALPUR,JAMALPUR SADAR,KACHARI PARA,89.90344,24.90344,15619,1
HAZRAT SHAH JAMAL (R) HIGH SCHOOL,109938,School,JAMALPUR,JAMALPUR SADAR,PATHALIA,90.11469,24.79594,15620,1
KHUPIBARI M.M. HIGH SCHOOL,109929,School,JAMALPUR,JAMALPUR SADAR,KHUPIBARI,89.93631,24.93469,15621,1
BELTIA HIGH SCHOOL,109875,School,JAMALPUR,JAMALPUR SADAR,POLISHA,89.94419,24.91197,15622,1
SHAHJAMAL JUNIOR MADDAMIK ACADEMY,109863,School,JAMALPUR,JAMALPUR SADAR,JANGAL PARA,89.93075,24.91975,15623,1
J. D. JUNIOR HIGH SCHOOL,109953,School,JAMALPUR,JAMALPUR SADAR,JANGAL PARA,89.90594,24.92081,15624,1
JAMALPUR RAILWAY HIGH SCHOOL,109890,School,JAMALPUR,JAMALPUR SADAR,SHAHAPUR,89.95467,24.92158,15625,1
BANIA BAZAR HIGH SCHOOL,109911,School,JAMALPUR,JAMALPUR SADAR,BANIA BAZAR,89.94847,24.89417,15626,1
BOGABAID GIRLS HIGH SCHOOL,109942,School,JAMALPUR,JAMALPUR SADAR,BAGABAID,89.96094,24.89864,15627,1
RASHIDPUR HIGH SCHOOL,109904,School,JAMALPUR,JAMALPUR SADAR,RASHIDPUR,89.96081,24.89636,15628,1
IZZATUN NESA HIGH SCHOOL,109896,School,JAMALPUR,JAMALPUR SADAR,BAGABAID,89.95764,24.91308,15629,1
MOON MEMORIAL JUNIUR HIGH SCHOOL,109950,School,JAMALPUR,JAMALPUR SADAR,PALASHGHAR,89.97867,24.74789,15630,1
BASHCHARA S.B.G.MODERN HIGH SCHOOL,109884,School,JAMALPUR,JAMALPUR SADAR,BANSHCHARA,89.971,24.74272,15631,1
BASHCHARA HIGH SCHOOL,109918,School,JAMALPUR,JAMALPUR SADAR,BANSHCHARA,89.90892,24.92347,15632,1
BATTALA HIGH SCHOOL,109883,School,JAMALPUR,JAMALPUR SADAR,BATTALA,89.97889,24.73283,15633,1
JAMIRA BARAI TAIR HIGH SCHOOL,109914,School,JAMALPUR,JAMALPUR SADAR,JAMIRA,89.93089,24.91222,15634,1
KHAJA SHAH SUFI YOUNUS ALI HIGH SCHOOL,109893,School,JAMALPUR,JAMALPUR SADAR,LAHIRI KANDA,89.95017,24.91378,15635,1
NAWABPUR JUNIOR GIRLS SCHOOL,133707,School,JAMALPUR,JAMALPUR SADAR,NAWABPUR,89.95117,24.80733,15636,1
CHITHALIA HIGH SCHOOL,109900,School,JAMALPUR,JAMALPUR SADAR,CHITHALIA,90.0715,24.81561,15637,1
JHAWLA GOPALPUR M L HIGH SCHOOL,109878,School,JAMALPUR,JAMALPUR SADAR,GOPALPUR,90.08042,24.84725,15638,1
JOKA VHARUAKHALI GIRLS HIGH SCHOOL,109932,School,JAMALPUR,JAMALPUR SADAR,JOKA,90.09628,24.8335,15639,1
VARUAKHALI M.N.A HIGH SCHOOL,109902,School,JAMALPUR,JAMALPUR SADAR,KATARBARI,90.07078,24.83197,15640,1
MIRZAPUR HIGH SCHOOL,109867,School,JAMALPUR,JAMALPUR SADAR,MIRZAPUR,90.10228,24.82808,15641,1
TIRUTHA SATTYA PIR HIGH SCHOOL,109895,School,JAMALPUR,JAMALPUR SADAR,TEROTHA,90.12925,24.79589,15642,1
DIGPAIT D. K. HIGH SCHOOL,109882,School,JAMALPUR,JAMALPUR SADAR,DIGPAITH,90.14022,24.81353,15643,1
DIGPAIT RAHIMA MOZAFFAR IDEAL GIRLS HIGH SCHOOL,109868,School,JAMALPUR,JAMALPUR SADAR,DIGPAITH,89.92578,24.89622,15644,1
HASNA-MAFIZ HIGH SCHOOL,109951,School,JAMALPUR,JAMALPUR SADAR,MATAR PARA,90.13489,24.78525,15645,1
MAMUN SMRITY PUBLIC HIGH SCHOOL,109930,School,JAMALPUR,JAMALPUR SADAR,SONTIA,90.14525,24.8035,15646,1
DOMDOMA GANG KANDA HIGH SCHOOL,109948,School,JAMALPUR,JAMALPUR SADAR,GHORADHAP,89.94403,24.7535,15647,1
SOBABALI ITAIL HIGH SCHOOL,109913,School,JAMALPUR,JAMALPUR SADAR,ITAIL,89.93656,24.76861,15648,1
PEARPUR SHAHIDA KHAYER GIRLS HIGH SCHOOL,109910,School,JAMALPUR,JAMALPUR SADAR,BARIGHAGRI,89.94717,24.76011,15649,1
SAILERKANDA HIGH SCHOOL,109907,School,JAMALPUR,JAMALPUR SADAR,SAILERKANDA,89.96369,24.77992,15650,1
MOULAVI NAGAR HIGH SCHOOL,109939,School,JAMALPUR,JAMALPUR SADAR,SAILERKANDA,89.92894,24.76444,15651,1
BANGLADESH HIGH SCHOOL,109877,School,JAMALPUR,JAMALPUR SADAR,KENDUA,90.17081,24.83933,15652,1
KUTAMONI HIGH SCHOOL,109889,School,JAMALPUR,JAMALPUR SADAR,KOTAMANI,90.18131,24.88097,15653,1
NARIKELI HIGH SCHOOL,109891,School,JAMALPUR,JAMALPUR SADAR,NARIKULI,90.16467,24.85533,15654,1
HAJERA MUKSED GIRLS HIGH SCHOOL,109924,School,JAMALPUR,JAMALPUR SADAR,PURBA PARDIGHALI,90.16189,24.83531,15655,1
SONTIA HIGH SCHOOL,109912,School,JAMALPUR,JAMALPUR SADAR,SONTIA,90.19925,24.87917,15656,1
BARUAMARI JAHURA KHATUN HIGH SCHOOL,109897,School,JAMALPUR,JAMALPUR SADAR,BARUAMARI,89.93042,24.87131,15657,1
SOLEMA AHAMED JUNIOR GIRLS SCHOOL,109862,School,JAMALPUR,JAMALPUR SADAR,BARUAMARI,89.94506,24.86153,15658,1
ALIM UDDIN HIGH SCHOOL,109940,School,JAMALPUR,JAMALPUR SADAR,CHANDER HAORA,89.95103,24.79042,15659,1
MESTA HIGH SCHOOL,109917,School,JAMALPUR,JAMALPUR SADAR,MESHTA,89.94131,24.77881,15660,1
NARUNDI SYEDA NAZIBA AKTER GIRLS HIGH SCHOOL,109909,School,JAMALPUR,JAMALPUR SADAR,NARUNDI,90.02411,24.90761,15661,1
TARAGANJ HIGH SCHOOL,109936,School,JAMALPUR,JAMALPUR SADAR,BANDERBARI,89.82961,24.84756,15662,1
BANARER PAR JOYNAB WAHED HIGH SCHOOL,109906,School,JAMALPUR,JAMALPUR SADAR,BANARERPAR,90.12467,24.86247,15663,1
DARIHAMIDPUR DR.. HANIF UDDIN HIGH SCHOOL,109931,School,JAMALPUR,JAMALPUR SADAR,DARI HAMIDPUR,90.07994,24.86744,15664,1
NANDINA MODEL ACADEMY,109919,School,JAMALPUR,JAMALPUR SADAR,KHARKHARIA,90.11497,24.86322,15665,1
RUMIZA MOMIN GIRLS HIGH SCHOOL,109927,School,JAMALPUR,JAMALPUR SADAR,KALI GHAT,90.12533,24.86206,15666,1
NANDINA NEKJAHAN GIRLS HIGH SCHOOL,109880,School,JAMALPUR,JAMALPUR SADAR,RANAGACHHA,90.11878,24.86633,15667,1
JAMALPUR GOVT GIRLS HIGH SCHOOL,109869,School,JAMALPUR,JAMALPUR SADAR,AMLA PARA,90.04728,24.83467,15668,1
PAKULLA JUNIOR HIGH SCHOOL,109949,School,JAMALPUR,JAMALPUR SADAR,PAKULLA (PART),90.05406,24.87664,15669,1
TULSHIPUR GIRLS HIGH SCHOOL,109934,School,JAMALPUR,JAMALPUR SADAR,TULSIPUR,90.06439,24.86847,15670,1
GONESH PUR  HIGH SCHOOL,109866,School,JAMALPUR,JAMALPUR SADAR,AULAI SREEKRISHNAPUR,89.98539,24.765,15671,1
KAIDOLA JAFORSHAHI HIGH SCHOOL,109916,School,JAMALPUR,JAMALPUR SADAR,KAIDOLA,89.98386,24.786,15672,1
PAKSHIMARI HIGH SCHOOL,109921,School,JAMALPUR,JAMALPUR SADAR,PAKSHIMARI,89.98481,24.78147,15673,1
SHAHABAZPUR GIRLS HIGH SCHOOL,109933,School,JAMALPUR,JAMALPUR SADAR,SAHABAJPUR,89.98703,24.78894,15674,1
KOIDOLA SHAHBAZPUR HIGH SCHOOL,109876,School,JAMALPUR,JAMALPUR SADAR,SAHABAJPUR,89.95,24.91225,15675,1
BEARA PALASHTALA HIGH SCHOOL,109925,School,JAMALPUR,JAMALPUR SADAR,BIARA,89.99894,24.832,15676,1
GODASHIMLA HIGH SCHOOL,109892,School,JAMALPUR,JAMALPUR SADAR,GODA SIMLA,89.97158,24.84381,15677,1
SHARIFPUR HIGH SCHOOL,109888,School,JAMALPUR,JAMALPUR SADAR,SHARIFPUR,89.96825,24.84228,15678,1
RAGHUNATHPUR GIRLS HIGH SCHOOL,109922,School,JAMALPUR,JAMALPUR SADAR,RAGHUNATHPUR,89.98422,24.80631,15679,1
ADVOCATE KHALILUR RAHMAN HIGH SCHOOL,109945,School,JAMALPUR,JAMALPUR SADAR,RAGHUNATHPUR DIGHALI,89.97419,24.82986,15680,1
R.K.D.H GIRLS HIGH SCHOOL,109928,School,JAMALPUR,JAMALPUR SADAR,RONORAMPUR,89.95931,24.82947,15681,1
RANARAMPUR HIGH SCHOOL,109915,School,JAMALPUR,JAMALPUR SADAR,RONORAMPUR,89.96942,24.86108,15682,1
SREERAMPUR ML.HIGH SCHOOL,109879,School,JAMALPUR,JAMALPUR SADAR,RAGHUNATHPUR,89.99303,24.89011,15683,1
BHALUKA HIGH SCHOOL,109903,School,JAMALPUR,JAMALPUR SADAR,BHALUKA (IST PORTION),90.01633,24.85133,15684,1
Ambia eakub girls high SCHOOL,109947,School,JAMALPUR,JAMALPUR SADAR,BHALUKA (IST PORTION),90.01989,24.84753,15685,1
DARIPARA RAMKRISHNAPUR HIGH SCHOOL,109926,School,JAMALPUR,JAMALPUR SADAR,RAMKRISHNAPUR,89.99181,24.86939,15686,1
SREEPUR KUMARIA HIGH SCHOOL,109886,School,JAMALPUR,JAMALPUR SADAR,SREEPUR (IST PORTION),90.02736,24.86992,15687,1
SREETUR KUMARIA NASUBA HAKIM GIRLS HIGH SCHOOL,109905,School,JAMALPUR,JAMALPUR SADAR,SREEPUR KUMARIA,90.03286,24.81319,15688,1
KAMAL KHAN HAT HIGH SCHOOL,109898,School,JAMALPUR,JAMALPUR SADAR,CHAK CHARSI (CHARSI),90.01989,24.76428,15689,1
DEFULI BARI HIGH SCHOOL,109935,School,JAMALPUR,JAMALPUR SADAR,DEULIABARI,90.01711,24.81894,15690,1
RAHIMA KAZEM UDDIN GIRLS HIGH SCHOOL,109952,School,JAMALPUR,JAMALPUR SADAR,PUGLAI,90.01528,24.81839,15691,1
SONAR BANGLA HIGH SCHOOL,109908,School,JAMALPUR,JAMALPUR SADAR,PABAI,90.01806,24.76342,15692,1
GAZARIA LAXMIR CHAR  HIGH SCHOOL,109941,School,JAMALPUR,JAMALPUR SADAR,GAJARIAKHAS (1ST PORTION),89.89742,24.842,15693,1
DOWATALA S. H. HIGH SCHOOL,109865,School,JAMALPUR,JAMALPUR SADAR,TULSIR CHAR,89.90397,24.81847,15694,1
K. H. SHAMSUL HAQUE HIGH SCHOOL,109864,School,JAMALPUR,JAMALPUR SADAR,DIGRIR CHAR,89.90831,24.82264,15695,1
TIKARA KANDI GARAMARA (T.G) ADARSHA HIGH SCHOOL,109861,School,JAMALPUR,JAMALPUR SADAR,TULSIR CHAR,89.92842,24.82828,15696,1
TEBIRCHAR high SCHOOL,109937,School,JAMALPUR,JAMALPUR SADAR,TABIR CHAR,89.92456,24.82939,15697,1
SHYAM PUR HIGH SCHOOL,109808,School,JAMALPUR,ISLAMPUR,UTTAR GOALINIR CHAR,90.12411,24.89222,15698,1
MELANDAH  GOVT. GIRLS HIGH SCHOOL,110090,School,JAMALPUR,MELANDAHA,UTTAR ADIPAIT (PART),90.10672,24.90181,15699,1
DR. NURUL ISLAM GIRLS SCHOOL,110118,School,JAMALPUR,MELANDAHA,KAMDEBBARI,90.07103,24.9025,15700,1
MELAHANDA  UMIR  UDDIN  PILOT  HIGH SCHOOL,110091,School,JAMALPUR,MELANDAHA,GOBINDAPUR,90.11783,24.89817,15701,1
K.P ANJUMONOARA FARUQUE HIGH SCHOOL,110088,School,JAMALPUR,MELANDAHA,PACHUR PARA,89.84236,25.00172,15702,1
ADRA ABDUL MANNAN HIGH SCHOOL,110102,School,JAMALPUR,MELANDAHA,ADRA,89.82042,24.97478,15703,1
BALUUATA M.A. RASHID HIGH SCHOOL,110116,School,JAMALPUR,MELANDAHA,BALUATA,89.82861,24.97775,15704,1
S.M. MUKHLESUR RAHMAN  SECONDARY SCHOOL,110121,School,JAMALPUR,MELANDAHA,SAGUNA,89.81828,24.98242,15705,1
TEGHARIA HIGH SCHOOL,110107,School,JAMALPUR,MELANDAHA,TEGHARIA,89.83892,24.98219,15706,1
FULKOCHA ALEYA AZAM  HIGH SCHOOL,110082,School,JAMALPUR,MELANDAHA,BAKAI,89.84861,24.94472,15707,1
CHARPALISHA J.L. HIGH SCHOOL,110108,School,JAMALPUR,MELANDAHA,CHAR BANIPAKURI,89.787,24.88239,15708,1
SHEHATA GAMIZ UDDIN HIGH SCHOOL,130838,School,JAMALPUR,MELANDAHA,SHIHATA,89.84533,24.93503,15709,1
KALABADHA JUNIOR GIRLS HIGH SCHOOL,110093,School,JAMALPUR,MELANDAHA,SULTANKHALI,89.77697,25.01486,15710,1
kalabadha ml high school,110081,School,JAMALPUR,MELANDAHA,KALABADHA,89.85717,24.91528,15711,1
RUKNAI HIGH SCHOOL,110103,School,JAMALPUR,MELANDAHA,RUKNAI,89.88881,24.94958,15712,1
FULKOCHA HIGH SCHOOL,110096,School,JAMALPUR,MELANDAHA,FULKUCHA,89.82678,25.04742,15713,1
HAZRA BARI HIGH SCHOOL,110092,School,JAMALPUR,MELANDAHA,HAZRABARI,89.82697,25.05183,15714,1
BAGBARI HIGH SCHOOL,110109,School,JAMALPUR,MELANDAHA,BAHGBARI,89.85056,24.91633,15715,1
BELTAIL HIGH SCHOOL,110084,School,JAMALPUR,MELANDAHA,GHOSHER PARA,89.82389,24.92486,15716,1
GHOSHEPARA FOZILA NASIM UDDIN HIGH SCHOOL,110086,School,JAMALPUR,MELANDAHA,GHOSHER PARA,89.84453,24.92356,15717,1
K.G.S MOHAR SOBHAN MAFIZ UDDIN HIGH SCHOOL,110110,School,JAMALPUR,MELANDAHA,GHOSHER PARA,89.81194,24.92672,15718,1
JHAWGORA  Ideal HIGH SCHOOL,110095,School,JAMALPUR,MELANDAHA,JHAUGARA,89.82339,24.95636,15719,1
JHAWGORA HIGH SCHOOL,130716,School,JAMALPUR,MELANDAHA,JHAUGARA,89.8195,24.8505,15720,1
SHAMSUN NAHAR JALAL HIGH SCHOOL,110115,School,JAMALPUR,MELANDAHA,KAPASHATIA,89.80717,24.86581,15721,1
TANKI JOBAIDA JABBAR HIGH SCHOOL,110087,School,JAMALPUR,MELANDAHA,TANKI,89.87322,24.89147,15722,1
MAHMUDPUR M.L HIGH SCHOOL,110098,School,JAMALPUR,MELANDAHA,MAHMUDPUR,89.87897,24.89633,15723,1
RAHIMA JALIL SECONDARY SCHOOL,110120,School,JAMALPUR,MELANDAHA,KHASIMARA,89.82217,25.02856,15724,1
KHASHIMARA PUTIA PARA HIGH SCHOOL,110106,School,JAMALPUR,MELANDAHA,KHASIMARA,89.81006,25.03136,15725,1
MIRZA AZAM HIGH SCHOOL,110085,School,JAMALPUR,MELANDAHA,PAILA,89.825,25.01567,15726,1
HORIPUR HOSSENIA HIGH SCHOOL,110101,School,JAMALPUR,MELANDAHA,HARIPUR,89.7375,24.99294,15727,1
BAGHADUBA HIGH SCHOOL,110112,School,JAMALPUR,MELANDAHA,NAMA BANDHA BAGHADOBA,89.75781,24.97633,15728,1
FAZAR UDDIN MIRZA KASHEM HIGH SCHOOL,110083,School,JAMALPUR,MELANDAHA,DAKSHIN JALALPUR (PART),89.76022,24.99961,15729,1
MALONCHA M. A GOFUR HIGH SCHOOL,110099,School,JAMALPUR,MELANDAHA,MALANCHA,89.75397,24.99419,15730,1
HAZIPUR HIGH SCHOOL,109894,School,JAMALPUR,JAMALPUR SADAR,SADARBARI,89.82869,24.95161,15731,1
MADARGONJ A.M. PILOT HIGH SCHOOL,110016,School,JAMALPUR,MADARGANJ,DAKSHIN GABER GARAM,89.85872,24.95164,15732,1
BALIJURI F. M. HIGH SCHOOL,110006,School,JAMALPUR,MADARGANJ,BALIJURI BAZAR,89.87789,24.85331,15733,1
BALIJURI ROUSHAN ARA GOVT. GIRLS HIGH SCHOOL,110007,School,JAMALPUR,MADARGANJ,BALIJURI BAZAR,89.87358,24.85442,15734,1
ZONAIL NAYAPARA FATEMA KHAN MAMUD  HIGH SCHOOL,110014,School,JAMALPUR,MADARGANJ,KHURDA JONAIL (PART),89.70806,24.89033,15735,1
ADARVITA GIRLS HIGH SCHOOL,110015,School,JAMALPUR,MADARGANJ,ADARBHITA,89.71931,24.90597,15736,1
KOYRA  SHAHEED SHAH JAHAN BIRBIKROM JUNIOR GIRLS SCHOOL,110003,School,JAMALPUR,MADARGANJ,KAIRA,89.75164,24.8975,15737,1
PATADAHA KOYRA HIGH SCHOOL,110010,School,JAMALPUR,MADARGANJ,KAIRA,89.73664,24.91858,15738,1
POLISHA HIGH SCHOOL,110013,School,JAMALPUR,MADARGANJ,BAJITER PARA,89.72981,24.90858,15739,1
MUKTI JUDDHA GEETIKAR NAZRUL ISLAM BABU HIGH SCHOOL,110031,School,JAMALPUR,MADARGANJ,PORABARI,89.74631,24.91828,15740,1
MAHMUDA BARISTER ABDUS SALAM TALUKDER HIGH SCHOOL,110037,School,JAMALPUR,MADARGANJ,NALCHHIA,89.76025,24.82836,15741,1
BARISTER ABDUS SALAM TALUKDER JR. SCHOOL,110046,School,JAMALPUR,MADARGANJ,TARTA PARA,89.76736,24.85725,15742,1
TARTAPARA HIGH SCHOOL,110026,School,JAMALPUR,MADARGANJ,TARTA PARA,89.79894,24.86011,15743,1
KHALEQUANNESSA ACADEMY,110041,School,JAMALPUR,MADARGANJ,CHAR PAKERDAHA,89.78686,24.85717,15744,1
CHARPAKERDAHA DR. ABDUL JABBAR HIGH SCHOOL,110024,School,JAMALPUR,MADARGANJ,CHAR PAKERDAHA,89.79203,24.84981,15745,1
JHAR KATA GIRLS HIGH SCHOOL,110025,School,JAMALPUR,MADARGANJ,NISCHINTAPUR,89.744,24.95433,15746,1
JHARKATRA ML. HIGH SCHOOL,110011,School,JAMALPUR,MADARGANJ,TEGHARIA,89.72358,24.87558,15747,1
KPH ADARSHA   HIGH SCHOOL,110033,School,JAMALPUR,MADARGANJ,KAYALIKANDI,89.728,24.88808,15748,1
NISHCHINTAPUR KALAMARI JANIOR SCHOOL,110042,School,JAMALPUR,MADARGANJ,NISCHINTAPUR,89.71383,24.92053,15749,1
TEGHORIA JUNIOR  SCHOOL,110034,School,JAMALPUR,MADARGANJ,TEGHARIA,89.71544,24.94028,15750,1
MIRZA ROWSAN ALI SECONDARY SCHOOL,110044,School,JAMALPUR,MADARGANJ,KHURDA JONAIL (PART),89.72386,24.96328,15751,1
GUNARITALA HIGH SCHOOL,110005,School,JAMALPUR,MADARGANJ,GUNARITALA,89.75306,24.88272,15752,1
JANGALIA D.M.HIGH SCHOOL,110020,School,JAMALPUR,MADARGANJ,CHARANIR JANGALIA,89.72894,24.962,15753,1
JUNAIL HIGH SCHOOL,110017,School,JAMALPUR,MADARGANJ,JONAIL PUJAGHATI,89.71944,24.95339,15754,1
ISLAMABAD WASIM UDDIN HIGH SCHOOL,110012,School,JAMALPUR,MADARGANJ,KHURDA JONAIL (PART),89.71903,24.95369,15755,1
MUSLEMABAD NURUNNAHER GIRL'S HIGH SCHOOL,110030,School,JAMALPUR,MADARGANJ,KHURDA JONAIL (PART),89.73356,24.90978,15756,1
NALSIA JR. HIGH SCHOOL,110043,School,JAMALPUR,MADARGANJ,NALCHHIA,89.77897,24.89481,15757,1
HASAN ALI AMINUR RAHMAN  S. K.G.N HIGH SCHOOL,110039,School,JAMALPUR,MADARGANJ,ROYER JANGALIA,89.77686,24.87606,15758,1
NO. 5 UNION JAHANARA HIGH SCHOOL,110021,School,JAMALPUR,MADARGANJ,JOREKHALI (GOLABARI),89.73633,24.91869,15759,1
FULJORE RAHIM ZAFOR HIGH SCHOOL,110022,School,JAMALPUR,MADARGANJ,CHAR PHULJORE,89.75639,24.90328,15760,1
KHILKATI IDEAL JUNIOR SCHOOL,110040,School,JAMALPUR,MADARGANJ,KHILKATI,89.74342,24.89094,15761,1
KOLADAH MIRZA GOLAM MOSTOFA HIGH SCHOOL,110028,School,JAMALPUR,MADARGANJ,KALADAHA,89.73508,24.93536,15762,1
SHUKHNAGARI BOFATUDDIN TALUKDER high. SCHOOL,110029,School,JAMALPUR,MADARGANJ,NANGLA,89.75742,24.89128,15763,1
PRINCIPAL ROICH UDDIN AHMMED HIGH SCHOOL,110032,School,JAMALPUR,MADARGANJ,BARA BHANGBARI,89.74206,24.81714,15764,1
CHAR  GUjAMANIKA   JUNIOR   HIGH   SCHOOL,110045,School,JAMALPUR,MADARGANJ,CHAR GUJAMANIKA,89.74378,24.86736,15765,1
GHUGIEMARI MIRZA ABDUL KASHEM HIGH SCHOOL,110027,School,JAMALPUR,MADARGANJ,BIR CHAND PUR,89.74369,24.86556,15766,1
GORPARA SHEKH FAZUL HOQUE MONI JUNIOR SCHOOL,110035,School,JAMALPUR,MADARGANJ,GARPARA (2ND PORTION),89.69317,24.85714,15767,1
JORKHALI HIGH SCHOOL,110018,School,JAMALPUR,MADARGANJ,KHURDA JONAIL (PART),89.75094,24.841,15768,1
LALDUBA HIGH SCHOOL,110036,School,JAMALPUR,MADARGANJ,BINODTANGI,89.76622,24.91708,15769,1
MOHISH BATHAN R.M. HIGH SCHOOL,110008,School,JAMALPUR,MADARGANJ,KARAICHARA,89.78692,24.92742,15770,1
A.C.S. HIGH SCHOOL,110113,School,JAMALPUR,MELANDAHA,SAGUNA,89.76658,24.94414,15771,1
ISLAMPUR HIGH SCHOOL,109805,School,JAMALPUR,ISLAMPUR,DAKSHIN KISMAT JALLA,89.76344,24.91139,15772,1
ISLAMPUR NEKJAHAN PILOT HIGH SCHOOL,109794,School,JAMALPUR,ISLAMPUR,GAONKURA,89.80147,24.84672,15773,1
BELGACHA GIRLS HIGH SCHOOL,109814,School,JAMALPUR,ISLAMPUR,BELGACHHA,89.78983,25.08219,15774,1
MANNIA HIGH SCHOOL,109817,School,JAMALPUR,ISLAMPUR,MANNIA,89.78347,25.08742,15775,1
DIGRIR CHAR HIGH SCHOOL,109811,School,JAMALPUR,ISLAMPUR,CHAR GOBINDI,89.78414,25.08294,15776,1
LAXMIPUR HAZIFUL MAHMOD HIGH SCHOOL,109819,School,JAMALPUR,ISLAMPUR,UTTAR GOALINIR CHAR,89.77647,25.10447,15777,1
CHAR NO 4 HIGH SCHOOL,109806,School,JAMALPUR,ISLAMPUR,BAGHARDI,89.72089,25.10281,15778,1
BENUAR CHAR M H HIGH SCHOOL,109780,School,JAMALPUR,ISLAMPUR,CHAR PUTIMARI,89.65808,25.14522,15779,1
BALIADAHA HIGH SCHOOL,109789,School,JAMALPUR,ISLAMPUR,BALIADAHA,89.85569,25.05336,15780,1
CHINADULY S.N. HIGH SCHOOL,109802,School,JAMALPUR,ISLAMPUR,CHINADULI,89.85492,25.05825,15781,1
CHINADULY JONIOR GIRL'S SCHOOL,109788,School,JAMALPUR,ISLAMPUR,CHINADULI,89.90936,25.05181,15782,1
BAMNA JUNIOR HIGH SCHOOL,109782,School,JAMALPUR,ISLAMPUR,BAMNA,89.909,25.05147,15783,1
AHAMMAD PUR high SCHOOL,109820,School,JAMALPUR,ISLAMPUR,CHAR DADNA,89.73922,25.05439,15784,1
GAIBANDHA SURUZZAHAN HIGH SCHOOL,109799,School,JAMALPUR,ISLAMPUR,GAIBANDHA,89.7155,25.08461,15785,1
GAIBANDHA SAJEDA MAHMUD GIRLS HIGH SCHOOL,109792,School,JAMALPUR,ISLAMPUR,GAIBANDHA,89.72408,25.07086,15786,1
GOALER CHAR HIGH SCHOOL,109793,School,JAMALPUR,ISLAMPUR,MAHALGIRI,89.86519,25.09653,15787,1
GOALER CHAR farazze para JUNIOR  SCHOOL,109787,School,JAMALPUR,ISLAMPUR,GOALER CHAR,89.86319,25.1015,15788,1
KUMIRDAHA HIGH SCHOOL,109822,School,JAMALPUR,ISLAMPUR,MALMARA,89.90419,25.0755,15789,1
SOVER CHAR JUNIOR GIRLS SCHOOL,109821,School,JAMALPUR,ISLAMPUR,MALMARA,89.86531,25.08208,15790,1
TUPKAR CHAR HIGH SCHOOL,109816,School,JAMALPUR,ISLAMPUR,CHAR GOBINDI,89.83872,25.07719,15791,1
PANCHBARIA ADARSHA JR. GIRLS SCHOOL,109818,School,JAMALPUR,ISLAMPUR,PANCHBARIA,89.84864,25.10983,15792,1
DENGAORH BAZLUL HUQUE HIGH SCHOOL,109813,School,JAMALPUR,ISLAMPUR,DHENGARGAR,89.83333,25.11083,15793,1
KACHIHARA HIGH SCHOOL,130752,School,JAMALPUR,ISLAMPUR,PANCHBARIA,89.87022,24.98519,15794,1
PACHABALA JOYTUN NESSA HIGH SCHOOL,109786,School,JAMALPUR,ISLAMPUR,PANCHABAHALA,89.83639,25.138,15795,1
SHAHEED SMRITY A.B.S HIGH SCHOOL,109807,School,JAMALPUR,ISLAMPUR,KULKANDI,89.75969,25.05858,15796,1
KULKANDI SHAMSUNNAHAR HIGH SCHOOL,109790,School,JAMALPUR,ISLAMPUR,KULKANDI,89.77128,25.0375,15797,2
KAJLA KHALILUR RAHMAN HIGH SCHOOL,109809,School,JAMALPUR,ISLAMPUR,KAJLA,89.77197,25.04386,15798,1
KATMA JUNIOR SCHOOL,109784,School,JAMALPUR,ISLAMPUR,KATMA KRISHNANAGAR,89.78017,25.09019,15799,1
HARGILA HIGH SCHOOL,109801,School,JAMALPUR,ISLAMPUR,NOARPARA,89.77128,25.0375,15800,2
ULIA A.M. HIGH SCHOOL,109812,School,JAMALPUR,ISLAMPUR,NOARPARA,89.71592,25.12336,15801,1
SHIRAJ BAD HIGH SCHOOL,109804,School,JAMALPUR,ISLAMPUR,SIRAJABAD,89.70361,24.99522,15802,1
HARIA BARI HIGH SCHOOL,109798,School,JAMALPUR,ISLAMPUR,HARIABARI,89.74144,25.01433,15803,1
BULBUL GIRLS HIGH SCHOOL,109795,School,JAMALPUR,ISLAMPUR,LAUDATTA,89.80364,25.108,15804,1
MALAMGANJ HIGH SCHOOL,109797,School,JAMALPUR,ISLAMPUR,PATHARSHI,89.80281,25.10269,15805,1
SAPDHORI HIGH SCHOOL,109815,School,JAMALPUR,ISLAMPUR,CHENGANIA,89.73536,25.10131,15806,1
CHINARCHAR FAZLUR RAHMAN JUNIOR SCHOOL,133873,School,JAMALPUR,ISLAMPUR,CHAR PUTIMARI,89.73953,25.14078,15807,1
BANGA BANDHU HIGH SCHOOL,110114,School,JAMALPUR,MELANDAHA,MAHMUDPUR,89.75539,25.08064,15808,1
SHADHUPUR  J.A.M HIGH SCHOOL,110089,School,JAMALPUR,MELANDAHA,SADHUPUR,89.89033,25.05958,15809,1
DEWANGANJ GOVT. HIGH SCHOOL,109730,School,JAMALPUR,DEWANGANJ,DEWAN GONJ BAZAR,89.80497,25.08081,15810,1
DEWANGONJ GIRLS HIGH SCHOOL,109729,School,JAMALPUR,DEWANGANJ,KALIKA PUR (PART),89.70933,24.98922,15811,1
TARATIA AL-HAZ-LAI MAMUD HIGH SCHOOL,109743,School,JAMALPUR,DEWANGANJ,PAR RAMRAMPUR,89.76617,25.16892,15813,1
CHAR BHABSUR SHAHAB UDDIN HIGH SCHOOL,109739,School,JAMALPUR,DEWANGANJ,CHAR BABSUR PURBA PARA (PART),89.76328,25.16717,15814,1
DIGRIR CHAR HEFAZ  UDDIN HIGH SCHOOL,109740,School,JAMALPUR,DEWANGANJ,PAR RAMRAMPUR,89.75964,25.14403,15815,2
ZEAL BANGLA SUGAR MILLS HIGH SCHOOL,109735,School,JAMALPUR,DEWANGANJ,CHAR BABSUR MILL COLONY,89.79178,25.31947,15816,1
BANGLADESH RAILWAY HIGH SCHOOL,109736,School,JAMALPUR,DEWANGANJ,RAIL COLONY,89.82689,25.32628,15817,1
BASETPUR BL LATERAL HIGH  SCHOOL,109737,School,JAMALPUR,DEWANGANJ,BAHADURABAD,89.80506,25.31111,15818,1
ZHALUR CHAR JUNIOR GIRLS SCHOOL,109755,School,JAMALPUR,DEWANGANJ,BAHADURABAD,89.75964,25.14403,15819,2
PULLAKANDI HIGH SCHOOL,109746,School,JAMALPUR,DEWANGANJ,BAHADURABAD,89.81736,25.33403,15820,1
SHAHJADPUR HIGH SCHOOL,109744,School,JAMALPUR,DEWANGANJ,BAHADURABAD,89.76172,25.13678,15821,1
SHEIKH PARA JUNIRO SCHOOL,109758,School,JAMALPUR,DEWANGANJ,MADARER CHAR,89.75619,25.15544,15822,1
BAHADURABAD HIGH SCHOOL,109731,School,JAMALPUR,DEWANGANJ,BAHADURABAD,89.78772,25.25553,15823,1
JHAWDANGA KALAKANDA MODEL HIGH SCHOOL,109760,School,JAMALPUR,DEWANGANJ,PAR RAMRAMPUR,89.78364,25.21167,15824,1
MITALI HIGH SCHOOL,109745,School,JAMALPUR,DEWANGANJ,CHAR AOMKHAOA,89.75808,25.22689,15825,1
MOULVIRCHaR JU GIRLS SCHOOL,109753,School,JAMALPUR,DEWANGANJ,CHAR AOMKHAOA,89.76317,25.19347,15826,1
SANANDA BARI HIGH SCHOOL,109733,School,JAMALPUR,DEWANGANJ,SANANDABARI,89.78683,25.26286,15827,1
MOULOVIR CHAR HIGH SCHOOL,109747,School,JAMALPUR,DEWANGANJ,CHAR AOMKHAOA,89.75775,25.22422,15828,1
KHOLABARIR CHAR HIGH SCHOOL,109732,School,JAMALPUR,DEWANGANJ,CHAR MAGURIHAT,89.76817,25.36253,15829,1
DELWAR HOSSAIN HIGH SCHOOL,109741,School,JAMALPUR,DEWANGANJ,RAMPURA BALAMARI,89.74425,25.34108,15830,1
BIR HALKA HIGH SCHOOL,109727,School,JAMALPUR,DEWANGANJ,HALKER CHAR,89.76878,25.36247,15831,1
KAWNIAR CHAR M.L. HIGH SCHOOL,109734,School,JAMALPUR,DEWANGANJ,KARKHANA,89.73081,25.17944,15832,1
DIP SHIKHA  HIGH SCHOOL,109750,School,JAMALPUR,DEWANGANJ,BAGHAR CHAR,89.72625,25.22792,15833,1
KAWNIAR CHAR GIRLS SCHOOL,109749,School,JAMALPUR,DEWANGANJ,KARKHANA,89.75617,25.17017,15834,1
KHARMA CHANDRA KHALI SHARIOTULLAH HIGH SCHOOL,109742,School,JAMALPUR,DEWANGANJ,KHARMA,89.75931,25.16369,15835,1
TILAKPUR JU SCHOOL,109757,School,JAMALPUR,DEWANGANJ,TILAKPUR,89.797,25.39853,15836,1
UTMER CHAR HIGH SCHOOL,109754,School,JAMALPUR,DEWANGANJ,UTMAR CHAR,89.80753,25.36156,15837,1
AKANDA PARA JAMIRON NESSA GIRL'S HIGH SCHOOL,133709,School,JAMALPUR,DEWANGANJ,HATEBHANGA,89.77133,25.14314,15838,1
CHAKER CHAR NEW MODERN HIGH SCHOOL,109748,School,JAMALPUR,DEWANGANJ,HATEBHANGA,89.80244,25.13044,15839,1
SHAKUA PARA HIGH SCHOOL,109759,School,JAMALPUR,DEWANGANJ,AMKHAWA,89.79283,25.11917,15840,1
HATI VANGA A.B. HIGH SCHOOL,109738,School,JAMALPUR,DEWANGANJ,HATEBHANGA,89.76861,25.12114,15841,1
TARATIA ALHAJ LATIF FOZITUNNESA GIRLS HIGH SCHOOL,109752,School,JAMALPUR,DEWANGANJ,PAR RAMRAMPUR,89.79494,25.26956,15842,1
sananda bari girls high school,109728,School,JAMALPUR,DEWANGANJ,SANANDABARI,89.76647,25.27778,15843,1
ALIR PARA M.U.MUL. HIGH SCHOOL,109688,School,JAMALPUR,BAKSHIGANJ,ALIR PARA,89.78303,25.28156,15844,1
GHASHIRPARA ROKEYA BEGUM HIGH SCHOOL,109700,School,JAMALPUR,BAKSHIGANJ,GHASIR PARA,89.77703,25.13339,15846,1
GOPAL PUR CO-OPERATIVE GIRLS HIGH SCHOOL,109681,School,JAMALPUR,BAKSHIGANJ,RAMRAMPUR,89.75528,25.36661,15847,1
BAKSIGONJ N M HIGH SCHOOL,109686,School,JAMALPUR,BAKSHIGANJ,RAJENDRAGANJ,89.85361,25.24078,15848,1
BOKSHIGONG UL FATUNNESA GOVT GIRLS HIGH SCHOOL,109683,School,JAMALPUR,BAKSHIGANJ,RAJENDRAGANJ,89.83592,25.26381,15849,1
MALIRCHAR ZIGATOLA MAHBUBA ISLAM HIGH SCHOOL,109704,School,JAMALPUR,BAKSHIGANJ,MALIR CHAR,89.82181,25.27117,15850,1
BATTAJORE NAGAR MAMUD HIGH SCHOOL,109689,School,JAMALPUR,BAKSHIGANJ,BATTAJORE,89.84922,25.20519,15851,1
HASINA GAZI GIRLS HIGH SCHOOL,109696,School,JAMALPUR,BAKSHIGANJ,GOALGAON,89.86283,25.21681,15852,1
GOAL GAWN PURBA PARA JOYMONA ESIMODDIN HIGH SCHOOL,109702,School,JAMALPUR,BAKSHIGANJ,GOALGAON,89.87483,25.16619,15853,1
DHANUA KAMALPUR CO- OPERATIVE HIGH SCHOOL,109687,School,JAMALPUR,BAKSHIGANJ,DHANUA KAMALPUR,89.87136,25.21478,15854,1
LAWCHAPRA HIGH SCHOOL,109690,School,JAMALPUR,BAKSHIGANJ,JADUR CHAR,89.88431,25.19467,15855,1
AIRMARY HIGH SCHOOL,109703,School,JAMALPUR,BAKSHIGANJ,RABIAR CHAR,89.87128,25.21492,15856,1
JANOKIPUR ADARSHA  HIGH SCHOOL,109680,School,JAMALPUR,BAKSHIGANJ,JANKIPUR,89.92186,25.26856,15857,1
NILAKHIA R.J. PILOT HIGH SCHOOL,109685,School,JAMALPUR,BAKSHIGANJ,NILAKSHMIA,89.88497,25.28042,15858,1
PURBA BANGAL PARA ADARSHA HIGH SCHOOL,133706,School,JAMALPUR,BAKSHIGANJ,SADHUR PARA,89.82522,25.1445,15859,1
K.B  MODEL HIGH SCHOOL,109705,School,JAMALPUR,BAKSHIGANJ,SADHUR PARA,89.87811,25.15172,15860,1
SHADHUR PARA NAZRUL ISLAM HIGH SCHOOL,109691,School,JAMALPUR,BAKSHIGANJ,SADHUR PARA,89.88442,25.13167,15861,1
UTTAR GOALER CHAR IDEAL JUNIOR SCHOOL,130764,School,JAMALPUR,ISLAMPUR,GOALER CHAR,89.80308,25.22586,15862,1
KACHIMAR CHAR HIGH SCHOOL,109781,School,JAMALPUR,ISLAMPUR,KACHHIMER CHAR,89.81014,25.21336,15863,1
BHATARA UcHCHA MADHYAMIK BIDYALAY,110225,School and College,JAMALPUR,SARISHABARI UPAZILA,BHATARA,89.88086,24.77767,26013,1
PEARPUR MOHARAJA SASHIKANTA high school and college,110002,School and College,JAMALPUR,JAMALPUR SADAR,BARIGHAGRI,90.15439,24.824,26014,1
ABDUL HAMID KHAN HIGH SCHOOL AND COLLEGE,109944,School and College,JAMALPUR,JAMALPUR SADAR,MESHTA,89.92378,24.87672,26015,1
HAShIL  HIGHER  SECONDARY  SCHOOL,132054,School and College,JAMALPUR,JAMALPUR SADAR,HASILPARIL GAURIPUR,90.02153,24.90403,26016,1
NURUNDI UCHCHA MADHYAMIK BIDYALAYA,110001,School and College,JAMALPUR,JAMALPUR SADAR,NARUNDI,89.88322,24.84278,26017,1
TEGHARIA SHAHED ALI HIGH CSHOOL & COLLEGE,110080,School and College,JAMALPUR,MADARGANJ,TEGHARIA,89.71725,24.94594,26018,1
SHAHEED BRIGADEAR KHALED MUSHARRAF GIRLS HIGH SCHOOL AND COLLEGE,109810,School and College,JAMALPUR,ISLAMPUR,PANCHBARIA,89.79361,25.07744,26020,1
GUTHAIL UCHCHA MADYMIC BIDYALAYA,109860,School and College,JAMALPUR,ISLAMPUR,GHILABARI,89.73369,25.04761,26021,1
ISLAMPUR J.J.K.M. GIRLS HIGH SCHOOL AND COLLEGE,109859,School and College,JAMALPUR,ISLAMPUR,UTTAR KISMAT JALLA,89.70311,24.99364,26022,1
RAHILA KADIR  SCHOOL AND COLLEGE,109699,School and College,JAMALPUR,BAKSHIGANJ,CHAR KAURIA,89.85253,25.25981,26023,1
CHANDRABAZ RASHIDA BEGUM SCHOOL AND COLLEGE,109693,School and College,JAMALPUR,BAKSHIGANJ,GOALGAON,89.86942,25.18608,26024,1
