inst name, eiin, inst_type, district, thana, mauza, long, lat, serial,isUnique
ALAIPUR COLLEGE,117394,College,KHULNA,RUPSA,ALAIPUR,89.585335,22.800629,1008,1
GOVT. AZAM KHAN COMMERCE COLLEGE,117165,College,KHULNA,KHULNA SADAR,PURBA POLICE LINE,89.568184,22.811646,1009,1
GOVT.SUNDARBAN ADARSHA COLLEGE,117167,College,KHULNA,KHULNA SADAR,DAROGA PARA,89.569542,22.806223,1010,1
GOVT MAJEED MEMORIAL CITY COLLEGE,117170,College,KHULNA,KHULNA SADAR,DOLEKHOLA,89.569664,22.806639,1011,1
RUPSHA COLLEGE,117391,College,KHULNA,RUPSA,BAGHMARA,89.604431,22.783751,1012,1
GOVT.PIONEER MOHILA COLLEGE,117166,College,KHULNA,KHULNA SADAR,BABU KHAN ROAD,89.571793,22.810417,1013,1
HAZI ABDUL MALEK ISLAMIA COLLEGE,117168,College,KHULNA,KHULNA SADAR,LABANCHARA (MADINABAD),89.580307,22.792295,1014,1
MOHSIN WOMEN COLLEGE,116955,College,KHULNA,DAULATPUR,BANANI PARA,89.516212,22.864985,1015,1
PAIKGACHA COLLEGE,117323,College,KHULNA,PAIKGACHHA,SARAL (PART),89.316978,22.591938,1016,1
KAPILMUNI COLLEGE,117322,College,KHULNA,PAIKGACHHA,NASIRPUR,89.309837,22.688389,1017,1
GOVT. BANGABANDHU COLLEGE,117393,College,KHULNA,RUPSA,AIJGANTI,89.568565,22.829733,1018,1
AL-HAJJ SARWAR KHAN  COLLEGE,117080,College,KHULNA,DIGHALIA,SENHATI,89.546303,22.883881,1019,1
SOBURENNESA GIRLS DEGREE COLLEGE,117169,College,KHULNA,KHULNA SADAR,DAKSHIN GAGAN BABU ROAD,89.575806,22.810637,1020,1
SHATADAL MAHABIDDYALIA,117460,College,KHULNA,TEROKHADA,CHAMTA,89.71736,22.90968,1021,1
NORTH KHULNA COLLEGE,117461,College,KHULNA,TEROKHADA,TEROKHADA,89.65736,22.8657,1022,1
CHITTRA MOHILA MAHA BIDDYALAYA,117462,College,KHULNA,TEROKHADA,TEROKHADA,89.66811,22.93785,1023,1
SHAPLA MOHABIDDALAI,117459,College,KHULNA,TEROKHADA,ATLIA,89.66807,22.93887,1024,1
CHANDPUR COLLEGE,117395,College,KHULNA,RUPSA,SHIALI,89.57594,22.91616,1025,1
GOVERMENT COMMERCIAL INSTITUTE KUNLNA,133155,College,KHULNA,SONADANGA,CHHOTA BOYRA DAKSHIN,89.66144,22.86701,1026,1
KHULNA IDEAL COLLEGE,117429,College,KHULNA,SONADANGA,KHULNA TEXTILE MILLS,89.544,22.81033,1027,1
KHULNA COLLEGE,117428,College,KHULNA,SONADANGA,MADHYA GOBARCHAKA,89.54861,22.81117,1028,1
AHSAN ULLAH COLLEGE,117427,College,KHULNA,SONADANGA,SEKH PARA,89.54275,22.81419,1029,1
SHAHID SUHRAWARDY COLLEGE,117426,College,KHULNA,SONADANGA,BANARGATI EXTENTION ROAD,89.55089,22.81519,1030,1
CITY GIRLS COLLEGE,117431,College,KHULNA,SONADANGA,UTTAR HAZI ISMAIL ROAD,89.54783,22.81986,1031,1
PHULTALA M.M.COLLEGE,117355,College,KHULNA,PHULTALA,DAMODAR,89.40253,22.93136,1034,2
FULTALA  DEGREE  MAHILA  COLLEGE,117356,College,KHULNA,PHULTALA,ALKA,89.44894,22.96583,1035,1
SARDER ABU HOSEN COLLEGE,117319,College,KHULNA,PAIKGACHHA,SHOLADANA,89.338,22.52778,1036,1
HARIDHALI KAPILMUNI GIRLS COLLEGE,117326,College,KHULNA,PAIKGACHHA,DAKSHIN SALUA,89.26644,22.69028,1037,1
SHAHEED AYUB & MUSA MEMORIAL DEGREE COLLEGE,117320,College,KHULNA,PAIKGACHHA,HOGLA CHAR,89.36333,22.48772,1038,1
KALINAGAR COLLEGE,117325,College,KHULNA,PAIKGACHHA,KALINAGAR,89.27803,22.61864,1039,1
FASIAR RAHAMAN WOMAN COLLEGE,117321,College,KHULNA,PAIKGACHHA,SARAL (PART),89.40353,22.547,1040,1
CHAND KHALI COLLEGE,117324,College,KHULNA,PAIKGACHHA,KALIDASPUR,89.30914,22.58556,1041,1
SHAPUR  MADHUGRAM  COLLEGE,117055,College,KHULNA,DUMURIA,MADHUGRAM,89.40261,22.61928,1042,1
KAPOTAKSHMA COLLEGE,117240,College,KHULNA,KOYRA,KOYRA,89.41458,22.40169,1043,1
KOYRA MoHILA COLLEGE,117239,College,KHULNA,KOYRA,KOYRA,89.31453,22.35206,1044,1
KHAN SAHEB KOMORUDDIN COLLEGE,117241,College,KHULNA,KOYRA,AMADI,89.27853,22.37553,1045,1
CANTONMENT PUBLIC SCHOOL AND COLLEGE,132029,College,KHULNA,PHULTALA,ATRA,89.49889,22.88325,1046,2
KHAN JAHAN ALI IDEAL COLLEGE,117128,College,KHULNA,PHULTALA,SHIRAMANI,89.50661,22.92267,1047,1
DAULATPUR COLLEGE (DAY-NIGHT),116953,College,KHULNA,DAULATPUR,UTTAR PABLA,89.48817,22.93325,1048,1
GOVT. B. L. COLLEGE,116954,College,KHULNA,DAULATPUR,DAULATPUR B. L. COLLEGE,89.52708,22.83389,1049,1
GOVT. HAZI MUHAMMAD MUHSIN COLLEGE,117109,College,KHULNA,KHALISHPUR,KHALISHPUR HOUSING EAST BLOCK,89.54858,22.8365,1050,1
KHULNA GOVERNMENT GIRLS COLLEGE,117107,College,KHULNA,KHALISHPUR,DAKSHIN BOYRA JUNCTION,89.53756,22.85967,1051,1
KHULNA ISLAMIA DEGREE COLLEGE,117430,College,KHULNA,SONADANGA,CHHOTA BOYRA PASCHIM,89.53303,22.83575,1052,1
RAYER MAHAL DEGREE COLLEGE,117110,College,KHULNA,KHALISHPUR,ROYER MAHAL (PART I & II),89.53914,22.84336,1053,1
METROPOLITON COLLEGE,117432,College,KHULNA,SONADANGA,SABUJBAG(K.D.A R/A),89.51631,22.84347,1054,1
CHUKNAGAR COLLEGE,117053,College,KHULNA,DUMURIA,CHUKNAGAR,89.32419,22.82519,1055,1
MODEL MOHILA COLLEGE,117051,College,KHULNA,DUMURIA,CHUKNAGAR,89.30219,22.83589,1056,1
SHAHiD SMRITI MOHILA COLLEGE,117054,College,KHULNA,DUMURIA,DUMURIA,89.44292,22.79992,1057,1
DR. S.K. BAKAR COLLEGE,117058,College,KHULNA,DUMURIA,DHAMALIA,89.37597,22.93275,1058,1
RANGPUR COLLEGE,117057,College,KHULNA,DUMURIA,RANGPUR,89.46036,22.89228,1059,1
POLLISREE COLLEGE,117050,College,KHULNA,DUMURIA,MANDARTALA,89.48156,22.86989,1060,1
SAYED EASHA TECNICAL & BUSINESS MANAGEMENT COLLEGE,132766,College,KHULNA,DUMURIA,GOLNA,89.25844,22.84315,1061,1
SWARNADEEP MAHADIDYALAYA,117059,College,KHULNA,DUMURIA,KAIPUKURIA,89.35807,22.81142,1062,1
DUMURIA COLLEGE,117052,College,KHULNA,DUMURIA,ARAZI DUMURIA,89.41978,22.7994,1063,1
MOULANA BHAShANI MEMOrial COLLEGE,117056,College,KHULNA,DUMURIA,SARAPPUR,89.42282,22.80309,1064,1
ALHAJ MOLLA JALAL UDDIN COLLEGE,133817,College,KHULNA,DIGHALIA,KETLA,89.55624,22.88125,1065,1
M A MAJID DEGREE COLLEGE,117079,College,KHULNA,DIGHALIA,DIGHALIA,89.52836,22.93964,1066,1
MAHESWARPASHA SHAHID ZIA COLLEGE,116952,College,KHULNA,DAULATPUR,MAHESHWAR PASHA,89.52181,22.87383,1067,1
BAJUA SURENDRA NATH MAHABIDDALAYA,116923,College,KHULNA,DACOPE,BAJUA,89.56839,22.52872,1068,1
GOVT.L.B.K. DEGREE  WOMEN'S COLLEGE,116925,College,KHULNA,DACOPE,LAUDUBI,89.56453,22.53028,1069,1
CHALNA MOBARAK MEMORIAL COLLEGE,116924,College,KHULNA,DACOPE,PANKHALI,89.52206,22.60636,1070,1
CHALNA COLLEGE,116928,College,KHULNA,DACOPE,CHHOTA CHALNA,89.47839,22.64411,1071,1
CHALNA MOHILA COLLEGE,116922,College,KHULNA,DACOPE,CHALNA PURBA PARA,89.50889,22.60778,1072,1
SAHID ABDUL KASHEM COLLEGE,116869,College,KHULNA,BATIAGHATA,RAJBANDH,89.46317,22.55389,1073,1
BATIAGHATA MAHAVIDYALA,116865,College,KHULNA,BATIAGHATA,BATIAGHATA,89.49222,22.79034,1074,1
KHAGENDRANATH MOHILA COLLEGE,116868,College,KHULNA,BATIAGHATA,BOYARBHANGA,89.54314,22.67167,1075,1
GARIARDANGA ADARSHA COLLEGE,116871,College,KHULNA,BATIAGHATA,GARIARDANGA,89.44014,22.66459,1076,1
BAROARIA SHAHID SMARANI COLLEGE,116867,College,KHULNA,BATIAGHATA,BARA ARIA,89.47213,22.72336,1077,1
MUKTIJODDHA COLLEGE,116870,College,KHULNA,BATIAGHATA,KRISHNANAGAR,89.46808,22.7308,1078,1
NACHUNIA JUNARI DHAKIL MADRASAH,117454,Madrasha,KHULNA,TEROKHADA,JUNARI,88.97658,24.09994,5935,1
KHADIZATUL qUBRA r  MAHILA DHAKHIL MADRASAH,117457,Madrasha,KHULNA,TEROKHADA,KHARBARIA,89.7272,22.92621,5936,1
ATALIA SIDDIQUIA ALIM MADRASAH,117453,Madrasha,KHULNA,TEROKHADA,ATLIA,89.72812,22.9273,5937,1
IKHORI DAKHIL MADRASAH,117455,Madrasha,KHULNA,TEROKHADA,TEROKHADA,89.67317,22.93125,5938,1
PANTITA ISLAMIA DAKHIL MADRASAH,117451,Madrasha,KHULNA,TEROKHADA,PANTITA,89.68519,22.93466,5939,1
CHANDPUR DAKHIL MADRASAH,117384,Madrasha,KHULNA,RUPSA,DAKSHIN BAMUNDANGA,89.62185,22.85433,5940,1
AL FARUQUE  SOCIETY  DAKHIL MADRASA,117425,Madrasha,KHULNA,SONADANGA,SONADANGA,89.537,22.83522,5941,1
MUHAMMADNAGAR  ISLAMIA  DAKHIL  MADRASAh,117424,Madrasha,KHULNA,SONADANGA,SONADANGA NEW MARKET,89.53714,22.82989,5942,1
DARUL QURAN  SIDDIKiA  KAMIL MADRASA,117421,Madrasha,KHULNA,SONADANGA,BASU PARA,89.55219,22.82081,5943,1
TALIMUL MILLAT RAHMATIA FAZIL MADRASah,117422,Madrasha,KHULNA,SONADANGA,UTTAR GOBARCHAKA MAIN ROAD,89.54528,22.82731,5944,1
MUHAMMADNAGAR WOMEN,S KAMIL MADRASAH.,117423,Madrasha,KHULNA,SONADANGA,SONADANGA,89.54089,22.81744,5945,1
JOGINIPASHA DAKHIL MADRASHA,117354,Madrasha,KHULNA,PHULTALA,JOGINI PASHA,89.46799,22.96192,5947,1
KAZI ABU MOKARRAM FAZLUL BARI DAKHIL MADRASHA,117348,Madrasha,KHULNA,PHULTALA,PAYGRAM KASBA,89.47661,22.94778,5948,1
JAMIRA BAZAR PIPRAIL SIDDIkIA FAZIL MADRASAH,117350,Madrasha,KHULNA,PHULTALA,PIPRAIL,89.43897,22.98817,5949,1
KHARIA DAKHIL MADRASHA,117305,Madrasha,KHULNA,PAIKGACHHA,RARULI,89.43144,22.95885,5952,2
LASHKAR PAIK GACHA ISLAMIA  DAKHIL MADRASHA,117301,Madrasha,KHULNA,PAIKGACHHA,PAIKGACHHA,89.44014,22.95772,5953,2
PATKEL POTA DAKHIL MADRASAH,117307,Madrasha,KHULNA,PAIKGACHHA,CHAR BANDA,89.38594,22.65519,5954,1
CHAND KHALI SULTANIA DAKHIL MADRASAH,117310,Madrasha,KHULNA,PAIKGACHHA,KALIDASPUR,89.25656,22.56642,5955,1
HABIB  NAGAR M.K.D.S.B. FAZIL MADRASHA,117297,Madrasha,KHULNA,PAIKGACHHA,RAMNATHPUR,89.26964,22.53725,5956,1
UTTAR SALUA A. HAI SIDDIQUI DAKHIL MADRASAH,117302,Madrasha,KHULNA,PAIKGACHHA,UTTAR SALUA,89.28103,22.68219,5958,1
SONATANKATI ALHERA DAKHIL MADRASHA,117315,Madrasha,KHULNA,PAIKGACHHA,SONATANKATI,89.29667,22.6715,5959,1
AL-AMIN MOHILA DAKHIL MADRASHA,117316,Madrasha,KHULNA,PAIKGACHHA,TAKIA,89.33642,22.58225,5960,1
FAKIRABAD SHANTA AL HAZ NURUL hAQUE Dakhil MADRASah,117309,Madrasha,KHULNA,PAIKGACHHA,GARUIKHALI,89.34739,22.51886,5961,1
PATRA BUNIA ALIM MADRASAH,117300,Madrasha,KHULNA,PAIKGACHHA,NURPUR AMIRPUR,89.39894,22.51072,5962,1
RARULI ALIM MADRASAH,117304,Madrasha,KHULNA,PAIKGACHHA,CHURADANGA BURHANPUR,89.35636,22.68889,5963,1
HARIDAS KATI H.U.N. MOHILA DAKHIL MADRASHA,117317,Madrasha,KHULNA,PAIKGACHHA,HARIDASKATI,89.38519,22.63769,5964,1
MATHBATI G.G.P.G  DAKHIL MADRASA,117298,Madrasha,KHULNA,PAIKGACHHA,MATHBARI,89.26142,22.62652,5965,1
PAIK GACHA SINIOR ALIM MADRASHA,117308,Madrasha,KHULNA,PAIKGACHHA,BATIKHALI (PART),89.43589,22.61714,5966,1
GAZALIA KALUA ALIM MADRASHA,117306,Madrasha,KHULNA,PAIKGACHHA,GAJALIA,89.32064,22.58925,5967,1
KAWALI DAKHIL MADRASAH,117311,Madrasha,KHULNA,PAIKGACHHA,KAOALI,89.31833,22.58652,5968,1
KOYRA UTTAR CHAK AMINIA MULTILATERAL KAMIL MADRASA,117211,Madrasha,KHULNA,KOYRA,KOYRA,89.44047,22.63289,5969,1
KOYRA MODINABAD DARUSSALAM MOHILA D. MADRASHA,117229,Madrasha,KHULNA,KOYRA,KOYRA,89.44056,22.61969,5970,1
KAYRA ASCHIN MOHILA DAKIL MADRASHA,117226,Madrasha,KHULNA,KOYRA,KOYRA,89.38997,22.46483,5971,1
GOBRA DAKHIL MADRASAH,117232,Madrasha,KHULNA,KOYRA,MADINABAD,89.31433,22.35342,5972,1
KOYRA SIDDIQEA MALTILEAL FAZIL MADRASA,117212,Madrasha,KHULNA,KOYRA,KOYRA,89.29158,22.33828,5973,1
DEARA ANTABUNIA DAKHIL MADRASHA,117228,Madrasha,KHULNA,KOYRA,KALNA,89.29114,22.34703,5974,1
KALNA AMINIA FAZIL MADRASAH,117213,Madrasha,KHULNA,KOYRA,KALNA,89.29094,22.34517,5975,1
KALNA GIRLS DAKHIL MADRASA,117230,Madrasha,KHULNA,KOYRA,KALNA,89.30944,22.38119,5976,1
M.M. DARUS SUNNAH DAKHIL MADRASHA,117237,Madrasha,KHULNA,KOYRA,KHARIA MATHBARI,89.3235,22.35314,5977,1
M.A. DARUL EHSAN DAKHIL MADRASHA,117236,Madrasha,KHULNA,KOYRA,DAKSHIN DEARA,89.28908,22.39758,5978,1
P.K. S . A DARUSSUNNAH DAKHIL MADRASHA,117231,Madrasha,KHULNA,KOYRA,KALNA,89.28033,22.36836,5979,1
ARJUNPUR HASANIA DAKHIL MADRASHA,117219,Madrasha,KHULNA,KOYRA,ARJUNPUR,89.32275,22.46719,5980,1
BE.SIN .MIM BAYLAHARANIA ALIM MADRASHA,117221,Madrasha,KHULNA,KOYRA,BAILA HARANI,89.327,22.43036,5981,1
KUSHODANGA  ALHAZ KOMOR UDDIN ALIM MADRASHA,117222,Madrasha,KHULNA,KOYRA,KUSADANGA,89.29014,22.42347,5982,1
GHUGRAKATI FAZIL MADRASHA,117214,Madrasha,KHULNA,KOYRA,GHUGRAKATI,89.29383,22.40597,5983,1
NARAN PUR MOHILA DAKHIL MADRASHA,117233,Madrasha,KHULNA,KOYRA,NARAYANPUR,89.31878,22.41011,5984,1
SUNDER BON SIDDQUIA DAKHIL MADRASHA,117218,Madrasha,KHULNA,KOYRA,DAKSHIN BEDKASHI,89.27381,22.41139,5985,1
BEDKASHI HABIBIA DAKHIL MADRASAH,117216,Madrasha,KHULNA,KOYRA,UTTAR BEDKASHI,89.31753,22.24089,5986,1
BEZPARA HAYATUNNESA DAKHIL MADRASHA,117220,Madrasha,KHULNA,KOYRA,BHANDAR POLE,89.34017,22.33647,5987,1
KHIROL MOHILA DAKHIL MADRASHA,117235,Madrasha,KHULNA,KOYRA,KHIRAL,89.31553,22.50086,5988,1
CHANNIR CHAK B.K. DAKHIL MADRASAH,117234,Madrasha,KHULNA,KOYRA,AMADI,89.27811,22.45756,5989,1
D. F. NAKSHA ALIM MADRASAH,117215,Madrasha,KHULNA,KOYRA,NAKSA,89.30914,22.49969,5990,1
JOYPUR SHIMARAIT DARUSSUNNA DAKHIL MADRASHA,117224,Madrasha,KHULNA,KOYRA,SHIMULIA RAIT,89.32444,22.48844,5991,1
DAKKEN MAHESWARIPUR DAKHIL MADRASHA,117227,Madrasha,KHULNA,KOYRA,MAHESWARIPUR,89.34911,22.46736,5992,1
CHOWKUNI ISLAMIA DAKHIL MADRASHA,117225,Madrasha,KHULNA,KOYRA,CHAUKANNI,89.33675,22.45811,5993,1
SATHALIA GAUSUL AZAM DAKHIL MADRASHA,117223,Madrasha,KHULNA,KOYRA,SHARISHAMUTI,89.40186,22.39369,5994,1
KAKRABUNIA SIRAJIA DAKHIL MADRASHA,116919,Madrasha,KHULNA,DACOPE,GARKHALI,89.41653,22.46294,5995,1
DEANA MOHILA DAKHIL MADRASA,131553,Madrasha,KHULNA,DAULATPUR,DEANA (PART),89.49889,22.88325,5996,2
MIRERDANGA ISLAMIA ALIM MADRASA,117125,Madrasha,KHULNA,KHAN JAHAN ALI,JUGIPOLE,89.50933,22.89583,5997,1
GILATALA AHAMADIA DAKHIL MADRASAH,117126,Madrasha,KHULNA,PHULTALA,GILATALA,89.50175,22.92119,5998,1
MOSHIALI DARUL ULUM DAKHIL MADRASAH,117352,Madrasha,KHULNA,PHULTALA,JOGINI PASHA,89.49939,22.89906,5999,1
SHIROMONI ALIM MADRASHA,117127,Madrasha,KHULNA,PHULTALA,ATRA,89.49106,22.93703,6000,1
CRESCENT  ALIM MADRASAH,117106,Madrasha,KHULNA,KHALISHPUR,GOAL PARA,89.53364,22.85775,6001,1
KHULNA  NESARIA KAMIL MADRASHA,117105,Madrasha,KHULNA,KHALISHPUR,MADHYA MUZGUNNI,89.52753,22.84689,6002,1
DEARA JUGIHATI aMINIA ALIM MADRASHA,117382,Madrasha,KHULNA,RUPSA,AIJGANTI,89.54008,22.842,6003,1
GODAIPUR MOHILA DAKHIL MADRASAH,117312,Madrasha,KHULNA,PAIKGACHHA,GADAIPUR,89.48594,22.80369,6004,1
CHUKNAGAR HASANIA DAKHIL MADRASHA,117036,Madrasha,KHULNA,DUMURIA,CHUKNAGAR,89.28017,22.84,6005,1
NURANIA ISLAMIA FAZIL MADRASA,117026,Madrasha,KHULNA,DUMURIA,NARNIA,89.31658,22.83611,6006,1
CHUKNAGAR N.D.S GIRLS DAKHIL MADRASHA,117034,Madrasha,KHULNA,DUMURIA,NARNIA,89.29431,22.84119,6007,1
THUKRA ISLAMIA WAZADIA DAKHIL MADRASHA,117030,Madrasha,KHULNA,DUMURIA,THUKURA,89.29342,22.84461,6008,1
KOMRAIL R.D.P.T. FARUQUIA DAKHIL MADRASHA,117043,Madrasha,KHULNA,DUMURIA,KOMRAIL,89.46461,22.74506,6009,1
ANDULIA KADERIA DAKHIL MADRASHA,117032,Madrasha,KHULNA,DUMURIA,ANDULIA,89.39567,22.89111,6010,1
MADHUGRAM ISLAMIA ALIM MADRASAH,117029,Madrasha,KHULNA,DUMURIA,MADHUGRAM,89.39028,22.86656,6011,1
CHAHERA S.K. DAKHIL MADRASHA,117028,Madrasha,KHULNA,DUMURIA,CHAIRA,89.37744,22.85981,6012,1
HASANPUR MIKSIMIL DAKHIL MADRASHA,117048,Madrasha,KHULNA,DUMURIA,MIKSIMIL,89.38086,22.85814,6013,1
ULA MAZIDIA ISLAMIA ALIA DAKHIL MADRASHA,117024,Madrasha,KHULNA,DUMURIA,ULA,89.39608,22.86664,6014,1
SAHOSH ISLAMIA DAKHIL MADRASAH,117047,Madrasha,KHULNA,DUMURIA,SAHAS,89.49281,22.85417,6015,1
SHOLGATIA GIRL'S DAKHIL MADRASHA,117049,Madrasha,KHULNA,DUMURIA,RUDAGHARA,89.4665,22.79744,6016,1
BORUNA BAZAR (DIMUKHI) DAKHIL MADRASHA,117022,Madrasha,KHULNA,DUMURIA,BARUNA,89.43344,22.71625,6017,1
CHENCHURI DARUSSUNNAH DAKHIL MADRASHA,117027,Madrasha,KHULNA,DUMURIA,CHECHURI,89.41575,22.83667,6018,1
SOVNA DARUS SUNNAH DAKHIL MADRASHA,117035,Madrasha,KHULNA,DUMURIA,SOBHNA,89.47481,22.883,6019,1
ARASHNAGAR SK. SHAH AFJAL DAKHIL MADRASHA,117033,Madrasha,KHULNA,DUMURIA,AROSHNAGAR,89.46781,22.86875,6020,1
KANCHANPUR MOHILA DAKHIL MADRASAH,117044,Madrasha,KHULNA,DUMURIA,KANCHANPUR,89.47575,22.88336,6021,1
ATHROMILE B A M K DAKHIL MADRASHA,117040,Madrasha,KHULNA,DUMURIA,BETAGRAM,89.39489,22.83775,6022,1
MAGURA GHONA DAKHIL MADRASHA,117037,Madrasha,KHULNA,DUMURIA,MAGURAGHONA (TULARAMPUR),89.3456,22.80318,6023,1
TIPNA  ANGARDOHA  DAKHIL  MADRASA,117031,Madrasha,KHULNA,DUMURIA,ANGARDAHA,89.29288,22.80726,6024,1
PANCHPOTA ISLAMIA DAKHIL MADRASAH,117046,Madrasha,KHULNA,DUMURIA,PANCHPOTA,89.27874,22.80252,6025,1
RANAI MOHILA DAKHIL MADRASHA,117038,Madrasha,KHULNA,DUMURIA,RANAI,89.27081,22.82172,6026,1
KHALSHI ALAUSSUNAN HOSAINI DAKHIL MADRASHA,117025,Madrasha,KHULNA,DUMURIA,KHALSI,89.37614,22.73265,6027,1
DUMURIA MOHILA DAKHIL MADRASAH,117021,Madrasha,KHULNA,DUMURIA,DUMURIA,89.35253,22.82231,6028,1
SENPARA BAHRUL ULUM DAKHIL MADRASHA,117039,Madrasha,KHULNA,DUMURIA,KALIKAPUR,89.41214,22.82422,6029,1
SHARAFPUR DAKHIL QURAN DAKHIL MADRASHA,117045,Madrasha,KHULNA,DUMURIA,SARAPPUR,89.41265,22.80947,6030,1
GONALI FATIMATUZZOHRA (R:) MOHILA DAKHIL MADRASAH,117020,Madrasha,KHULNA,DUMURIA,GONALI,89.44997,22.82695,6031,1
DAULATPUR ALIM MADRASHA,116949,Madrasha,KHULNA,DAULATPUR,MAHESHWAR PASHA,89.51333,22.88556,6032,1
JAYNAGOR DAKHIL MADRASAH,116921,Madrasha,KHULNA,DACOPE,SREENAGAR KALINAGAR,89.55731,22.40969,6033,1
CHALNA  BILLALIA ALIM MADRASA,116917,Madrasha,KHULNA,DACOPE,PANKHALI,89.52236,22.60317,6034,1
GUNAREE  DAKHIL MADRASA,116920,Madrasha,KHULNA,DACOPE,KALABAGI SUTARKHALI,89.51706,22.60575,6035,1
NALIAN ALIM MADRASAH,116918,Madrasha,KHULNA,DACOPE,NALIAN,89.48367,22.53319,6036,1
RANJITER HULA TARIKUSSUNNAT DAKHIL MADRASAH,116860,Madrasha,KHULNA,BATIAGHATA,RANJITER HULA,89.52574,22.7804,6037,1
FULBARI ALIM (SENIOR) MADRASAH,116858,Madrasha,KHULNA,BATIAGHATA,PHULBATI,89.51709,22.73456,6038,1
RAYPUR DAKHIL MADRASAH,116861,Madrasha,KHULNA,BATIAGHATA,ROYPUR,89.49555,22.67333,6039,1
JAMEA ISLAMIA ARABIA SUNDAR MOHAL DAKHIL MADRASAH,116859,Madrasha,KHULNA,BATIAGHATA,SUNDAR MAHAL,89.48088,22.68212,6040,1
KHARABAD MOHILA DAKHIL MADRASAH,116862,Madrasha,KHULNA,BATIAGHATA,KHANRABAD,89.50332,22.74917,6041,1
KUSHLA ADARSHA  HIGH SCHOOL,117449,School,KHULNA,TEROKHADA,KUSLA,88.95547,24.06411,16889,1
PANCHAPALLI ATIAR RAHMAN HIGH SCHOOL,117445,School,KHULNA,TEROKHADA,NEBUDIA,89.01353,24.03822,16890,1
ADARSH SHIKSHA NIKETAN,117440,School,KHULNA,TEROKHADA,KAMAROL,88.99856,24.08342,16891,1
SONAR TORY JUNIOR GIRLS SCHOOL,117450,School,KHULNA,TEROKHADA,CHAMTA,88.94583,24.08139,16892,1
CHAGLADAH UNION ADIL UDDIN SMARANIK SECONDARY SCHOOL,117442,School,KHULNA,TEROKHADA,KODLA,89.66669,22.90999,16893,1
UTTAR KHULNA S.M.A. MAJEED SMARAK HIGH SCHOOL,117436,School,KHULNA,TEROKHADA,BARASAT,89.66985,22.91783,16894,1
SHAHIDPUR KHAN A SABUR MADAYAMIK VIDYALAYA,117437,School,KHULNA,TEROKHADA,HARIKHALI,89.74336,22.96672,16895,1
SREE PUR MADHUSUDAN HIGH SCHOOL,117439,School,KHULNA,TEROKHADA,PURBO KOLA,89.72525,22.92384,16896,1
SHAHEED SMRITI SECONDARY GIRLS SCHOOL,117441,School,KHULNA,TEROKHADA,NIKHARI KATINGA,89.69752,22.89424,16897,1
IKHARI KATINGA FAZLUL HUQ PILOT HIGH SCHOOL,117434,School,KHULNA,TEROKHADA,NIKHARI KATINGA,89.62054,22.9556,16898,1
INDUHATI N.C.SEC.SCHOOL,117435,School,KHULNA,TEROKHADA,CHAMTA,89.63099,22.88629,16899,1
A F M ABDUL JALIL HIGH SCHOOL,117448,School,KHULNA,TEROKHADA,PANTITA,89.69851,22.88572,16900,1
B.R.B.AJAGARAH HIGH SCHOOL,117447,School,KHULNA,TEROKHADA,BIRI AJUGARA,89.69389,22.97802,16901,1
KOLA PATGATI HIGH SCHOOL,117438,School,KHULNA,TEROKHADA,UTTAR KOLA,89.65317,22.95007,16902,1
PANCHOPALLY ADORSHO HIGH SCHOOL,117433,School,KHULNA,TEROKHADA,DAKSHIN KOLA,89.67018,22.96277,16903,1
BAMANDANGA   HIGH  SCHOOL,117379,School,KHULNA,RUPSA,CHANDPUR,89.66389,22.92979,16904,1
GOARA HAFIZUR RAHMAN HIGH SCHOOl,117377,School,KHULNA,RUPSA,GOAR,89.64357,22.94285,16905,1
ZIA SECONDARY SCHOOL,117103,School,KHULNA,KHALISHPUR,PORT AREA,89.69261,22.88585,16906,1
KHULNA ISLAMIA COLLEGIATE SECONDARY SCHOOL,117411,School,KHULNA,SONADANGA,CHHOTA BOYRA MADHAYA,89.66233,22.85567,16907,1
KHULNA GOVT.GIRL'S HIGH SCHOOL,117408,School,KHULNA,SONADANGA,CHHOTA BOYRA (PART-1),89.67757,22.87976,16908,1
BOYRA DAK BIBHAGIA HIGH SCHOOL,117410,School,KHULNA,SONADANGA,CHHOTA BOYRA MADHAYA,89.66328,22.87533,16909,1
ROSEDEL INTERNATIONAL SCHOOL,131413,School,KHULNA,SONADANGA,SONADANGA,89.54956,22.82736,16910,1
BOYRA SECONDARY SCHOOL,117420,School,KHULNA,SONADANGA,CHHOTA BOYRA (PART-1),89.55231,22.81131,16911,1
SOUTH HERALD ENGLISH SCHOOL,131164,School,KHULNA,SONADANGA,SONADANGA,89.54211,22.82964,16912,1
NATIONAL GIRLS HiGH  SCHOOL,117416,School,KHULNA,SONADANGA,UTTAR GOBARCHAKA MAIN ROAD,89.54044,22.829,16913,1
BIDYUT UNNAYAN BOARD UCHCHA BIDYALAYA SCHOOL,117405,School,KHULNA,SONADANGA,MADHYA GOBARCHAKA,89.54697,22.81886,16914,1
PALLIMANGAL NIGHT HIGH SCHOOL,117417,School,KHULNA,SONADANGA,BANARGANTI,89.53931,22.82181,16915,1
NATIONAL SECONDARY SCHOOL,117413,School,KHULNA,SONADANGA,SABUJBAG(K.D.A R/A),89.54392,22.80178,16916,1
PALLIMANGAL HIGH SCHOOL,117400,School,KHULNA,SONADANGA,MADHYA GOBARCHAKA,89.54708,22.81681,16917,1
NAZRUL NAGAR GIRL'S HIGH SCHOOL,117406,School,KHULNA,SONADANGA,BANARGATI EXTENTION ROAD,89.55242,22.81114,16918,1
PALLIMONGAL GIRLS HIGH SCHOOL,117401,School,KHULNA,SONADANGA,PASCHIM B.K.ROY ROAD,89.55103,22.81511,16919,1
BANIA KHAMAR SECONDARY SCHOOL,117415,School,KHULNA,SONADANGA,PASCHIM BANIA KHAMAR,89.55636,22.8135,16920,1
KHULNA TEXTILE MILLS HIGH SCHOOL,117404,School,KHULNA,SONADANGA,KHULNA TEXTILE MILLS,89.54642,22.80694,16921,1
P.W.D  SECONDARY SCHOOL, KHULNA,117397,School,KHULNA,SONADANGA,CHORABATI,89.55031,22.81461,16922,1
ST. XAVIER'S HIGH SCHOOL          DOUBLE SHIFT,117403,School,KHULNA,SONADANGA,PASCHIM BANIA KHAMAR,89.54719,22.80844,16923,1
ABDUL LATIF MEMORIAL HIGH SCHOOL,117344,School,KHULNA,PHULTALA,DAMODAR,89.45985,22.9575,16925,1
GARAKHoLA HIGH SCHOOL,117339,School,KHULNA,PHULTALA,GARAKHOLA,89.44892,22.96569,16926,1
ALKA MILANI SECONDARY SCHOOL,117336,School,KHULNA,PHULTALA,DAMODAR,89.47266,22.97333,16928,1
RARIPARA SECONDARY SCHOOL,117345,School,KHULNA,PHULTALA,JOGINI PASHA,89.44021,22.9577,16929,1
B. P. G. D. UNION HIGH SCHOOL,117337,School,KHULNA,PHULTALA,GARAKHOLA,89.40106,22.93142,16930,1
DHOPAKHOLA HIGH SCHOOL,117346,School,KHULNA,PHULTALA,DHOPAKHOLA,89.47431,22.97908,16931,1
TOLNA J.P.D.S GIRLS secondary SCHOOL,117341,School,KHULNA,PHULTALA,JAMIRA,89.44533,22.98489,16932,1
DAMODAR M.M.HIGH SCHOOL,117334,School,KHULNA,PHULTALA,DAMODAR,89.44014,22.95772,16934,2
A G R M H HIGH SCHOOL,117274,School,KHULNA,PAIKGACHHA,GUACHHOBA,89.39975,22.92831,16935,1
CHANDKHALI BAHUMUKHI SECONDARY SCHOOL,117255,School,KHULNA,PAIKGACHHA,CHANDMUKHI,89.36208,22.64569,16938,1
DHAMRAIL HIGH SCHOOL,117275,School,KHULNA,PAIKGACHHA,DHAMRAIL,89.33544,22.56972,16939,1
K.D. SAHAPARA HIGH SCHOOL,117252,School,KHULNA,PAIKGACHHA,DEBDUAR,89.36458,22.58,16940,1
GAZALIA SECONDARY GIRLS SCHOOL,117248,School,KHULNA,PAIKGACHHA,GAJALIA,89.4095,22.53647,16941,1
KAPATAKSHI HIGH SCHOOL,117266,School,KHULNA,PAIKGACHHA,HASIMPUR,89.29156,22.53619,16942,1
K.G.H.F.MOWKHALI UNITED ACADEMY,117267,School,KHULNA,PAIKGACHHA,MAUKHALI,89.24942,22.53297,16943,1
KATA BUNIA JUNIOR SCHOOL,117292,School,KHULNA,PAIKGACHHA,KANTABUNIA,89.25581,22.50619,16944,1
HARIDSKATI BEGUM JALAL UDDIN  GIRLS HIGH SCHOOL,117261,School,KHULNA,PAIKGACHHA,HARIDASKATI,89.29147,22.53619,16945,1
HARIDHALI UNION GIRLS HIGH SCHOOL,117284,School,KHULNA,PAIKGACHHA,HARIDHALI,89.24036,22.54939,16946,1
U.R.S.H. HIGH SCHOOL,117257,School,KHULNA,PAIKGACHHA,ULUDANGA,89.29064,22.52536,16947,1
ADARSHA GIRLS HIGH SCHOOL,117278,School,KHULNA,PAIKGACHHA,DAKSHIN KANMUKHI,89.30564,22.654,16948,1
PAIKGACHA VILLAGE HIGH SCHOOL,117287,School,KHULNA,PAIKGACHHA,PAIKGACHHA,89.28761,22.68481,16949,1
S.M. A. MAZED GIRLS HIGH SCHOOL,117295,School,KHULNA,PAIKGACHHA,PARISAMARI,89.29981,22.67808,16950,1
SOLADANA HIGH  SCHOOL,117272,School,KHULNA,PAIKGACHHA,HARIKHALI,89.27756,22.67133,16951,1
AGARGHATA SECONDARY SCHOOL,117245,School,KHULNA,PAIKGACHHA,SILEMANPUR,89.29656,22.67128,16952,1
AMIRPUR JUNIOR GIRLS SCHOOL,117279,School,KHULNA,PAIKGACHHA,NURPUR AMIRPUR,89.33303,22.5775,16954,1
BAGULAR CHAK A.K.P.M.M HIGH SCHOOL,117259,School,KHULNA,PAIKGACHHA,NURPUR AMIRPUR,89.38069,22.58103,16955,1
KUMKHALI HIGH SCHOOL,117280,School,KHULNA,PAIKGACHHA,KUMKHALI,89.30283,22.64544,16956,1
K H B SECONDARY GIRLS SCHOOL,117286,School,KHULNA,PAIKGACHHA,KUMKHALI,89.314,22.70906,16957,1
SHIALLY SECONDARY SCHOOL,117373,School,KHULNA,RUPSA,SHIALI,89.34586,22.50186,16958,1
K.R.R SECONDARY SCHOOL,117291,School,KHULNA,PAIKGACHHA,KASHIMNAGAR,89.31367,22.62372,16959,1
GARAIKHALI ALAMSHAHI INSTITUTE,117254,School,KHULNA,PAIKGACHHA,GARUIKHALI,89.34378,22.51444,16960,1
B. K. A. S. M. INISTITUTION,117253,School,KHULNA,PAIKGACHHA,UTTAR BAINBARI,89.39344,22.49358,16961,1
KUMKHALI B B GIRLS HIGH SCHOOL,117273,School,KHULNA,PAIKGACHHA,KUMKHALI,89.38867,22.49728,16962,1
HARIDHALI UNION HIGH SCHOOL,117251,School,KHULNA,PAIKGACHHA,HARIDHALI,89.36278,22.49683,16963,1
A B D P LATA M M HIGH SCHOOL,117263,School,KHULNA,PAIKGACHHA,LATA PUTLAKHALI,89.38494,22.46564,16964,1
B G P SHAMUK POTA HIGH SCHOOL,117268,School,KHULNA,PAIKGACHHA,SAMUKPOTA,89.40697,22.50361,16965,1
ALOKEDWIP SECONDARY SCHOOL,117276,School,KHULNA,PAIKGACHHA,RADHANAGAR,89.39594,22.49586,16966,1
SAHEED KAMRUL MEMORIAL HIGH SCHOOL,117262,School,KHULNA,PAIKGACHHA,BHABANIPUR,89.33389,22.51319,16967,1
KATIPARA HIGH SCHOOL,117277,School,KHULNA,PAIKGACHHA,KATI PARA,89.29594,22.67292,16968,1
RARULI BHUBAN MOHINI GIRLS HIGH SCHOOL,117249,School,KHULNA,PAIKGACHHA,RARULI,89.36961,22.60964,16969,1
AMURKATA RANGDHANU HIGH SCHOOL,117264,School,KHULNA,PAIKGACHHA,AMURKATA,89.25908,22.60883,16970,1
CHARBANDHA HIGH SCHOOL,117256,School,KHULNA,PAIKGACHHA,CHAR BANDA,89.26417,22.62603,16971,1
SHAID ZIA GIRLS HIGH SCHOOL,117283,School,KHULNA,PAIKGACHHA,GOPALPUR,89.25331,22.63356,16972,1
BHOLANATH SUKHADA SUNDARI SECONDARY SCHOOL,117250,School,KHULNA,PAIKGACHHA,GOPALPUR,89.36739,22.55892,16973,1
PAIKGSCHA GOVT . GIRLS HIGH  SCHOOL,117244,School,KHULNA,PAIKGACHHA,BATIKHALI (PART),89.30492,22.61767,16974,1
PAIKGACHA GOVT.HIGH SCHOOL,117246,School,KHULNA,PAIKGACHHA,BATIKHALI (PART),89.30644,22.61846,16975,1
TOWN HIGH SCHOOL,117281,School,KHULNA,PAIKGACHHA,SARAL (PART),89.31833,22.59417,16976,1
THE RISING SUN JUNIOR HIGH SCHOOL,117243,School,KHULNA,PAIKGACHHA,SARAL (PART),89.32206,22.59083,16977,1
DARUN MALLIK D.H.K HIGH SCHOOL,117258,School,KHULNA,PAIKGACHHA,DARUN MALLIK,89.31394,22.59289,16978,1
DELUTY SECONDARY  SCHOOL,117296,School,KHULNA,PAIKGACHHA,MAGURA DELUTI,89.32094,22.59469,16979,1
SAMMILANI BIDYA NIKETAN,117271,School,KHULNA,PAIKGACHHA,JIRBUNIA,89.28942,22.53406,16980,1
HATBARI MILONI HIGH SCHOOL,117269,School,KHULNA,PAIKGACHHA,HATBARIA,89.25792,22.52903,16981,1
UDAYAN GIRLS HIGH SCHOOL,117282,School,KHULNA,PAIKGACHHA,KALINAGAR,89.2565,22.50928,16982,1
HADDA D.M. HIGH SCHOOL,117182,School,KHULNA,KOYRA,HADDA,89.43022,22.60717,16983,1
KUMKHALI ADARSHA JUNIOR SCHOOL,117293,School,KHULNA,PAIKGACHHA,KUMKHALI,89.39128,22.59947,16984,1
JAKARIA SHIKHA NEKETAN,117193,School,KHULNA,KOYRA,KALNA,89.39736,22.38353,16985,1
KHARIA NABaRUN  SECONDARY  SCHOOL,117288,School,KHULNA,PAIKGACHHA,CHAKCHANDMUKHI,89.29094,22.34425,16986,1
MATBARI SERAJIA MULT. HIGH SCHOOL,117175,School,KHULNA,KOYRA,KHARIA MATHBARI,89.2665,22.33661,16987,1
PROTAP SHAWRANE SECONDARY SCHOOL,117194,School,KHULNA,KOYRA,KHARIA MATHBARI,89.32492,22.33828,16988,1
GRADUATES HIGH SCHOOL,117186,School,KHULNA,KOYRA,KALNA,89.26325,22.37961,16989,1
BAMIA M M HIGH SCHOOL,117192,School,KHULNA,KOYRA,BAGALI,89.27753,22.37544,16990,1
BANSH KHALI HIGH SCHOOL,117178,School,KHULNA,KOYRA,BANSKHALI,89.30978,22.36833,16991,1
SUNDARBAN SECONDARY SCHOOL,117200,School,KHULNA,KOYRA,BHANDAR POLE,89.28003,22.40889,16992,1
SAPTOGRAM ADARSHO  HIGH SCHOOL,117205,School,KHULNA,KOYRA,BAGA,89.29078,22.38203,16993,1
SHORISHAMUT G.B. ADARSHO juNIOR GIRL'S SCHOOL,117202,School,KHULNA,KOYRA,SHARISHAMUTI,89.28517,22.46225,16994,1
KATNIA A.K. HIGH SCHOOL,117197,School,KHULNA,KOYRA,KATNI,89.27703,22.43203,16995,1
MALIKHALI B.B. ADARSHA JUNIOR GIRLS H/S,117206,School,KHULNA,KOYRA,MALIKHALI,89.31047,22.41917,16996,1
DAKSHIN BEDKASHI SECONDARY GIRLS' SCHOOL,117210,School,KHULNA,KOYRA,DAKSHIN BEDKASHI,89.31272,22.40136,16997,1
DAKSHIN BEDKASHI SECONDARY SCHOOL,117181,School,KHULNA,KOYRA,DAKSHIN BEDKASHI,89.32653,22.45597,16998,1
BAROBARI SECONDARY GIRLS SCHOOL,117207,School,KHULNA,KOYRA,UTTAR BEDKASHI,89.30053,22.45525,16999,1
KAPOTAKSHA HIGH SCHOOL,117204,School,KHULNA,KOYRA,UTTAR BEDKASHI,89.32625,22.26306,17000,1
BEDKASHI COLLEGIATE SCHOOL,117177,School,KHULNA,KOYRA,UTTAR BEDKASHI,89.31886,22.23697,17001,1
CHANDIPUR UNITED HIGH SCHOOL,117199,School,KHULNA,KOYRA,CHANDIPUR,89.32556,22.31978,17002,1
SUNDARBAN GIRLS HIGH SCHOOL,117176,School,KHULNA,KOYRA,KOYRA,89.30919,22.31189,17003,1
CHANNIR CHAK GIRL'S HIGH SCHOOL,117191,School,KHULNA,KOYRA,BHANDAR POLE,89.32019,22.26297,17004,1
HATIAR DANGA SECONDARY GIRLS SCHOOL,117196,School,KHULNA,KOYRA,HATIARDANGA,89.29706,22.30467,17005,1
AMADI JAIGIRMOHAL TOKIM UDDIN HIGH SCHOOL,117180,School,KHULNA,KOYRA,AMADI,89.30225,22.31197,17006,1
HATIAR DANGA PUBLIC JUNIOR SCHOOL,117208,School,KHULNA,KOYRA,KOYRA,89.29911,22.47697,17007,1
PATNI KHALI JUNIOR HIGH SCHOOL,117209,School,KHULNA,KOYRA,PATNIKHALI,89.29003,22.34744,17008,1
KALIKAPUR CHOWKUNI ml secondary SCHOOL,117183,School,KHULNA,KOYRA,CHAUKANNI,89.31372,22.47872,17009,1
HADDA JUNIOR GIRLS SCHOOL,117201,School,KHULNA,KOYRA,HADDA,89.26119,22.49481,17011,1
HADDA HIGH SCHOOL,117184,School,KHULNA,KOYRA,MAHARAJPUR,89.27375,22.39564,17012,1
MAHESWARIPUR HIGH SCHOOL,117179,School,KHULNA,KOYRA,MAHARAJPUR,89.32275,22.40861,17013,1
MAHESHWAR PASA SECONDARY SCHOOL,116941,School,KHULNA,DAULATPUR,KALIBARI BAZAR ROAD,89.35306,22.39789,17015,1
DEYANA HIGH SCHOOL,117118,School,KHULNA,DAULATPUR,DEANA (PART),89.32603,22.43333,17017,1
SHAIKH ABDUL WAHAB GIRLS HIGH SCHOOL,116948,School,KHULNA,DAULATPUR,DEANA (PART),89.43075,22.40756,17018,1
DAULATPUR GIRLS HIGH SCHOOL,116947,School,KHULNA,DAULATPUR,DAULATPUR ROAD,89.509,22.88424,17019,1
KHANABARI GIRLS HIGH SCHOOL,117070,School,KHULNA,KHAN JAHAN ALI,JUGIPOLE,89.51742,22.86073,17020,1
KHULNA ENGINEERING UNIVERSITI SCHOOL,117114,School,KHULNA,KHAN JAHAN ALI,JUGIPOLE,89.51715,22.86883,17021,1
ALIM ESTREN SECONDARY SCHOOL,117332,School,KHULNA,KHAN JAHAN ALI,ATRA,89.49969,22.8975,17023,1
FULBARI IDEAL SECONDARY SCHOOL,116945,School,KHULNA,KHAN JAHAN ALI,JUGIPOLE,89.50358,22.89714,17024,1
CANTONMENT PUBLIC SCHOOL,117333,School,KHULNA,PHULTALA,ATRA,89.50292,22.90292,17025,1
GOVT. LABROTORY HIGH SCHOOL,117115,School,KHULNA,KHAN JAHAN ALI,TELIGANTI,89.51861,22.91614,17026,1
TELEIGATI HIGH SCHOOL,117123,School,KHULNA,KHAN JAHAN ALI,TELIGANTI,89.50086,22.89744,17027,1
R.R.F SECONDARY SCHOOL,KHULNA,116935,School,KHULNA,KHAN JAHAN ALI,MIRERDANGA (PART),89.48633,22.93992,17028,1
ATRA GIRLS HIGH SCHOOL,117343,School,KHULNA,PHULTALA,ATRA,89.50975,22.89889,17029,1
GILATALA SECONDARY SCHOOL,117119,School,KHULNA,KHAN JAHAN ALI,GILATALA,89.50203,22.92092,17030,1
MOSHIALI SECONDARY SCHOOL,117342,School,KHULNA,PHULTALA,ATRA,89.49617,22.89942,17031,1
SHIROMONI SECONDARY SCHOOL,117116,School,KHULNA,PHULTALA,ATRA,89.49939,22.89739,17032,1
KHANDAKAR NASER UDDIN HIGH SCHOOl,117407,School,KHULNA,SONADANGA,CHHOTA BOYRA MADHAYA,89.48097,22.93753,17033,1
SATELITE TOWN HIGH SCHOOL,117096,School,KHULNA,KHALISHPUR,KHALISHPUR H.E.(OLD COLANY),89.50011,22.91219,17034,1
KHULNA NEWSPRINT MILLS SECONDARY SCHOOL,117086,School,KHULNA,KHALISHPUR,NEWSPRINT MILLS,89.50553,22.91442,17035,1
SER-E BANGAL SECONDARY GIRLS SCHOOL,116943,School,KHULNA,DAULATPUR,SK.AYUB ALI RD.(DAKSHIN PABLA,89.52792,22.83175,17036,1
AFIL UDDIN SECONDARY SCHOOL,116932,School,KHULNA,DAULATPUR,DAKSHIN PABLA,89.54546,22.85379,17037,1
BORDER GUARD public SCHOOL khulna,116934,School,KHULNA,DAULATPUR,DAKSHIN PABLA,89.55067,22.85146,17038,1
NAYABATI HAZI SHORIAT ULLAH BIDYAPITH,117093,School,KHULNA,KHALISHPUR,NAYABATI,89.52522,22.86615,17039,1
PORT  SECONDARY  SCHOOL,117097,School,KHULNA,KHALISHPUR,PORT AREA,89.52886,22.86829,17040,1
KHALISHPUR  SCONDARY  SCHOOL,117082,School,KHULNA,KHALISHPUR,CHARER HAT,89.52277,22.86445,17041,1
CRESCENT SECONDARY SCHOOL,117088,School,KHULNA,KHALISHPUR,GOAL PARA,89.52668,22.86444,17042,1
BANGABASI HIGH SCHOOL,117091,School,KHULNA,KHALISHPUR,KHALISHPUR H.E. EAST,89.52726,22.85899,17043,1
SHAHEED TITUMIR SECONDARY SCHOOL,117100,School,KHULNA,KHALISHPUR,GOALKHALI,89.55211,22.84803,17044,1
BASTUHARA SECONDARY SCHOOL,117102,School,KHULNA,KHALISHPUR,ROYER MAHAL (PART I & II),89.54925,22.86444,17045,1
ASMA SARWAR ISLAMIC HIGH SCHOOL,117081,School,KHULNA,KHALISHPUR,KHALISHPUR H.E. EAST,89.54644,22.86356,17046,1
GOALKHALI JUNIOR HIGH SCHOOL,117104,School,KHULNA,KHALISHPUR,DAKSHIN MUZGUNNI,89.54956,22.84542,17047,1
PEOPLES JUTE MILLS HIGH SCHOOL,117084,School,KHULNA,KHALISHPUR,GOAL PARA,89.53669,22.84958,17048,1
KHULNA BIDYUT KENDRA SECONDARY SCHOOL,117083,School,KHULNA,KHALISHPUR,GOAL PARA,89.53911,22.85636,17049,1
PLATINUM SECONDARY SCHOOL,117099,School,KHULNA,KHALISHPUR,PLATINUM JUBLEE LABOUR COLONY,89.54236,22.848,17050,1
HAZI FAYEZ UDDIN GIRLS HIGH SCHOOL,117409,School,KHULNA,SONADANGA,CHHOTA BOYRA UTTAR,89.53208,22.83933,17051,1
RAYERMAHAL SECONDARY SCHOOL,117092,School,KHULNA,KHALISHPUR,ROYER MAHAL (PART I & II),89.53303,22.83789,17052,1
ATLIA SECONDARY SCHOOL,116993,School,KHULNA,DUMURIA,ATLIA,89.46614,22.72819,17057,1
DIBYA PALLI  SECONDERY  SCHOOL,116971,School,KHULNA,DUMURIA,CHUKNAGAR,89.4685,22.72606,17058,1
CHAKUNDIA  HIGH SCHOOL,117012,School,KHULNA,DUMURIA,CHAKUNDIA,89.51469,22.82969,17059,1
KANTHAL TALA SECONDARY SCHOOL,116960,School,KHULNA,DUMURIA,KULBARIA BARATIA,89.3479,22.91666,17060,1
B K M S HIGH SCHOOL,131221,School,KHULNA,DUMURIA,KULBARIA BARATIA,89.29567,22.84408,17061,1
PALLI JAGARANI SECONDARY SCHOOL,117005,School,KHULNA,DUMURIA,JABRA,89.33467,22.78639,17062,1
KRISHNA NAGAR M B B S HIGH SCHOOL,116983,School,KHULNA,DUMURIA,KRISHNANAGAR,89.28742,22.84453,17063,1
K R A D GIRLS HIGH SCHOOL,116999,School,KHULNA,DUMURIA,DERULI,89.28558,22.84447,17064,1
RAGHUNATHPUR MULT. SECONDARY SCHOOL,116967,School,KHULNA,DUMURIA,RAGHUNATHPUR,89.29389,22.83811,17065,1
KACHARI BARI R R G T SECONDARY SCHOOL,116966,School,KHULNA,DUMURIA,THUKURA,89.42656,22.90817,17066,1
SHAHPUR  SECONDARY  SCHOOL,116969,School,KHULNA,DUMURIA,SAHAPUR,89.39603,22.88708,17067,1
MADHUGRAM SECONDARY SCHOOL,117009,School,KHULNA,DUMURIA,MADHUGRAM,89.42253,22.91114,17068,1
MIKSIMIL RUDAGHARA HIGH SCHOOL,116962,School,KHULNA,DUMURIA,MIKSIMIL,89.39242,22.90483,17069,1
MIKSHIMIL GIRL'S HIGH SCHOOL,116996,School,KHULNA,DUMURIA,MIKSIMIL,89.42781,22.85781,17070,1
RUDAGHARA HIGH SCHOOL,116990,School,KHULNA,DUMURIA,RUDAGHARA,89.40517,22.86719,17071,1
K.C.S SECONDARY SCHOOL,117010,School,KHULNA,DUMURIA,SAILKHATIA,89.40197,22.87811,17072,1
ULA MAIKHALI JR HIGH SCHOOL,117008,School,KHULNA,DUMURIA,ULA,89.36969,22.87625,17073,1
CHENCHURI K.B. HIGH SCHOOL,116978,School,KHULNA,DUMURIA,CHECHURI,89.35906,22.85364,17074,2
GUTUDIA A.C.G.B. HIGH SCHOOL,116961,School,KHULNA,DUMURIA,GUTUDIA,89.35906,22.85364,17075,2
KULATIA SECODARY SCHOOL,116976,School,KHULNA,DUMURIA,KULTIA,89.42058,22.75686,17076,1
LATA KHAMRA BATI HGIH SCHOOL,116982,School,KHULNA,DUMURIA,LATA PAHARPUR,89.44542,22.77169,17077,1
KULATI GIRLS  HIGH SCHOOL,116984,School,KHULNA,DUMURIA,KULTIA,89.42061,22.75442,17078,1
NABARUN HIGH SCHOOL,116986,School,KHULNA,DUMURIA,GUTUDIA,89.36303,22.91909,17079,1
SHIMA SMRITI BIDYAPITH,117018,School,KHULNA,DUMURIA,JILERDANGA,89.4675,22.80225,17080,1
G.K.S.K. IDEAL HIGH SCHOOL,117002,School,KHULNA,DUMURIA,GAJENDRAPUR,89.49775,22.86189,17081,1
K.K.K.B. HIGH SCHOOL,116977,School,KHULNA,DUMURIA,KHARSANDA,89.42347,22.80542,17082,1
ULKA GIRL'S HIGH SCHOOL,116992,School,KHULNA,DUMURIA,CHECHURI,89.48125,22.791,17083,1
KATENGA HIGH SCHOOL,117003,School,KHULNA,DUMURIA,KATENGA,89.41389,22.77836,17084,1
FARAH SECONdARY  SCHOOL,116995,School,KHULNA,DUMURIA,DHAMALIA,89.37181,22.86147,17085,1
R,R,G,G,T, MILONI GIRLS HIGH SCHOOL,116958,School,KHULNA,DUMURIA,RAMKRISHNAPUR,89.37117,22.89739,17086,1
RANGPUR MADHYA PARA secondary GIRL'S  SCHOOL,116975,School,KHULNA,DUMURIA,RANGPUR,89.36136,22.83697,17087,1
RANGPUR  KALI BATI  HIGH SCHOOL,116973,School,KHULNA,DUMURIA,RANGPUR,89.37189,22.89697,17088,1
RANGPUR KALITALA HIGH SCHOOL,116981,School,KHULNA,DUMURIA,RANGPUR,89.38217,22.89536,17089,1
SHALUA PURNA CHANDRA HIGH SCHOOL,116989,School,KHULNA,DUMURIA,BIL SOLUA,89.36186,22.90994,17090,1
H.M.P.K.K. HIGH SCHOOL,117006,School,KHULNA,DUMURIA,MIKSIMIL,89.45369,22.88647,17091,1
MAGURAGHONA UNION GIRL'S HIGH SCHOOL,116956,School,KHULNA,DUMURIA,AROSHNAGAR,89.35933,22.75531,17092,1
BADURIA SECONDARY SCHOOL,117007,School,KHULNA,DUMURIA,BADURI (RAGHUNATHPUR),89.30139,22.80991,17093,1
MAGURAGHONA UNION HIGH SCHOOL,116957,School,KHULNA,DUMURIA,MAGURAGHONA (TULARAMPUR),89.26568,22.82054,17094,1
TIPNA SK.AMJAD MEMORIAL HIGH SCHOOL,117001,School,KHULNA,DUMURIA,TIPNA,89.27183,22.8199,17095,1
PALLI SREE SECONDERY GIRL'S HIGH SCHOOL,117004,School,KHULNA,DUMURIA,MANDARTALA,89.28332,22.81237,17096,1
TAPOBAN SECONDARY SCHOOL,116991,School,KHULNA,DUMURIA,SHIBNAGAR,89.38744,22.81547,17097,1
KAIPUKURIA MAGURKHALI UNION HIGH SCHOOL,116968,School,KHULNA,DUMURIA,AHLADIPUR,89.37202,22.81983,17098,1
BIDYABITHI SECONDARY SCHOOL,117013,School,KHULNA,DUMURIA,CHANDIPUR,89.35257,22.75577,17099,1
AMUR BUNIA SECONDARY SCHOOL,117000,School,KHULNA,DUMURIA,MADARTALA,89.39875,22.71389,17100,1
POLLY MONGOL JUNIOR SCHOOL,117017,School,KHULNA,DUMURIA,KATALIA,89.36915,22.70229,17101,1
KHRNIA UNION SECONDARY SCHOOL,116979,School,KHULNA,DUMURIA,KHARNIA,89.38531,22.70099,17102,1
DUMURIA N G C AND N C K HIGH SCHOOL,116965,School,KHULNA,DUMURIA,DUMURIA,89.35333,22.82834,17103,1
HAZIDANGA KHALSHI SAJIARA A.K HIGH SCHOOL,116988,School,KHULNA,DUMURIA,HAJIDANGA,89.39323,22.68234,17104,1
DUMURIA GOVT. GIRLS HIGH SCHOOL,116963,School,KHULNA,DUMURIA,DUMURIA,89.36218,22.72314,17105,1
BANIAKHALI secondary SCHOOL,116980,School,KHULNA,DUMURIA,BRITTI BHULBARIA,89.41438,22.82106,17106,1
SHARAFPUR SHAHID ZIA JUIOUR SECONDARY SCHOO,117016,School,KHULNA,DUMURIA,SARAPPUR,89.41967,22.80698,17107,1
UDAYAN JR HIGH SCHOOL,117015,School,KHULNA,DUMURIA,PATIBUNIA,89.43593,22.70352,17108,1
PALLI SREE   HIGH SCHOOL,116959,School,KHULNA,DUMURIA,PARMANDARTALA,89.45697,22.71011,17109,1
SHoVaNA BIRAJMOYEE secondary SCHOOL,116972,School,KHULNA,DUMURIA,SOBHNA,89.41871,22.71102,17110,1
S M B AND C JUNIROR HIGH SCHOOL,117014,School,KHULNA,DUMURIA,SOBHNA,89.43922,22.70518,17111,1
ASMA SARWAR secondary  GIRLS SCHOOL,117077,School,KHULNA,DIGHALIA,SENHATI,89.37156,22.76482,17112,1
PATHER BAZAR SECONDARY SCHOOL,117072,School,KHULNA,DIGHALIA,SENHATI,89.34734,22.75613,17113,1
STAR JUTE MILLS HIGH SCHOOL,117069,School,KHULNA,DIGHALIA,CHANDANI MAHAL,89.36491,22.7964,17114,1
APEX GIRL'S HIGH SCHOOL,117071,School,KHULNA,DIGHALIA,DIGHALIA,89.39665,22.79642,17115,1
SENHATI secondary SCHOOL,117062,School,KHULNA,DIGHALIA,SENHATI,89.38389,22.80693,17116,1
HAJI SAYEM UDDIN HIGH SCHOOL,117074,School,KHULNA,DIGHALIA,KETLA,89.54659,22.87798,17117,1
LAKHOHATI SECONDARY SCHOOL,117067,School,KHULNA,DIGHALIA,LAKHAHATI,89.55662,22.86443,17118,1
BARAKPUR HIGH SCHOOL,117065,School,KHULNA,DIGHALIA,BARAKPUR,89.55572,22.86088,17119,1
NANDAN PROTAP HIGH SCHOOL,117075,School,KHULNA,DIGHALIA,NADAN PRATAP,89.57822,22.92525,17121,1
AYATUNNESA GIRLS HIGH SCHOOL,117073,School,KHULNA,DIGHALIA,DEBNAGAR,89.5791,22.9255,17122,1
DIGHALIA M.A. MAZID SECONDARY SCHOOL,117063,School,KHULNA,DIGHALIA,DIGHALIA,89.548,22.92478,17123,2
FATEMA MEMORIAL SECONDARY SCHOOL,117061,School,KHULNA,DIGHALIA,SENHATI (PART),89.52139,22.91614,17124,1
SUGANDHI SECONDARY SCHOOL,117076,School,KHULNA,DIGHALIA,DEBNAGAR,89.548,22.92478,17125,2
MAHESWAR PASHA GIRLS HIGH SCHOOL,116937,School,KHULNA,DAULATPUR,MAHESHWAR PASHA,89.523,22.89461,17126,1
DAULATPUR MUHSIN SECONDARY GIRLS SCHOOL,116938,School,KHULNA,DAULATPUR,BANANI PARA,89.54661,22.88792,17127,1
MAHESWAR PASHA K.M. HIGH SCHOOL,116940,School,KHULNA,DAULATPUR,NAGARGHAT ROAD,89.53939,22.877,17128,1
MODHYADANGA  ADARSHA  JUNIOR  HIGH SCHOOL,116946,School,KHULNA,DAULATPUR,DAKSHIN KEDARNATH ROAD,89.52283,22.89397,17129,1
SHOSHI BHUSHAN SECONDARY  SCHOOL,116944,School,KHULNA,DAULATPUR,MADHYA DANGA,89.52548,22.86992,17130,1
DAULATPUR MUHSIN SECONDARY SCHOOL,116933,School,KHULNA,DAULATPUR,ANJUMAN ROAD,89.51463,22.87794,17131,1
GHONA RAM KRISHNA PUR HIGH SCHOOL,117011,School,KHULNA,DUMURIA,GHONA MADARDANGA,89.52011,22.87824,17132,1
DACOPE GIRL'S HIGH SCHOOL,116902,School,KHULNA,DACOPE,DACOPE,89.51033,22.88441,17133,1
BANGABANDHU HIGH SCHOOL,116905,School,KHULNA,DACOPE,KAILASHGANJ-2,89.51047,22.89033,17134,1
TRIMOHANI SECONDARY SCHOOL,116879,School,KHULNA,DACOPE,DHOPADIHI,89.51795,22.87293,17135,1
KAILASHGONJ HIGH SCHOOL,116887,School,KHULNA,DACOPE,KAILASHGANJ-2,89.52338,22.8732,17136,1
RAMNAGAR BINAPANI HIGH SCHOOL,116888,School,KHULNA,DACOPE,DHOPADIHI,89.45417,22.5965,17137,1
R.D.D.JUNIOR HIGH SCHOOL,131274,School,KHULNA,DACOPE,DHOPADIHI,89.49106,22.53347,17138,1
J P HIGH SCHOOL,116910,School,KHULNA,DACOPE,SREENAGAR KALINAGAR,89.50006,22.5015,17139,1
PoSCHIM KAMINIBASIA RASHKHOLA HIGH SCHOOL,116914,School,KHULNA,DACOPE,CHAK KAMINIBASI,89.53122,22.53411,17140,1
BAJUA  SECONDARY  GIRLS SCHOOL,116884,School,KHULNA,DACOPE,BAJUA,89.52342,22.50622,17141,1
BAJUA UNION HIGH SCHOOL,116875,School,KHULNA,DACOPE,BAJUA,89.49608,22.51733,17142,1
SHAHID SMRITI  SECONDARY GIRLS SCHOOL,116911,School,KHULNA,DACOPE,CHUNKURI-2,89.508,22.52467,17143,1
CHUNKURI HIGH SCHOOL,116876,School,KHULNA,DACOPE,CHUNKURI-2,89.53372,22.53372,17144,1
SONAR BANGLA  HIGH SCHOOL,116907,School,KHULNA,DACOPE,BAJUA,89.4215,22.52781,17145,1
PASCHIM BAJUA HIGH SCHOOL,116899,School,KHULNA,DACOPE,BAJUA,89.56606,22.52772,17146,1
AMTALA BANISANTA   HIGH SCHOOL,116908,School,KHULNA,DACOPE,BANISHANTA,89.52197,22.57878,17147,1
TALUKDAR AKHTER FARUQUE SECONDARY  SCHOOL,116912,School,KHULNA,DACOPE,BANISHANTA,89.52972,22.56742,17148,1
BANISHANTA PINAK PANI SECONDARY SCHOOL,116881,School,KHULNA,DACOPE,BANISHANTA,89.54631,22.54964,17149,1
LAUDOVE BANISANTA HIGH SCHOOL,116877,School,KHULNA,DACOPE,BANISHANTA,89.52256,22.54211,17150,1
LAUDOBE BADAMTALA HIGH SCHOOL,116898,School,KHULNA,DACOPE,LAUDUBI,89.58211,22.46761,17151,1
DACOPE SHAHEBERABAD SECONDARY SCHOOL,116878,School,KHULNA,DACOPE,DACOPE,89.55419,22.4565,17152,1
CHALNA K C PILOT HIGH SCHOOL,116892,School,KHULNA,DACOPE,CHHOTA CHALNA,89.56422,22.49158,17153,1
MOHAMMAD ALI HIGH SCHOOL,116901,School,KHULNA,DACOPE,GOURKATI,89.56664,22.52264,17154,1
ABUL HOSSAIN GIRLS HIGH SCHOOL,116909,School,KHULNA,DACOPE,CHALNA PURBA PARA,89.57375,22.517,17155,1
CHALNA BAZAR GOVT. GIRLS HIGH SCHOOL,116874,School,KHULNA,DACOPE,CHALNA BAZAR (MAIDHYA),89.49853,22.55853,17156,1
YASIN HIGH SCHOOL,116890,School,KHULNA,DACOPE,PANKHALI,89.45553,22.53353,17157,1
LAKSMIKHOLA G.T. PALLIMONGAL HIGH SCHOOL,116891,School,KHULNA,DACOPE,LAKSHMIKHOLA,89.51394,22.60675,17158,1
PANKHALI MOMOTAJBEGUM SECONDARY SCHOOL,116904,School,KHULNA,DACOPE,PANKHALI,89.51133,22.51181,17159,1
MOZAM NAGAR SECONDARY SCHOOL,116893,School,KHULNA,DACOPE,TILDANGA,89.44922,22.60206,17160,1
TILDANGA UNION GIRL'S HIGH SCHOOL,131313,School,KHULNA,DACOPE,CHAK BATBUNIA,89.50453,22.63308,17161,1
K .G. V. J. SAMMILANI GIRLS HIGH SCHOOL,116894,School,KHULNA,DACOPE,CHAK KAMINIBASI,89.51525,22.59794,17162,1
TILDANGA JUNIOR HIGH SCHOOL,116916,School,KHULNA,DACOPE,TILDANGA,89.51394,22.59458,17163,1
GUNARI ShITAL CHANDRA  SECONDARY SCHOOL,116883,School,KHULNA,DACOPE,GUNARI,89.42292,22.56178,17164,1
DAKKIN GUNARI SECONDSRY SCHOOL,116873,School,KHULNA,DACOPE,GUNARI,89.46744,22.57408,17165,1
KALABAGI SUNDARBAN HIGH SCHOOL,116900,School,KHULNA,DACOPE,KALABAGI SUTARKHALI,89.43572,22.51944,17166,1
NALIAN HIGH SCHOOL,116886,School,KHULNA,DACOPE,NALIAN,89.46847,22.59381,17167,1
SUTERKHALI HIGH SCHOOL,116880,School,KHULNA,DACOPE,SUTARKHALI,89.45892,22.50467,17168,1
KAMINI BASIA G.L. HIGH SCHOOL,116885,School,KHULNA,DACOPE,CHAK KAMINIBASI,89.44892,22.48378,17169,1
KALINAGAR G C MEMORIAL HIGH SCHOOL,116889,School,KHULNA,DACOPE,SREENAGAR KALINAGAR,89.44689,22.43642,17170,1
SUNDARBAN ADARSHA HIGH SCHOOL,116897,School,KHULNA,DACOPE,SREENAGAR KALINAGAR,89.43833,22.46289,17171,1
KAMAR KHOLA UNION JUNIOR HIGH SCHOOL,116913,School,KHULNA,DACOPE,KAMARKHOLA,89.46017,22.46619,17172,1
SREE NAGAR HIGH SCHOOL,116882,School,KHULNA,DACOPE,SREENAGAR KALINAGAR,89.47042,22.48875,17173,1
PROGATIMADHYAMICK BIDYAPITH RAJBANDH,116851,School,KHULNA,BATIAGHATA,RAJBANDH,89.49136,22.50914,17175,1
SARAWATI HIGH SCHOOL,116853,School,KHULNA,BATIAGHATA,SANCHIBUNIA,89.46325,22.57056,17176,1
JALMA CHAKRAKHALI SECONDARY SCHOOL,116838,School,KHULNA,BATIAGHATA,CHHAYGHARIA,89.44533,22.44619,17177,1
BATIAGHATA THANA H. Q. PILOT HIGH SCHOOL,116833,School,KHULNA,BATIAGHATA,HETALBUNIA,89.49113,22.803,17178,1
BATIAGHATA THANA H. Q. GIRLD HIGH SCHOOL,116834,School,KHULNA,BATIAGHATA,HETALBUNIA,89.50353,22.79328,17179,1
BIRAT SECONDARY SCHOOL,116857,School,KHULNA,BATIAGHATA,BIRAT,89.52515,22.76336,17180,1
PHULBARI HIGH  SCHOOL,116846,School,KHULNA,BATIAGHATA,BALIADANGA,89.51807,22.73106,17181,1
PROGATI SECONDARY SCHOOL,116849,School,KHULNA,BATIAGHATA,BALIADANGA,89.51427,22.73395,17182,1
J. K. A. G. SECONDRY SCHOOL,116848,School,KHULNA,BATIAGHATA,KISMAT JHINAIKHALI,89.55209,22.73564,17183,1
B L J SECONDARY SCHOOL,116839,School,KHULNA,BATIAGHATA,BHANDARKOTE,89.54385,22.72614,17184,1
BAYARBHANGA BISWANBHARA HIGH SCHOOL,116836,School,KHULNA,BATIAGHATA,BOYARBHANGA,89.56286,22.71844,17185,1
SHIALI DANGA MULTI SECONDARY SCHOOL,116842,School,KHULNA,BATIAGHATA,SIALIDANGA,89.52565,22.71422,17186,1
RASHOHAN GIRL'S HIGH SCHOOL,116840,School,KHULNA,BATIAGHATA,BOYARBHANGA,89.56035,22.70268,17187,1
HALIA BENODE BEHARI HIGH SCHOOL,116852,School,KHULNA,BATIAGHATA,HALIA,89.57966,22.69975,17188,1
DEUATALA SECONDARY SCHOOL,116841,School,KHULNA,BATIAGHATA,KATAMARI,89.56991,22.68673,17189,1
SUKDARA HIGH SCHOOL,116856,School,KHULNA,BATIAGHATA,SUKHDARA,89.51368,22.69545,17190,1
KHALSHI BUNIA G.P.B HIGH SCHOOL,116845,School,KHULNA,BATIAGHATA,BRITTI KHALSEBUNIA,89.50667,22.70215,17191,1
B.H.M.H. HIGH SCHOOL,116855,School,KHULNA,BATIAGHATA,HETALBUNIA,89.54355,22.64899,17192,1
GAOGHARA ML. HIGH SCHOOL,116844,School,KHULNA,BATIAGHATA,GAONGHARA,89.51674,22.6618,17193,1
BAROARIA SECONDARY SCHOOL,116854,School,KHULNA,BATIAGHATA,BARA ARIA,89.49753,22.70689,17194,1
SURKHALI SECONDARY SCHOOL,116843,School,KHULNA,BATIAGHATA,KATAKHALI,89.50063,22.72939,17195,1
BATIAGHATA  SECONDARY  SCHOOL,116837,School,KHULNA,BATIAGHATA,BATIAGHATA,89.45832,22.69556,17196,1
PARBATIAGHATA GIRLS SECONDARY SCHOOL,116850,School,KHULNA,BATIAGHATA,PAR BATIAGHATA,89.44453,22.64598,17197,1
HOGOL BUNIA HATBATI HIGH SCHOOL,116835,School,KHULNA,BATIAGHATA,HOGOLBUNIA,89.4262,22.64823,17198,1
LIONS SCHOOL AND COLLEGE KHULNA,117398,School and College,KHULNA,SONADANGA,PURATAN GALLAMARI ROAD,89.53894,22.82422,26051,1
ISLAMBAD COOGEIATE SCHOOL,117412,School and College,KHULNA,SONADANGA,PASCHIM B.K.ROY ROAD,89.54792,22.81983,26052,1
JAMIRA BAZAR ASMOTIA SCHOOL AND SCHOOL,117357,School and College,KHULNA,PHULTALA,JAMIRA,89.46193,22.95485,26054,1
PHULTALA RE-UNION  SCHOOL AND COLLEGE,117330,School and College,KHULNA,PHULTALA,PAYGRAM,89.45395,22.9664,26055,1
MILITARY COLLEGIATE SCHOOL KHULNA (MCSK),133213,School and College,KHULNA,PHULTALA,ALKA,89.43144,22.95885,26056,2
LAKSHIMIKHOLA HIGHER SECONDARY SCHOOL,117328,School and College,KHULNA,PAIKGACHHA,LAKSHMIKHOLA,89.40253,22.93136,26057,2
R.K.B.K HARISH CHANDRA COLLEGEATE SCHOOL,117327,School and College,KHULNA,PAIKGACHHA,RARULI,89.25642,22.64353,26058,1
KOYRA MADINABAD SECONDARY SCHOOL AND TECHNICAL COLLEGE,117242,School and College,KHULNA,KOYRA,MADINABAD,89.28467,22.39189,26059,1
MAULANA BHASHANI BIDYAPITH GIRLS SCHOOL AND COLLEGE,117113,School and College,KHULNA,KHALISHPUR,NAYABATI,89.53872,22.83706,26060,1
BANGLADESH  NAUBAHINI SCHOOL AND COLLEGE  KHULNA,117112,School and College,KHULNA,KHALISHPUR,GOALKHALI,89.54319,22.84517,26061,1
KHULNA PUBLIC COLLEGE,117111,School and College,KHULNA,KHALISHPUR,BARA BOYRA (PART 1-3),89.53892,22.86286,26062,1
BANDA HIGHER SECONDARY SCHOOL,117060,School and College,KHULNA,DUMURIA,BANDA,89.3635,22.85594,26063,1
BARUNA BAZAR P.D.C.COLLEGIATE SCHOOL,116970,School and College,KHULNA,DUMURIA,BARUNA,89.35889,22.91533,26064,1
BATBUNIA COLLEGIATE SCHOOL,116931,School and College,KHULNA,DACOPE,CHAK BATBUNIA,89.43911,22.52513,26065,1
KHARABAD BAINTALA SCHOOL  AND COLLEGE,116872,School and College,KHULNA,BATIAGHATA,TALA PARA,89.41615,22.66967,26066,1
