inst name, eiin, inst_type, district, thana, mauza, long, lat, serial,isUnique
SHAH SULTAN (R) DEGREE COLLEGE,113196,College,NETRAKONA,NETROKONA SADAR,MADANPUR,90.731125,24.87792,1525,1
PURBADHALA DEGREE COLLEGE,113250,College,NETRAKONA,PURBADHALA,PURBADHALA,90.603,24.93867,1526,2
RABEYA ALI MOHILA DEGREE COLLEGE,113249,College,NETRAKONA,PURBADHALA,PURBADHALA,90.594,24.94708,1527,1
JOTIABOR COLEGE,113248,College,NETRAKONA,PURBADHALA,JATIABAR,90.60044,24.95256,1528,1
HAFEZ ZIAUR RAHMAN DEGREE COLLEGE,113251,College,NETRAKONA,PURBADHALA,GOHALAKANDA,90.57483,24.84481,1529,2
CHANDRANATH COLLEGE,113193,College,NETRAKONA,NETROKONA SADAR,KAZI ROAD,90.71144,24.89111,1530,1
GOVT NETROKONA MOHILA COLLEGE,113192,College,NETRAKONA,NETROKONA SADAR,MUKTER PARA,90.72892,24.88614,1531,1
NETRAKONA GOVT COLLEGE,113194,College,NETRAKONA,NETROKONA SADAR,GRAM SATPAI_(1),90.73164,24.87792,1532,1
ABU ABBAS DEGREE COLLEGE,113195,College,NETRAKONA,NETROKONA SADAR,BILL GOJABOGI(PARA),90.75053,24.80453,1534,1
MOHANGANJ  DEGREE  COLLEGE,113129,College,NETRAKONA,MOHANGANJ,TANGAPARA (PART),90.97328,24.87225,1535,1
MOHANGONJ MOHILA COLLEGE,113130,College,NETRAKONA,MOHANGANJ,DAULATPUR (PART),90.98128,24.86444,1536,1
JOBAIDA RAHMAN MOHILA COLLEGE,113105,College,NETRAKONA,MADAN,BARI BHADERA (PURBA),90.96258,24.79994,1537,1
GOVT. HAZI ABDUL AZIZ KHAN DEGREE COLLEGE,113104,College,NETRAKONA,MADAN,IMDADPUR,90.95183,24.71525,1538,1
BALALI BAGHMARA SHAJAHAN COLLEGE,113106,College,NETRAKONA,MADAN,BALALI,90.95414,24.68061,1539,1
KHALIAJURI COLLEGE,112990,College,NETRAKONA,KHALIAJURI,KHALIAJURI,91.09914,24.77089,1540,1
KRISHNAPUR   HAZI  ALI AKBAR  PUBLIC  DEGREE COLLEGE,112989,College,NETRAKONA,KHALIAJURI,KRISHNAPUR,91.13753,24.68753,1541,1
KENDUA  DEGREE  COLLEGE,113076,College,NETRAKONA,KENDUA,BADE ATHABARI,90.72369,24.71931,1542,1
PERVIN SIRAZ MOHILA COLLEGE,113079,College,NETRAKONA,KENDUA,CHANDAGATI,90.84719,24.65153,1543,1
JANATA ADARSHA MOHABIDYALAY,113078,College,NETRAKONA,KENDUA,CHAND PARA,90.84114,24.66353,1544,1
GOPALPUR MODEL COLLEGE,113075,College,NETRAKONA,KENDUA,RAJIBPUR,90.78703,24.72825,1545,1
GONDA COLLEGE,113077,College,NETRAKONA,KENDUA,GANDA,90.74119,24.71469,1546,1
KALMA KANDA DEGREE COLLEGE,113025,College,NETRAKONA,KALMAKANDA,CHANDPUR,90.96047,25.10061,1547,1
SUSANG COLLEGE,112975,College,NETRAKONA,DURGAPUR,SADHUPARA,90.72308,25.14644,1548,1
DURGAOUR MOHALA COLLEGE,112974,College,NETRAKONA,DURGAPUR,SADHUPARA,90.68192,25.12322,1549,1
BARHATTA COLLEGE,112938,College,NETRAKONA,BARHATTA,ISPINJARPUR,90.885,24.89786,1550,1
FAQuIR ASHRAF COLLEGE,131946,College,NETRAKONA,BARHATTA,CHALLISH KAHANIA,90.83469,24.95497,1551,1
ATPARA COLLEGE,112912,College,NETRAKONA,ATPARA,MOBARAKPUR,90.86217,24.80894,1552,1
TELIGATI DEGREE CILLAGE,112911,College,NETRAKONA,ATPARA,TELIGANTI,90.88397,24.84769,1553,1
BAGRA   FAZIL   DEGREE   MADRASHA,113183,Madrasha,NETRAKONA,NETROKONA SADAR,CHALLISHA,89.64561,23.25358,7726,1
PODUR KHANDA DHAKIL MADRASAH,113242,Madrasha,NETRAKONA,PURBADHALA,BERAIL,90.59303,24.94808,7729,1
DHAKIN KAZLA ALHAZ MOULANA ABDUL WAHED KHAN DHAKIL MADRASAH,113246,Madrasha,NETRAKONA,PURBADHALA,DAKSHIN KAJLAPOTA,90.53969,24.95544,7730,1
MATHANG   ISLAMIA   ALIM   MADRASHA,113240,Madrasha,NETRAKONA,PURBADHALA,MATHANG,90.64414,24.79914,7731,1
MOHIMA RAHMANIA GULAM MOSTAFA DHAKIL MADRASAH,113241,Madrasha,NETRAKONA,PURBADHALA,MAHIMA,90.61097,24.83436,7732,1
HIRANNO POTTY FAZIL MADRASAH,113238,Madrasha,NETRAKONA,PURBADHALA,HIRAN PATTI,90.56656,25.01178,7733,1
KAPASIA DAKHIL MADRASHA,113236,Madrasha,NETRAKONA,PURBADHALA,KAPASHIA,90.55322,25.03803,7734,1
ALIPUR ALIM MADRASAH,113239,Madrasha,NETRAKONA,PURBADHALA,ALIPUR,90.57483,24.84481,7737,2
KUMUDGONJ AMINA MEMPRIAL GIRLS DAKHIL MADRASHA,113247,Madrasha,NETRAKONA,PURBADHALA,JALSUKA,90.60492,24.99967,7738,1
NARANDIA DAKHIL MADRASAH,113235,Madrasha,NETRAKONA,PURBADHALA,KHAGURIA,90.56989,25.02431,7739,1
TALIMAT-E-ISLAMIA DAKHIL MADRASHA,113243,Madrasha,NETRAKONA,PURBADHALA,SALDIGHA ROYNAGAR,90.584,25.02753,7740,1
SIDDIQUIA DAKHIL MADRASHA,113244,Madrasha,NETRAKONA,PURBADHALA,KALIHAR,90.57928,24.84464,7741,1
BARHA JASMOTIA DAKHIL MADRASHA,113237,Madrasha,NETRAKONA,PURBADHALA,DEOTOKAN,90.53114,24.98606,7742,1
DHARA DAKHIL MADRASHA,113234,Madrasha,NETRAKONA,PURBADHALA,DHARA,90.62794,24.90131,7743,1
TATULIA AL HELAL DAKHIL MADRASHA,113060,Madrasha,NETRAKONA,KENDUA,GOBINDAPUR,90.61597,24.86192,7744,1
LATIFA ABBAS MOHILA ALIM MADRASHA,113180,Madrasha,NETRAKONA,NETROKONA SADAR,BARHATTA ROAD PASHIM,90.73769,24.88206,7745,1
N.   AKAND   KAMIL  MADRASHA,113181,Madrasha,NETRAKONA,NETROKONA SADAR,SATPAI TOWN,90.73194,24.8805,7746,1
SHIBPROSADPUR DAKHIL MADRASHA,113185,Madrasha,NETRAKONA,NETROKONA SADAR,BISHWANATHPUR,90.73611,24.87011,7747,1
DUGIA ABBASIA EMDADUL Ulum FAZIL (DEGREE)MADRASHA,113177,Madrasha,NETRAKONA,NETROKONA SADAR,SWALPA DUGIA,90.73297,24.87153,7748,1
BALI MOHISHATI DAKHIL MADRASHA,113188,Madrasha,NETRAKONA,NETROKONA SADAR,DAKSHIN BISHIURA,90.67419,24.83544,7749,1
KANDI   M .U  ALIM   MADRASHA,113178,Madrasha,NETRAKONA,NETROKONA SADAR,ANANTAPUR,90.71183,24.81678,7750,1
MOUJEBALI SHOHIDIA ALIM MADRASHA,113190,Madrasha,NETRAKONA,NETROKONA SADAR,ANANTAPUR,90.69847,24.81403,7751,1
PATLi MOHIUL  ULUM  DAKHIL MADRASHA,113189,Madrasha,NETRAKONA,NETROKONA SADAR,PATALI,90.71772,24.83081,7752,1
LAKSHMIGANJ HANNANIA DAKHIL MADRASHA,113179,Madrasha,NETRAKONA,NETROKONA SADAR,LAKSHMIGANJ,90.73172,24.86114,7753,1
MADANPUR SHAH SULTAN ALIM MADRASHA,113187,Madrasha,NETRAKONA,NETROKONA SADAR,MADANPUR,90.7405,24.76889,7754,1
PASCHIM MEDNI DAKHIL MADRASHA,113191,Madrasha,NETRAKONA,NETROKONA SADAR,MEDNI,90.75156,24.80508,7755,1
GORDI ISLAMIA DAKHIL MADRASHA,113182,Madrasha,NETRAKONA,NETROKONA SADAR,GARDI,90.77392,24.79792,7756,1
NURPUR  BOALI  DAKHIL MADRASHA,112988,Madrasha,NETRAKONA,KHALIAJURI,NURPUR BOALI,90.70261,24.91481,7757,1
MOHANGANJ DAKHIL MADRASHA,113128,Madrasha,NETRAKONA,MOHANGANJ,DEOTHAN,91.0445,24.85306,7758,1
MAGHAN DAKHIL MADRASAH,113126,Madrasha,NETRAKONA,MOHANGANJ,MAGHAN,90.94939,24.86619,7759,1
JAYPUR JAMILA TUL ULUM DAKHIL MADRASHA,113127,Madrasha,NETRAKONA,MOHANGANJ,NIHARA JOYPUR,91.09339,24.82903,7760,1
JAHANGIRPUR ISLAMIA ALIM MADRASAH,113101,Madrasha,NETRAKONA,MADAN,DAKSHIN JAHANGIRPUR,90.94633,24.78439,7761,1
GOBINDASREE DARUL LILUM DAKIHIL MADRASAH,113099,Madrasha,NETRAKONA,MADAN,GOBINDASREE,90.94739,24.72336,7762,1
KADAM SREE DAKHIL MADRASAH,113097,Madrasha,NETRAKONA,MADAN,PADAMSREE,90.94689,24.71364,7763,1
HASAN ALI DAKHIL MADRASHA,113103,Madrasha,NETRAKONA,MADAN,CHANDGAON,90.95144,24.62442,7764,1
ALHAJ MOZAFFAR AHMED ALIM MADRASAH,113100,Madrasha,NETRAKONA,MADAN,IMDADPUR,90.94372,24.71697,7765,1
NOAGAON DAKHIL MADRASAH,113098,Madrasha,NETRAKONA,MADAN,RAJ DEOTALA,90.96058,24.71619,7766,1
BALALI BAGHMARA KHANDAKAR ABDUR RAZZAK DAKHIL MADRASHA,113102,Madrasha,NETRAKONA,MADAN,BALALI,90.92075,24.64878,7767,1
BASTA ISLIMIA DAKHIL MADRASHA,113096,Madrasha,NETRAKONA,MADAN,BASTA,90.92153,24.64836,7768,1
PANCHHAT DKAHIL MADRASAH,110341,Madrasha,NETRAKONA,KHALIAJURI,PANCHHAT,90.97058,24.64475,7769,1
KRISHNAPUR DARUL ULUM ISLAMIA ALIM MADRASHA,112987,Madrasha,NETRAKONA,KHALIAJURI,KRISHNAPUR,91.14122,24.6915,7770,1
KENDUA ASRAFIA HOSSAINIA DAKHIL MADRASHA,113068,Madrasha,NETRAKONA,KENDUA,KENDUA BAZAR,90.83633,24.65756,7771,1
SHIBPUR BAWSHARI DAKHIL MADRASHA,113073,Madrasha,NETRAKONA,KENDUA,SHIBPUR,90.76303,24.74217,7772,1
ALHAZ ATIQUE AMBIA DAKHIL MADRASHA,113074,Madrasha,NETRAKONA,KENDUA,BATTA,90.82136,24.75158,7773,1
RAJGHAT D U ALIM MADRASAH,113064,Madrasha,NETRAKONA,KENDUA,RAMJIBANPUR,90.87842,24.65528,7774,1
BHARA PARA FAZIL MADRASAH,113059,Madrasha,NETRAKONA,KENDUA,BHARA,90.74356,24.74081,7775,1
WAi HAFIZIA DHAKIL MADRASHA,113072,Madrasha,NETRAKONA,KENDUA,WAI,90.72731,24.75508,7776,1
GONDA ISLAMIA  FAZIL MADRASHA,113061,Madrasha,NETRAKONA,KENDUA,GANDA,90.71233,24.70283,7777,1
MONKANDa M. U. ALIM MADRASAh,113062,Madrasha,NETRAKONA,KENDUA,PAHARPUR,90.76453,24.69317,7778,1
DIGHLI MACHIALI DAKHIL MADRASHA,113065,Madrasha,NETRAKONA,KENDUA,MACHIALI DIGAR,90.71067,24.67642,7779,1
RAIPUR PIZAHATI DAKHIL MADRASHA,113063,Madrasha,NETRAKONA,KENDUA,ROYPUR,90.70911,24.67633,7780,1
GOGDA MUZAFARPUR DAKHIL MADRASHA,113071,Madrasha,NETRAKONA,KENDUA,MUZAFFARPUR,90.79753,24.67014,7781,1
KOWRAT DAKHIL ADRASHA,113067,Madrasha,NETRAKONA,KENDUA,NAOPARA,90.811,24.65522,7782,1
DULLY BAIRATI E U DAKHIL MADRASHA,113069,Madrasha,NETRAKONA,KENDUA,BAIRAIT,90.89833,24.60186,7783,1
KAILATI FATEPUR DAKHIL MADRASHA,113070,Madrasha,NETRAKONA,KENDUA,KAILATI RAMCHANDRAPUR,90.87931,24.60806,7784,1
ROYALBARI FAZIL MADRASA,113058,Madrasha,NETRAKONA,KENDUA,ROAILBARI,90.83053,24.69625,7785,1
RANGSATI  DAKHIL  MADRASah,113017,Madrasha,NETRAKONA,KALMAKANDA,RANGCHHATI,90.76786,24.63683,7786,1
HILFUL FUZUL DAKDIL MADRASHA,113024,Madrasha,NETRAKONA,KALMAKANDA,SELER KAKURIA,90.90297,25.01242,7787,1
KALMAKANDA AL JAMIATUL ISLAMIA ALIM MADRASAH,113021,Madrasha,NETRAKONA,KALMAKANDA,CHANDPUR,90.76692,25.01406,7788,2
BISHNAPUR MOHshiNIA DAKHIL MADRASAH,113018,Madrasha,NETRAKONA,KALMAKANDA,LAKSHMIPUR,90.88489,25.08189,7789,1
GOBINDAPUR MOHAMMADIA DAKHIL MADRASHA,113019,Madrasha,NETRAKONA,KALMAKANDA,HAT GOBINDAPUR,90.89397,25.08361,7790,1
ANANDAPUR ALIM MADRASHA,113015,Madrasha,NETRAKONA,KALMAKANDA,ANANDAPUR,90.77611,25.06006,7791,1
FAKIR CHANDUAIL MOhammadia.DARUSSUNNAH DAKHIL MADRASaH,113023,Madrasha,NETRAKONA,KALMAKANDA,FAKIR CHANDUAIL,90.79878,25.13478,7792,1
SHIBNAGAR KANDAPARA DAKHIL MARASAH,113014,Madrasha,NETRAKONA,KALMAKANDA,UTTAR KANDAR PARA,90.80011,25.12756,7793,1
RAHIMPUR M d s  DAKHIL  MADRASHA,113016,Madrasha,NETRAKONA,KALMAKANDA,RAHIMPUR,90.78836,25.10111,7794,1
P.G. DARUS SALAM DAKAHIL MADRASAHA,113022,Madrasha,NETRAKONA,KALMAKANDA,GUTURA,90.82097,25.06586,7795,1
RAMNATHPUR D.S. DAKHIL MADRASHA,113020,Madrasha,NETRAKONA,KALMAKANDA,POGLA,90.77419,25.06003,7796,1
DURGAPUR DINI  alim MADRASHA,112973,Madrasha,NETRAKONA,DURGAPUR,SADHUPARA,90.88389,25.01683,7797,1
FULPUR ISLAMIA  ALIM MADRASAH,112972,Madrasha,NETRAKONA,DURGAPUR,PHULPUR,90.69639,25.10183,7798,1
MADHUAKONA A. U. alim MADRASAH,112971,Madrasha,NETRAKONA,DURGAPUR,PHULPUR,90.73878,25.07925,7799,1
KAILATY F U (SR) FAZIL MADRASAH,112934,Madrasha,NETRAKONA,BARHATTA,CHHOTA KAILATI,90.88922,24.9,7801,1
MONASH K.B. FAZIL MADRASA,112931,Madrasha,NETRAKONA,BARHATTA,MANAS,90.93097,24.8975,7802,1
BARHATTA A K KHAN DAKHIL MADRASHA,112936,Madrasha,NETRAKONA,BARHATTA,ISPINJARPUR,90.87811,24.89506,7803,1
YATIMKHANA JANNATUL ULUM DAKHIL MADRASHA,112935,Madrasha,NETRAKONA,BARHATTA,GORAUND,90.88228,24.89961,7804,1
BAUSHI MOGUL UDDIN DAKHIL MADRASHA,112937,Madrasha,NETRAKONA,BARHATTA,SUSANG DAHAR PARA,90.8885,24.86197,7805,1
DASHDHAR MISBAHUL ULUM DAKHIL MADRASah,112932,Madrasha,NETRAKONA,BARHATTA,DASDHAR,90.87644,24.90003,7806,1
NOIHTI BALAM KONAPARA DAKHIL MADRASHA,112930,Madrasha,NETRAKONA,BARHATTA,NAIHATI,90.87747,24.89492,7807,1
TILSINDUR O S DAKHIL MADRASHA,112933,Madrasha,NETRAKONA,BARHATTA,TILSINDUR,90.83556,24.94236,7808,1
SIRAJAM MuNIRA DAKHIL MADRASHA,112910,Madrasha,NETRAKONA,ATPARA,BANIAJAN,90.85414,24.96997,7809,1
CHAYASHI M.A.I DAKHIL MADRASHA,112906,Madrasha,NETRAKONA,ATPARA,CHHAYASI,90.86153,24.75892,7810,1
SHORMOSHIA ALIM  MADRASHA,112909,Madrasha,NETRAKONA,ATPARA,SARMAISA,90.90158,24.81347,7811,1
SUKHARI BAZAR ISLAMIA DAKHIL MADRASAH,112908,Madrasha,NETRAKONA,ATPARA,DAKSHIN SUKHARI (PART),90.81339,24.81644,7812,1
BALIKANDI JAMIA ISLAMIA  DAKHIL MADRASHA,112907,Madrasha,NETRAKONA,ATPARA,TELIGANTI,90.85583,24.83644,7813,1
KHALUA DAKHIL MADRASAH,113125,Madrasha,NETRAKONA,MOHANGANJ,KHALUA MALLIKNAGAR,90.82053,24.76856,7814,1
SHNKAR PUR ADARSHA JOUNIOR SCHOOL,112968,School,NETRAKONA,DURGAPUR,DAKSHIN SANKARPUR,89.62792,23.33597,20571,1
PURBADHALA  J.M MODEL PILOT HIGH SCHOOL,113198,School,NETRAKONA,PURBADHALA,PURBADHALA,89.71461,23.23678,20572,1
PURBADHALA GIRLS HIGH SCHOOL,113215,School,NETRAKONA,PURBADHALA,PURBADHALA,89.64042,23.37589,20573,1
RAGEEB MAJIB HIGH SCHOOL,113229,School,NETRAKONA,PURBADHALA,NARAYANDAHAR,90.60044,24.94656,20575,1
AGIA HIGH SCHOOL,113212,School,NETRAKONA,PURBADHALA,AGIA,90.60353,24.95403,20576,2
SATYATI BERAIL AKTER KHAN HIGH SCHOOL,113221,School,NETRAKONA,PURBADHALA,SATYATI,90.603,24.93867,20577,2
 BAINJA HIGH SCHOOL,113206,School,NETRAKONA,PURBADHALA,BAINJA,90.64603,24.93078,20578,1
BARARIA HIGH SCHOOL,113197,School,NETRAKONA,PURBADHALA,KATAKHALI,90.549,24.95111,20579,1
NABI HOSSAIN KHAN HIGH SCHOOL,130860,School,NETRAKONA,PURBADHALA,DAKSHIN KAJLAPOTA,90.578,24.96658,20580,1
TANUA HIGH SCHOOL,113216,School,NETRAKONA,PURBADHALA,TENUA,90.58739,24.97947,20581,1
BADE PUTIKA HIGH SCHOL,113211,School,NETRAKONA,PURBADHALA,BADE PUTIKA,90.60736,24.82028,20582,1
BISHOMPUR JUNIOR HIGH SCHOOL,113226,School,NETRAKONA,PURBADHALA,BISHAMPUR,90.65094,24.82872,20583,1
DR. MOHAMMAD ALI HIGH SCHOOL,113219,School,NETRAKONA,PURBADHALA,DALDALA,90.61047,24.82397,20584,1
SHAHID SMRITY HIGH SCHOOL,113228,School,NETRAKONA,PURBADHALA,RAMPUR KACHIAKANDA,90.64839,24.81894,20585,1
SHARISHTALA HIGH SCHOOL,113224,School,NETRAKONA,PURBADHALA,SARISHTALA,90.62417,24.80419,20586,1
DHALAMULGAON HIGH SCHOOL,113205,School,NETRAKONA,PURBADHALA,DHALA MULGAON,90.54944,24.91106,20587,1
SHALTHI HIGH SCHOOL,113208,School,NETRAKONA,PURBADHALA,SALTHI GHAGRA PARA,90.54669,24.92525,20588,1
DUDHI JUNIOR HIGH SCHOOL,113230,School,NETRAKONA,PURBADHALA,DUDHI,90.63386,24.97414,20589,1
GHAGRA BILATERAL HIGH SCHOOL,113199,School,NETRAKONA,PURBADHALA,GHAGRA,90.59236,24.90689,20590,1
KAPASIA HIGH SCHOOL,113223,School,NETRAKONA,PURBADHALA,KAPASHIA,90.55308,24.88772,20591,1
MEGH SHIMUL HIGH SCHOOL,113209,School,NETRAKONA,PURBADHALA,MEGH SHIMUL,90.70172,24.98333,20592,1
RAMKANDA HIGH SCHOOL,113220,School,NETRAKONA,PURBADHALA,MEGH SHIMUL,90.66872,24.96019,20593,1
JALSUKA KUMUD GANJ HIGH SCHOOL,113204,School,NETRAKONA,PURBADHALA,JALSUKA,90.58542,25.02219,20594,1
SADHUPARA HIGH SCHOOL,113203,School,NETRAKONA,PURBADHALA,HOGLA,90.59086,24.85806,20597,1
HOGLA  HIGH SCHOOL,113232,School,NETRAKONA,PURBADHALA,HOGLA,90.57675,24.84258,20598,1
PANESHA  GIRLS SCHOOL,113227,School,NETRAKONA,PURBADHALA,PAINSA,90.62789,24.85125,20599,1
PATRA DAMPARA HIGH SCHOOL,113207,School,NETRAKONA,PURBADHALA,PATHERA,90.58439,24.86575,20600,1
DEAUTUKON A. GANI HIGH SCHOOL,113218,School,NETRAKONA,PURBADHALA,MEGHA PARA CHHANDHARA,90.53653,24.97831,20601,1
TIKURIA ASARSHA JUNIOR SCHOOL,113233,School,NETRAKONA,PURBADHALA,SATYATI,90.52725,24.95542,20602,1
ICHULIA HIGH SCHOOL,113213,School,NETRAKONA,PURBADHALA,KHALISAUR,90.531,25.01736,20603,1
BUTER GHAT HIGH SCHOOL,113231,School,NETRAKONA,PURBADHALA,KHALISAUR,90.50861,24.99047,20604,1
PABAI HIGH SCHOOL,113217,School,NETRAKONA,PURBADHALA,PABAI,90.59411,24.97622,20605,1
SHIMUL KANDI HIGH SCHOOL,130906,School,NETRAKONA,PURBADHALA,SHIMULKANDI,90.61936,24.96911,20606,1
HIRANPUR HIGH SCHOOL,113202,School,NETRAKONA,PURBADHALA,IARAN,90.60894,24.92258,20607,1
 BHUGI JAWANI HIGH SCHOOL,113214,School,NETRAKONA,PURBADHALA,BHUGHI,90.6055,24.91147,20608,1
NARAYAN DAHAR HIGH SCHOOL3,113210,School,NETRAKONA,PURBADHALA,NARAYANDAHAR,90.58614,24.89011,20609,1
PURBADHALA HIGH SCHOOL,113222,School,NETRAKONA,PURBADHALA,PURBADHALA,90.64919,24.90525,20610,1
RUPGANJ GIRLS HIGH SCHOOL,112927,School,NETRAKONA,BARHATTA,SUSANG DAHAR PARA,90.59281,24.90139,20611,1
ROGHUNATHPUR  GIRLS SCHOOL,113052,School,NETRAKONA,KENDUA,RAGHUNATHPUR,90.63169,24.918,20612,1
NETRAKONA HIGH SCHOOL,113137,School,NETRAKONA,NETROKONA SADAR,AZAHAR ROAD,90.60353,24.95403,20613,2
SHIMUL JANI GIRLS HIGH SCHOOL,113132,School,NETRAKONA,NETROKONA SADAR,SHIMULJANI,90.834,24.94242,20614,1
KRISHNA GOBINDA  GIGH SCHOOL,113151,School,NETRAKONA,NETROKONA SADAR,SINGHAR BANGLA,90.83419,24.93867,20615,1
ABU HAYDER YOUSUF ABBASIA JUNIOR HIGH SCHOOL,113172,School,NETRAKONA,NETROKONA SADAR,BETATI,90.77619,24.76617,20616,1
NETROKONA CHANDARA NATH HIGH SCHOOL,113140,School,NETRAKONA,NETROKONA SADAR,NIKHIL NATH ROAD,90.71533,24.90586,20617,1
ANJUMAN ADARSHA  GOVT. HIGH SCHOOL,NETRAKONA,113134,School,NETRAKONA,NETROKONA SADAR,MUKTER PARA,90.72683,24.88681,20618,1
JAHANARA SHRITY GRIL'S HIGH SCHOOL,113139,School,NETRAKONA,NETROKONA SADAR,NIKHIL NATH ROAD,90.79472,24.88544,20619,1
SATPAI BORSHIKORA HIGH SCHOOL,113158,School,NETRAKONA,NETROKONA SADAR,GRAM SATPAI_(1),90.77456,24.94889,20621,1
DUTTA HIGH SCHOOL,113136,School,NETRAKONA,NETROKONA SADAR,ARAMBAG,90.73781,24.88161,20622,1
UNMESH ADERSHA HIGH SCHOOL,130697,School,NETRAKONA,NETROKONA SADAR,MUKTER PARA,90.73078,24.87733,20623,1
MAHMUDPUR HIGH SCHOOL,113159,School,NETRAKONA,NETROKONA SADAR,MAHAMUDPUR,90.71828,24.88794,20624,1
RAZUR BAZAR COLLEGIATE SCHOOL,113163,School,NETRAKONA,NETROKONA SADAR,BAHIRCHA PARA,90.71283,24.88744,20625,1
NETRAKONA GOVT. GIRLS HIGH SCHOOL,113138,School,NETRAKONA,NETROKONA SADAR,MACHUA BAZAR,90.7195,24.88761,20626,1
NETRAKONA RESIDENTIAL MODEL SCHOOL,132111,School,NETRAKONA,NETROKONA SADAR,MUKTER PARA,90.73033,24.87756,20627,1
M A HAMID HIGH SCHOOL,113171,School,NETRAKONA,NETROKONA SADAR,AMTALA,90.73161,24.88067,20628,1
DEOPUR HIGH SCHOOL,113146,School,NETRAKONA,NETROKONA SADAR,DEBPUR,90.72797,24.88019,20629,1
AMTOLA HIGH SCHOOL,113162,School,NETRAKONA,NETROKONA SADAR,AMTALA,90.73311,24.87061,20630,1
MUKTAL HOSSAIN HIGH SCHOOL,113144,School,NETRAKONA,NETROKONA SADAR,CHALLISHA,90.8,24.8545,20631,1
MOUOVI NAGAR HIGH SCHOOL,113153,School,NETRAKONA,NETROKONA SADAR,UTTAR BISHIURA,90.76578,24.84136,20632,1
MILON HIGH SCHOOL,113152,School,NETRAKONA,NETROKONA SADAR,BANSATI,90.80203,24.87378,20633,1
DAKSHIN BISHIURA HIGH SCHOOL,113150,School,NETRAKONA,NETROKONA SADAR,DAKSHIN BISHIURA,90.77092,24.83114,20634,1
DEWANBAGI GIRLS HIGH SCHOOL,113174,School,NETRAKONA,NETROKONA SADAR,DAPUNIA,90.78731,24.84694,20635,1
ABU  ABBAS HIGH SCHOOL , KAMARURA,113155,School,NETRAKONA,NETROKONA SADAR,KAMARURA,90.68347,24.86992,20636,1
ABBASIA HIGH SCHOOL,113142,School,NETRAKONA,NETROKONA SADAR,BIL GUJABAGI,90.74994,24.96039,20637,1
HAZI MOHAMMED ABDUR RAHAMAN HIGH SCHOOL,113161,School,NETRAKONA,NETROKONA SADAR,BARA KAILATI,90.68461,24.822,20638,1
JANATA HIGH SCHOOL,113164,School,NETRAKONA,NETROKONA SADAR,KHATIB NAGUA,90.68553,24.82361,20639,1
DEUTUKON BAZAR. HIGH SCHOOL,113160,School,NETRAKONA,NETROKONA SADAR,MASUA,90.74053,24.86928,20640,1
LAKSHMIGONJ HIGH SCHOOL,113143,School,NETRAKONA,NETROKONA SADAR,LAKSHMIGANJ,90.74581,24.84319,20641,1
LOXMIPUR ADARSHA High SCHOOL,113157,School,NETRAKONA,NETROKONA SADAR,LAKSHMIPUR,90.74281,24.86608,20642,1
MADANPUR SHAH SULTAN HIGH SCHOOL,113148,School,NETRAKONA,NETROKONA SADAR,MADANPUR,90.70736,24.99522,20643,1
SURIYA ABBAS DMC HIGH SCHOOL,113170,School,NETRAKONA,NETROKONA SADAR,MINARGANTI,90.75083,24.95767,20644,1
NANDIPUR SONAR BANGLA HIGH SCHOOL,113131,School,NETRAKONA,NETROKONA SADAR,NANDIPUR,90.75994,24.8255,20645,1
SHAZIURA MOFILA FAIZ MODEL HIGH SCHOOL,113167,School,NETRAKONA,NETROKONA SADAR,SAJIURA,90.76031,24.826,20646,1
BARAWARI HIGH SCHOOL,113141,School,NETRAKONA,NETROKONA SADAR,BAROARI,90.71208,24.78836,20647,1
HAZI FOYAJ UDDIN AKAND HIGH SCHOOL,113165,School,NETRAKONA,NETROKONA SADAR,SAID FAZAL,90.75053,24.78142,20648,1
T KHAN HIGH SCHOOL,113173,School,NETRAKONA,NETROKONA SADAR,NATORKONA,90.74919,24.79944,20649,1
K.N.F. HIGH SCHOOL,113133,School,NETRAKONA,NETROKONA SADAR,KANCHANPUR,90.71722,24.86911,20650,1
MARA DIGHI GOLAM HOSSAIN HIGH SCHOOL,113145,School,NETRAKONA,NETROKONA SADAR,MARA DIGHI,90.75686,24.93481,20651,1
KUNIA FAZARANNESSA HIGH SCHOOL,113156,School,NETRAKONA,NETROKONA SADAR,BARSIKURA,90.74339,24.90844,20652,1
CHARPARA MOHADEBPUR HIGH SCHOOL,113149,School,NETRAKONA,NETROKONA SADAR,MAHADEBPUR,90.6985,24.94667,20653,1
CHARPARA HIGH SCHOOL,113168,School,NETRAKONA,NETROKONA SADAR,TATIAR,90.69425,24.92272,20654,1
TETULIA KAKUNI KONA S. B. HIGH SCHOOL,113154,School,NETRAKONA,NETROKONA SADAR,KAKANIKONA,90.71644,24.93875,20655,1
SHIMULATI HIGH SCHOOL,113169,School,NETRAKONA,NETROKONA SADAR,PANCHPAI,90.68583,24.92883,20656,1
THAKURKONA RaHIM UDDIN HIGH SCHOOL,113147,School,NETRAKONA,NETROKONA SADAR,THAKURAKONA,90.70928,24.90675,20657,1
MOHANGONJ ADARSH HIGH SCHOOL,113118,School,NETRAKONA,MOHANGANJ,KAZIATI,90.83169,24.93628,20658,1
MOHANGANJ  PILOT GOVT.HIGH SCHOOL,113107,School,NETRAKONA,MOHANGANJ,TANGAPARA (PART),90.77864,24.77025,20659,1
MAGHAN HIGH SCHOOL,113114,School,NETRAKONA,MOHANGANJ,MAGHAN,90.82172,24.90847,20660,1
MOHANGANJ PUBLIC HIGH SCHOOL,113116,School,NETRAKONA,MOHANGANJ,MAILORA,90.97275,24.86669,20661,1
MOHANGONJ PILOT GIRLS HIGH SCHOOL,113108,School,NETRAKONA,MOHANGANJ,DAULATPUR (PART),90.96847,24.86558,20662,1
JAINPUR HIGH SCHOOL,113121,School,NETRAKONA,MOHANGANJ,JAINPUR,90.98278,24.84128,20663,1
BIRAMPUR HIGH SCHOOL,113119,School,NETRAKONA,MOHANGANJ,BIRAMPUR,90.98083,24.86822,20664,1
VATI BANGLA  HIGH SCHOOL,130683,School,NETRAKONA,MOHANGANJ,GAGLAJORE,90.97322,24.86528,20665,1
MOKTI ZUDDHYA SMRITY JR HIGH SCHOOL,113120,School,NETRAKONA,MOHANGANJ,KARACHAPUR,90.97983,24.87508,20666,1
SHYAMPUR UNION HIGH SCHOOL,113112,School,NETRAKONA,MOHANGANJ,KAMALPUR,91.09336,24.86558,20667,1
KHURSHIMUL  HIGH SCHOOL,113110,School,NETRAKONA,MOHANGANJ,KHORSHIMULI,90.98003,24.87317,20668,1
K.B KABIR UDDIN K. HIGH SCHOOL,113115,School,NETRAKONA,MOHANGANJ,SAHILDEO,91.114,24.81347,20669,1
SAMAJ HIGH SCHOOL,113109,School,NETRAKONA,MOHANGANJ,JIBANPUR,91.05094,24.77653,20670,1
SHAHID SMRITY HIGH SCHOOL,KULPATAK,113111,School,NETRAKONA,MOHANGANJ,KULPATAK,91.02264,24.84644,20671,1
FATHEPUR S.A.C HIGH SCHOOL,113081,School,NETRAKONA,MADAN,FATEHPUR,91.0065,24.77339,20672,1
GOBINDA SREE HIGH SCHOOL,113088,School,NETRAKONA,MADAN,GOBINDASREE,90.97067,24.64728,20673,1
CHAND GOUHASKURI MAIDHAM HIGH SCHOOL,113095,School,NETRAKONA,MADAN,CHANDGAON,90.95386,24.71267,20674,1
BANSARI MEHERUNNESA HIGH SCHOOL,113093,School,NETRAKONA,MADAN,DURGASRAM,91.02947,24.71867,20675,1
MADAN SHAHID SMARNIKA PILOT GIRL'S HIGH,113082,School,NETRAKONA,MADAN,PASCHIM  JAHANGIRPUR,91.02608,24.72111,20676,1
JAHANGIRPUR T. AMIN PILOT HIGH SCHOOL,113083,School,NETRAKONA,MADAN,MAIDHAY JAHANGIRPUR,91.00869,24.68297,20677,1
KESHJANI BIDDA NIKATAN,113091,School,NETRAKONA,MADAN,KESHJANI,90.92619,24.71811,20678,1
KHAGURIa HIGH SCHOOL,113085,School,NETRAKONA,MADAN,KHAGURIA,90.91653,24.72172,20679,1
MADAN ADARSHA PUBLIC HIGH SCHOOL,113092,School,NETRAKONA,MADAN,MADAN,90.91456,24.69011,20680,1
CHOWDHURY TALE HOSSAIN MICHHIL JAN ACADEM,113094,School,NETRAKONA,MADAN,MAIDHAY JAHANGIRPUR,90.89311,24.73189,20681,1
NOAGAOAN AFTAB HOSSAIN ACADEMY,113087,School,NETRAKONA,MADAN,NAYEKPUR,90.88747,24.71375,20682,1
BAGJAN KUTUREEKONA MODEL HIGH SCHOOL,130687,School,NETRAKONA,MADAN,BAGHJAN,90.95739,24.71736,20683,1
BALALI BAGMARA HIGH SCHOOL,113086,School,NETRAKONA,MADAN,BALALI,90.96092,24.71503,20684,1
TIOSREE N H KHAN ACADEMY,113090,School,NETRAKONA,MADAN,TIASREE,91.04894,24.65556,20685,1
SHALDIGHA GOPAL GOPINATH HIGH SCHOOL,112976,School,NETRAKONA,KHALIAJURI,SALDIGHA,90.97103,24.64656,20686,1
PANCHHAT HIGH SCHOOL,133260,School,NETRAKONA,KHALIAJURI,PANCHHAT,90.93731,24.66736,20687,1
KHALIAJURI PILOT HIGH SCHOOL,112978,School,NETRAKONA,KHALIAJURI,KHALIAJURI,90.92925,24.66736,20688,1
SIDDIQUR RAHMAN BALIKA BIDDA NIKETAN,112986,School,NETRAKONA,KHALIAJURI,KHALIAJURI,90.97167,24.64831,20689,1
KRISHNAPUR ALIMUDDIN ARGERNESA Public High SCHool,112980,School,NETRAKONA,KHALIAJURI,KRISHNAPUR,91.12192,24.61575,20690,1
ABDUL JABBAR RABEYA KHTUN GIRLS HIGH SCHOOL,112984,School,NETRAKONA,KHALIAJURI,KRISHNAPUR,91.12039,24.62058,20691,1
KUTUBPUR PABLIC HIGH SCHOOL,112977,School,NETRAKONA,KHALIAJURI,KUTUBPUR,91.13947,24.69189,20692,1
PROKASH NATH PUBLIC HIGH SCHOOL,112983,School,NETRAKONA,KHALIAJURI,JIAKHARA,91.22439,24.69053,20693,1
JAGANNATH PUR M U S HIGH SCHOOL,112981,School,NETRAKONA,KHALIAJURI,JAGANNATHPUR,91.21678,24.68806,20694,1
SATGOAN M B P HIGH sCHOOL,112979,School,NETRAKONA,KHALIAJURI,SATGAON,91.20278,24.68122,20695,1
BAGHATIA HIGH SCHOOL,112982,School,NETRAKONA,KHALIAJURI,BAGHATIA,91.22031,24.69003,20696,1
KANDIPARA A. M. S. R. INSTITUTE,112903,School,NETRAKONA,ATPARA,KANDI PARA,91.22464,24.69083,20697,1
BASHATI HIGH SCHOOL,113044,School,NETRAKONA,KENDUA,BASATI,91.04728,24.73658,20698,1
SABERUNNESSA GIRL'S HIGH SCHOOL,113041,School,NETRAKONA,KENDUA,KAMALPUR,91.07831,24.70692,20699,1
SAYMA SHAHJAHAN ACADEMY,113049,School,NETRAKONA,KENDUA,KAMALPUR,91.03494,24.75933,20700,1
AL HAZ ATIKUR RAHMAN BHUYIAN GIRL'S ACADEMY,113057,School,NETRAKONA,KENDUA,BATTA,91.17067,24.66006,20701,1
JANATA HIGH SCHOOL,113032,School,NETRAKONA,KENDUA,AMTALA,90.83836,24.74817,20702,1
KENDUA JOY HARI SPRY GOVT. HIGH SCHOOL,113026,School,NETRAKONA,KENDUA,KENDUA BAZAR,90.83944,24.66242,20703,1
ASHUJIA j N C INSTITUTION,113027,School,NETRAKONA,KENDUA,ASUJIA,90.78858,24.62422,20704,1
JANATA ADARSHA HIGH SCHOOL,113053,School,NETRAKONA,KENDUA,GOBINDAPUR,90.842,24.66764,20705,1
RAMPUR ANWARA HIGH SCHOOL,113039,School,NETRAKONA,KENDUA,NANDIKHILA,90.84181,24.66244,20706,1
BALAISHIMUL.J.K ACAOEMY,113055,School,NETRAKONA,KENDUA,BALAISHIMUL,90.78903,24.7295,20707,1
GOPALPUR HIGH SCHOOL,113043,School,NETRAKONA,KENDUA,GOURI GOPALPUR,90.78206,24.76225,20708,1
NOADIA AKOTA HIGH SCHOOL,113047,School,NETRAKONA,KENDUA,NOADIADIGAR,90.75936,24.74881,20709,1
SHAJIURA HIGH SCHOOL,113040,School,NETRAKONA,KENDUA,SAJIURA,90.82217,24.72589,20710,1
BEKHAIR HATI NARADRA KANTA HIGH SCHOOL,113029,School,NETRAKONA,KENDUA,BEKHURATI,90.78378,24.70381,20711,1
JALLY HIGH SCHOOL,113054,School,NETRAKONA,KENDUA,JALLI,90.81806,24.73797,20712,1
RAMNAGAR GIRL'S HIGH SCHOOL,113045,School,NETRAKONA,KENDUA,RAMNAGAR,90.81561,24.75422,20713,1
ROUSHAN IJDANI ACADEMY,113033,School,NETRAKONA,KENDUA,BIDYABALLABH,90.71308,24.75708,20714,1
PUBAIL JUNIOR GIRLS SCHOOL,113051,School,NETRAKONA,KENDUA,PUBAIL,90.73525,24.73889,20715,1
GARADOVA ABDUL HAMID HIGH SCHOOL,113042,School,NETRAKONA,KENDUA,GARADOBA,90.73625,24.75222,20716,1
BOISHAPATTA MODEL ACADEMY,113050,School,NETRAKONA,KENDUA,BAISYA BATTA,90.76317,24.70383,20717,1
GONDA HIGH SCHOOL,113035,School,NETRAKONA,KENDUA,GANDA,90.74456,24.70361,20718,1
JOYKA SATASHI HIGH SCHOOL,113038,School,NETRAKONA,KENDUA,SATASHI DIGAR,90.72356,24.65031,20719,1
GOGDA HIGH SCHOOL,113036,School,NETRAKONA,KENDUA,GAGDA,90.72478,24.66619,20720,1
AYESHA HAMIDA GIRLS HIGH SCHOOL,113056,School,NETRAKONA,KENDUA,MUZAFFARPUR,90.70756,24.67711,20721,1
NOAPARA HIGH SCHOOL,113028,School,NETRAKONA,KENDUA,NAOPARA,90.785,24.68839,20722,1
MOJLISHPUR HIGH SCHOOL,113031,School,NETRAKONA,KENDUA,MAJLISHPUR,90.87669,24.61119,20723,1
MITALI HIGH SCHOOL,113037,School,NETRAKONA,KENDUA,BIRAMPUR,90.85489,24.69875,20724,1
HAZIGONJ HIGH SCHOOL,112940,School,NETRAKONA,BARHATTA,GABARKANDA,90.84414,24.60261,20725,1
RANGCHATI HIGH SCHOOL,112993,School,NETRAKONA,KALMAKANDA,PANCHGAON,90.82703,24.62742,20726,1
AKOTA HIGH SCHOOL,113008,School,NETRAKONA,KALMAKANDA,NAGARGATI,90.78508,24.61864,20727,1
UDAYPUR MITALY HIGH SCHOOL,113010,School,NETRAKONA,KALMAKANDA,BAGHSATRA,90.74475,24.63683,20728,1
MITALy GIRL'S HIGH SCHOOL,112991,School,NETRAKONA,KALMAKANDA,BANIA PARA,90.87711,24.96639,20729,1
JANATA HIGH SCHOOL,113004,School,NETRAKONA,KALMAKANDA,KAILATI,90.91461,25.13475,20730,1
PUBLIC HIGH SCHOOL,112995,School,NETRAKONA,KALMAKANDA,SIDHLI,90.90747,25.14317,20731,1
BISHARpashA HARISHCHANDRA HIGH SCHOOL,113006,School,NETRAKONA,KALMAKANDA,BISHAR PASHA,90.76769,25.01822,20732,1
DHITPUR  HIGH  SCHOOL,113009,School,NETRAKONA,KALMAKANDA,DHITPUR,90.82072,25.01275,20733,1
KALMAKANDA PILOT HIGH SCHOOL,112992,School,NETRAKONA,KALMAKANDA,KALMAKANDA,90.76692,25.01406,20734,2
KALMAKANDA GIRL'S HIGH SCHOOL,113007,School,NETRAKONA,KALMAKANDA,CHANDPUR,90.80033,25.01889,20735,1
BARDAL HIGH SCHOOL,113001,School,NETRAKONA,KALMAKANDA,LAKSHMIPUR,90.88819,25.07758,20736,1
GOBINDOPUR high SCHOOL,112997,School,NETRAKONA,KALMAKANDA,HAT GOBINDAPUR,90.88489,25.07822,20737,1
 LENGURA HIGH SCHOOL,113005,School,NETRAKONA,KALMAKANDA,LENGURA,90.88697,25.07278,20738,1
UTTAR GORAGAON SABUJ NIKETON JUNIOR SCHOOL,130668,School,NETRAKONA,KALMAKANDA,GORAGAON,90.83314,25.09772,20739,1
RAJNAGAR HIGH SCHOOL,112996,School,NETRAKONA,KALMAKANDA,RAJNAGAR,90.84386,25.15694,20740,1
ANANDAPUR HIGH SCHOOL,113003,School,NETRAKONA,KALMAKANDA,ANANDAPUR,90.85144,25.0905,20741,1
SaCRED HEArT HIGH SCHOOL  baluchora,112999,School,NETRAKONA,KALMAKANDA,NALCHAPRA,90.84611,25.14253,20742,1
NALCHAPRA HIGH SCOOL,113000,School,NETRAKONA,KALMAKANDA,NALCHAPRA,90.78361,25.15689,20743,1
NAZIRPUR PALLI JAGARON HIGH SCHOOL,112994,School,NETRAKONA,KALMAKANDA,NAZIRPUR,90.807,25.14914,20744,1
SMORONIKA HIGH SCHOOL,113011,School,NETRAKONA,KALMAKANDA,SANDUHALA,90.77244,25.13336,20745,1
BATTALA JUNIOR HIGH SCHOOL,113002,School,NETRAKONA,KALMAKANDA,MAHADEO,90.81189,25.05331,20746,1
BORUAKONA SADHU FREDRICK HIGH SCHOOL,112998,School,NETRAKONA,KALMAKANDA,MAHADEO,90.80264,25.0875,20747,1
MUNSHIPUR HAJI ISRAIL ISLAMI HIGH SCHOOL,113012,School,NETRAKONA,KALMAKANDA,MUNSHIPUR,90.81133,25.11167,20748,1
SUSONG ADARSA BIDYA NIKETON,112943,School,NETRAKONA,DURGAPUR,SADHUPARA,90.86744,25.03478,20749,1
IDEAL HIGH SCHOOL,112966,School,NETRAKONA,DURGAPUR,KHUJIURA,90.87544,25.14381,20750,1
GUZIR KONA HIGH SCHOOL,112948,School,NETRAKONA,DURGAPUR,GOJIRKONA,90.88117,25.13725,20751,1
GUZIRKONA GIRLS HIGH SCHOOL,112954,School,NETRAKONA,DURGAPUR,GOJIRKONA,90.88244,25.11653,20752,1
KONAPARA ADARSHA JONIOR SCHOOL,130746,School,NETRAKONA,DURGAPUR,BAKALJORA,90.67581,25.12844,20753,1
BAKAL JURA NAYAPARA HIGH SCHOOL,112964,School,NETRAKONA,DURGAPUR,NAYA PARA,90.67725,25.12764,20754,1
BIRISIRI UNION JUNIOR HIGH SCHOOL,130724,School,NETRAKONA,DURGAPUR,KARUNIA,90.66578,25.11867,20755,1
MATRIJAGANI   GIRLS  high SCHOOL,112942,School,NETRAKONA,DURGAPUR,BANIA PARA,90.70697,25.06042,20756,1
JAGIR PARA SABDAR ALI  HIGH SCHOOL,112956,School,NETRAKONA,DURGAPUR,GOAKANDIA,90.70678,25.05936,20757,1
SHORONIKA  HIGH SCHOOL,112967,School,NETRAKONA,DURGAPUR,MAJHIAIL,90.73839,25.07078,20758,1
NABARUN HIGH SCHOOL,112955,School,NETRAKONA,DURGAPUR,NAGERGATI,90.75086,25.03353,20759,1
NAGERGATI ANIRBAN GIRLS HIGH SCHOOL,112962,School,NETRAKONA,DURGAPUR,NAGERGATI,90.67806,25.07825,20760,1
NOWAGAON JONIOR HIGH SCHOOL,112957,School,NETRAKONA,DURGAPUR,NOAGAON,90.72114,25.11664,20761,1
CHANDIGAR HIGH SCHOOL,112949,School,NETRAKONA,DURGAPUR,CHARIKHAL,90.63028,25.08336,20762,1
AGAR ANIRBAN SHIKKHA NIKETON,112963,School,NETRAKONA,DURGAPUR,THAUSAL PARA,90.74089,25.07903,20763,1
BAROMARI HIGH SCHOOL,112958,School,NETRAKONA,DURGAPUR,BARAMARI,90.77056,25.07872,20764,1
M K C M PILOT GOVT HIGH SCHOOL,112944,School,NETRAKONA,DURGAPUR,BAGICHA PARA,90.73164,25.11644,20765,1
BHARATPUR JUNIOR HIGH SCHOOL,112965,School,NETRAKONA,DURGAPUR,LAKSHMIPUR,90.75889,25.08517,20766,1
MAKRIAL JONILR SCHOOL,130710,School,NETRAKONA,DURGAPUR,MAKRAIL,90.76956,25.10808,20767,1
DURGAPUR GOVT GIRLS HIGH SCHOOL,112945,School,NETRAKONA,DURGAPUR,MITHA PUKUR PARA,90.67764,25.15,20768,1
BHADUA ADARSHA JUNIOR SCHOOL,112961,School,NETRAKONA,DURGAPUR,BHADUA,90.75919,25.15931,20769,1
G M S MEMORIAL HIGH SCHOOL,112953,School,NETRAKONA,DURGAPUR,DUBRAJPUR,90.70753,25.11606,20770,1
JAHURA JALAL GIRLS HIGH SCHOOL,112969,School,NETRAKONA,DURGAPUR,PURBA BAZAR,90.67547,25.12642,20771,1
N. BHAUR TALA  high  SCHOOL,112960,School,NETRAKONA,DURGAPUR,BHAURTALA NAGUA,90.67586,25.12747,20772,1
JHANJAIL HIGH SCHOOL,112959,School,NETRAKONA,DURGAPUR,JHANJAIL,90.67614,25.127,20773,1
KAKAIRGORA HIGH SCHOOL,112951,School,NETRAKONA,DURGAPUR,KAKAIRGARA,90.60606,25.07425,20774,1
KAKAIRGORA UNION GIRLS HIGH SCHOOL.,112970,School,NETRAKONA,DURGAPUR,INDRAPUR,90.62642,25.10647,20775,1
KRISHNER  CHAR HIGH  SCHOOL,112952,School,NETRAKONA,DURGAPUR,INDRAPUR,90.67656,25.12103,20776,1
Creative educare inistitute,130738,School,NETRAKONA,DURGAPUR,SADHUPARA,90.68108,25.00906,20777,1
BIRISIRI PCNALL MEMORIAL HIGH SCHOOL,112946,School,NETRAKONA,DURGAPUR,GHORAITH,90.64769,25.01628,20778,1
BIRISIRI MISSION GIRLS HIGH SCHOOL,112947,School,NETRAKONA,DURGAPUR,GHORAITH,90.67211,25.06072,20779,1
ShAMS UDDIN CHOWDHURY MEMORIAL HIGH SCHOOL,130665,School,NETRAKONA,ATPARA,GARMA,90.66114,25.06431,20780,1
HUZRABARI HIGH SCHOOL,112919,School,NETRAKONA,BARHATTA,CHANDRAPUR,90.68025,25.12131,20781,1
NONI GOPAL MONJUSREE HIGH SCHOOL,112924,School,NETRAKONA,BARHATTA,GERIA,90.67292,25.11128,20782,1
UJAN GOAN MONASH ABBASSIA HIGH SCHOOL,112917,School,NETRAKONA,BARHATTA,MANAS,90.67131,25.10922,20783,1
KISHOLoY SHISHU NIKEToN,112920,School,NETRAKONA,BARHATTA,GOBINDAPUR,90.95425,24.91058,20784,1
BARHATTA PILOT GIRLS HIGH SCHOOL,112913,School,NETRAKONA,BARHATTA,GOBINDAPUR,90.90492,24.95031,20785,2
BARHATTA C.K.P PILOT HIGH SCHOOL,112914,School,NETRAKONA,BARHATTA,GOBINDAPUR,90.90558,24.95008,20786,1
KASHBON HIDYA NIKETON HIGH SCHOOL,112922,School,NETRAKONA,BARHATTA,KASTALA,90.90658,24.90528,20787,1
NISCHINTAPUR HIGH SCHOOL,112916,School,NETRAKONA,BARHATTA,NISCHINTAPUR,90.90492,24.95031,20788,2
PREMNOGOR CHALIPURa HIGH SCHOOL,112923,School,NETRAKONA,BARHATTA,PREMNAGAR,90.87389,24.88367,20789,1
CHIRAM TEHERA MANNAN SMRITY HIGH SCHOOL,112921,School,NETRAKONA,BARHATTA,NAIHATI,90.92378,24.87331,20790,1
CHALLISH KAHANIA HAFIZ UDDIN HIGH SCHOOL,112915,School,NETRAKONA,BARHATTA,CHALLISH KAHANIA,90.86661,24.91314,20791,1
DEMURA CHAPARKONA HIGH SCHOOL,112926,School,NETRAKONA,BARHATTA,KADIM CHAPARKONA,90.93731,24.95042,20792,1
SHAHATA HIGH SCHOOL,112918,School,NETRAKONA,BARHATTA,SAHATA,90.93733,24.94739,20793,1
ATITHPUR ABBASIA HIGH SCHOOL,112925,School,NETRAKONA,BARHATTA,MALLIKPUR,90.79794,24.99292,20794,1
SHONOI HIGH SCHOOL,113013,School,NETRAKONA,KALMAKANDA,BEKHARIKANDA SUNAI,90.79653,24.97108,20795,1
ATPARA Thana shahid swaranika GIRLS HIGH SCHOOL,112896,School,NETRAKONA,ATPARA,MOBARAKPUR,90.83622,24.88392,20796,1
BANIAJAN CT PILOT HIGH SCHOOL,112889,School,NETRAKONA,ATPARA,BANIAJAN,90.839,24.90872,20797,1
PAHARPUR HIGH SCHOOL,112901,School,NETRAKONA,ATPARA,PAHARPUR,90.93058,24.87889,20798,1
IKORATIA  A. A.T. M.  GIRLS HIGH SCHOOL,112900,School,NETRAKONA,ATPARA,IKRATIA,90.85864,24.81308,20799,1
KOILONG SHEK BARI JUNIOR HIGH SCHOOL,112902,School,NETRAKONA,ATPARA,KAILANG,90.83172,24.80008,20800,1
DEOGOAN GOBINDAPUR HIGH SCHOOL,112897,School,NETRAKONA,ATPARA,DEOGAON GOBINDAPUR,90.85803,24.80978,20801,1
KHILA HIGH SCHOOL,112890,School,NETRAKONA,ATPARA,KHILA,90.82892,24.78864,20802,1
DURGASRAM HIGH SCHOOL,112891,School,NETRAKONA,ATPARA,SREEDHARPUR,90.86131,24.80636,20803,1
GHAGRA HIGH SCHOOL,112892,School,NETRAKONA,ATPARA,GHAGRA,90.86806,24.76644,20804,1
KONAPARA HIGH SCHOOL,112895,School,NETRAKONA,ATPARA,KONA PARA,90.89308,24.75744,20805,1
BAUSA HIGH SCHOOL,112893,School,NETRAKONA,ATPARA,SWALPA BAUSHA,90.92056,24.84356,20806,1
DHARMAROY RAMDHAN HIGH SCHOOL,112885,School,NETRAKONA,ATPARA,DAKSHIN SUKHARI (PART),90.80733,24.79181,20807,1
GOPALASRAM VAIRAB CHANDRA HIGH SCHOOL,112887,School,NETRAKONA,ATPARA,GOPALASRAM MADHUAKHALI,90.78772,24.82622,20808,1
NAZIRGANJ HIGH SCHOOL,112894,School,NETRAKONA,ATPARA,SONAJOR,90.81239,24.82264,20809,1
SHUNAI HIGH SCHOOL,112899,School,NETRAKONA,ATPARA,MALLIKPUR SONAI,90.96222,24.76489,20810,1
MONSURPUR ABDUL HAMID TALUKDER HIGH SCHOOL,112898,School,NETRAKONA,ATPARA,MANSURPUR,90.94636,24.73503,20811,1
MONGAL SIDH S. M. HIGH SCHOOL,112886,School,NETRAKONA,ATPARA,MANGALSIDHA,90.92564,24.76672,20812,1
TELIGATI B.N.H.K. ACADEMY,112888,School,NETRAKONA,ATPARA,PURBA HATIAR,90.95689,24.73706,20813,1
HACHLA HIGH SCHOOL,113123,School,NETRAKONA,MOHANGANJ,LUNESHWAR,90.86425,24.81372,20814,1
KHALISHA PUR uchcha maddhyamic biddaya laya,130870,School and College,NETRAKONA,PURBADHALA,KHALISAUR,90.63461,24.96094,26205,1
BAUSHI ARDHACHANDRA HIGHER SECONDARY SCHOOL,112941,School and College,NETRAKONA,BARHATTA,MAUATI,90.64525,24.84989,26206,1
