inst name, eiin, inst_type, district, thana, mauza, long, lat, serial,isUnique
CHILAHATI GOVT. COLLEGE,124893,College,NILPHAMARI,DOMAR UPAZILA,CHILAHATI,88.8166,26.22326,1555,1
DOMAR GOVT COLLEGE,124892,College,NILPHAMARI,DOMAR UPAZILA,PASCHIM BERAGARI S/W,88.82504,26.15343,1556,1
DOMAR WOMENS DEGREE COLLEGE,124896,College,NILPHAMARI,DOMAR UPAZILA,CHIKANMATI,88.81661,26.10481,1557,1
GOMNATI MOHABIDDALOY,124894,College,NILPHAMARI,DOMAR UPAZILA,GOMNATI,88.80265,26.04663,1558,1
MIRZAGONJ COLLEGE,124895,College,NILPHAMARI,DOMAR UPAZILA,MIRZAGANJ,88.8584,26.11253,1559,1
DIMLA MAHILA COLLEGE,124827,College,NILPHAMARI,DIMLA UPAZILA,BABURHAT,88.92311,26.14664,1560,1
DIMLA ISLAMIA DEGREE COLLEGE,124824,College,NILPHAMARI,DIMLA UPAZILA,DAKSHIN TITA PARA,88.91936,26.14961,1561,1
SHAHID ZIA-UR RAHMAN MOHABIDDALAY,133764,College,NILPHAMARI,DIMLA UPAZILA,UTTAR JHUNAGACHH CHA,89.05944,26.1175,1562,1
TISTA COLLAGE,124826,College,NILPHAMARI,DIMLA UPAZILA,CHHOTA KHATA,89.03928,26.12906,1563,1
JANATA  DEGREE COLLEGE,124825,College,NILPHAMARI,DIMLA UPAZILA,KHOGA KHARIBARI,89.00197,26.12553,1564,1
JALDHAKA DEGREE COLLEGE,124977,College,NILPHAMARI,JALDHAKA UPAZILA,JALDHAKA (PART),89.01575,26.02222,1565,1
RABEYA CHOWDHURY WOMEN'S COLLEGE,124976,College,NILPHAMARI,JALDHAKA UPAZILA,MATHABHANGA,89.00806,26.02444,1566,1
IDEAL COOLLEGE,124981,College,NILPHAMARI,JALDHAKA UPAZILA,AMRULBARI (PART),89.01525,26.02494,1567,1
GOLNA SHAHID SMRITY COLLEGE,124980,College,NILPHAMARI,JALDHAKA UPAZILA,KHARIJA GOLNA,89.01311,26.02625,1568,1
MIRGONJ HAT COLLEGE,124979,College,NILPHAMARI,JALDHAKA UPAZILA,PURBA SHIMULBARI,88.98267,25.97747,1569,2
SHIMUL BARI BANGABANDHU DEGREE COLLEGE,124978,College,NILPHAMARI,JALDHAKA UPAZILA,ARAZI SHIMULBARI,88.889,26.03406,1570,1
RADHARANI WOMEN COLLEGE,125054,College,NILPHAMARI,KISHOREGANJ UPAZILA,BAGULAGARI,89.02925,25.95031,1571,1
KISHOREGONJ MOHILA COLLEGE,133751,College,NILPHAMARI,KISHOREGANJ UPAZILA,KESBA,89.00975,25.90742,1572,1
KISHORGANJ DEGREE COLLEGE,125053,College,NILPHAMARI,KISHOREGANJ UPAZILA,KESBA,89.01422,25.89994,1573,1
MAGURA COLLEGE,125052,College,NILPHAMARI,KISHOREGANJ UPAZILA,MAGURA,89.07781,25.84394,1574,2
ANOR MARI COLLEGE,125055,College,NILPHAMARI,KISHOREGANJ UPAZILA,BADI,89.06956,25.90219,1575,1
NILPHAMARI GOVT. WOMENS COLLEGE,125188,College,NILPHAMARI,NILPHAMARI SADAR UPAZ,MADHAYA NILPHAMARI TOWN,89.00239,25.91322,1576,1
NILPHAMARI GOVT COLLEGE,125189,College,NILPHAMARI,NILPHAMARI SADAR UPAZ,MADHYA HARUA,88.82947,25.91639,1577,1
MOSHIUR RAHMAN DEGREE COLLEGE,125190,College,NILPHAMARI,NILPHAMARI SADAR UPAZ,KANIALKHATA (PART),88.89289,25.91053,1578,1
PALASHBARI COLLEGE,125192,College,NILPHAMARI,NILPHAMARI SADAR UPAZ,PALASHBARI,88.84064,25.98944,1580,1
CHANDER HAT DEGREE COLLEGE,125187,College,NILPHAMARI,NILPHAMARI SADAR UPAZ,BISHMURI,88.89192,25.96528,1581,1
SONARAI SANGALSHI DEGREE COLLEGE,125191,College,NILPHAMARI,NILPHAMARI SADAR UPAZ,ARAZI KUKHA PARA,88.86106,25.87672,1582,1
SAIDPUR WOMEN'S COLLEGE,125244,College,NILPHAMARI,SAIDPUR UPAZILA,MUNSHI PARA PASCHIM,88.89961,25.77875,1583,1
SAIDPUR COLLEGE,125243,College,NILPHAMARI,SAIDPUR UPAZILA,KUNDAL,88.89042,25.78819,1584,1
KAMAR PUKUR DEGREE COLLEGE,125245,College,NILPHAMARI,SAIDPUR UPAZILA,KAMAR PUKUR,88.90936,25.80461,1585,1
BAMUNIA GHANA PARA DARUSSUNNAT DAKHIL MADRASHA,124887,Madrasha,NILPHAMARI,DOMAR UPAZILA,KHAMAR BAMUNIA,89.32232,25.36655,7815,1
KHANKA-E-KARAMATIA SHARIF M.U.A ROB DAKHIL MADRASHA,124888,Madrasha,NILPHAMARI,DOMAR UPAZILA,NIJ BHOGDABARI,88.79421,26.24618,7816,1
CHILAHATI ZAME UL ULUM FAZIL MADRASHA,124878,Madrasha,NILPHAMARI,DOMAR UPAZILA,CHILAHATI,88.79102,26.24556,7817,1
DOMRA ISLAMIA ALIM MADRASHA,124882,Madrasha,NILPHAMARI,DOMAR UPAZILA,CHIKANMATI,88.80576,26.10472,7818,1
GOMNATI MORHUM HAZI TOSIR UDDIN DARBESH DAKHIL MADRASHA,124881,Madrasha,NILPHAMARI,DOMAR UPAZILA,DAKSHIN GOMATI,88.80089,26.06761,7819,1
SHEOT GARI MAHAMMUDIA M. L ALIM MADRASHA,124885,Madrasha,NILPHAMARI,DOMAR UPAZILA,ATIABARI,88.84584,26.06676,7820,1
JORABARI SIDDIKIA DAKHIL MADRASHA,124884,Madrasha,NILPHAMARI,DOMAR UPAZILA,JORABARI,88.85617,26.10819,7821,1
PANGA CHAWPATHY ABDUL MAZID MADRASHA,124880,Madrasha,NILPHAMARI,DOMAR UPAZILA,MATUKPUR,88.87363,26.17533,7822,1
ZAMIRBARI AKRAMIA(ALIM)MADRASHA,124879,Madrasha,NILPHAMARI,DOMAR UPAZILA,JAMIRBARI,88.79345,26.17122,7823,1
AMBARI BALIKA DAKHIL MADRASHA,124886,Madrasha,NILPHAMARI,DOMAR UPAZILA,PURBA AMBARI,88.80566,26.17314,7824,1
DAKKIN MATUKPUR ISLAMIA DAKHIL MADRASA,124889,Madrasha,NILPHAMARI,DOMAR UPAZILA,MATUKPUR,88.88357,26.1458,7825,1
MOUZA PANGA TRIPAHI jaldan  DAKHIL MADRASA,124883,Madrasha,NILPHAMARI,DOMAR UPAZILA,PANGA,88.86219,26.21198,7826,1
SAMMILITA BANDRA KHARIBARI SCHHATI BALA PARA DAKHIL MADRASAH,124804,Madrasha,NILPHAMARI,DIMLA UPAZILA,CHHATNAI BALA PARA,88.7737,26.27347,7827,1
SUNDARKHATA SHOFIKUL GONI SHAPAN FAZIL MADRASHA,124822,Madrasha,NILPHAMARI,DIMLA UPAZILA,NIJ SUNDARKHATA,88.89714,26.22206,7828,1
DIMLA DAKHIL MADRASHA,124813,Madrasha,NILPHAMARI,DIMLA UPAZILA,BABURHAT,88.92761,26.13925,7829,1
TITPARA BAR JUMMA DARUS SALAM DAKHIL MADRASHA,124821,Madrasha,NILPHAMARI,DIMLA UPAZILA,DAKSHIN TITA PARA,88.95292,26.16872,7830,1
DIMLA NIZPARA FAZIL MADRASAH,124809,Madrasha,NILPHAMARI,DIMLA UPAZILA,DIMLA,88.94244,26.11347,7831,1
RAMDANGA DARUL HUDA ISLAMIA DAKIL MADRAShA,124811,Madrasha,NILPHAMARI,DIMLA UPAZILA,RAMDANGA,88.923,26.15653,7832,1
DAKHIN GAYABARI FUTANIRHAT ABBAS ALI SARKER DAKHIL MADRASHA,124810,Madrasha,NILPHAMARI,DIMLA UPAZILA,DAKSHIN GAYABARI,88.92606,26.15597,7833,1
JANAGACH CHAPANI MOWLANA PARA GIRLS DAKHIL MADRASAH,124816,Madrasha,NILPHAMARI,DIMLA UPAZILA,DAKSHIN JHUNAGACHH C,89.05031,26.10125,7834,1
JHUNA CHAPANI CHOWDHURY PARA DAKHIL MADRASHA,124802,Madrasha,NILPHAMARI,DIMLA UPAZILA,DAKSHIN JHUNAGACHH C,89.0125,26.09289,7835,1
DAKHIN SONAKHALI  ALIM  MADRASAHA,124803,Madrasha,NILPHAMARI,DIMLA UPAZILA,DAKSHIN SONAKHULI,89.01344,26.00358,7836,1
CHOTOKHATA FAZIL MADRASAH,124808,Madrasha,NILPHAMARI,DIMLA UPAZILA,CHHOTA KHATA,89.03758,26.11644,7837,1
KHALISHA CHAPNANI FAZIL MADRASAH,124800,Madrasha,NILPHAMARI,DIMLA UPAZILA,KHALISA CHAPANI,89.01994,26.15706,7838,1
KHALISHA CHANI BAPARI TOLA ALIM MADRASAH,124801,Madrasha,NILPHAMARI,DIMLA UPAZILA,KHALISA CHAPANI,89.03342,26.15633,7839,1
DOHAL PARA JANATA  ALIM  MADRASHA,124817,Madrasha,NILPHAMARI,DIMLA UPAZILA,DOLPARA,89.00389,26.11164,7840,1
AKASHKURI MUNSHIPAR DAKHIL MADRASHA,124820,Madrasha,NILPHAMARI,DIMLA UPAZILA,AKASHKURI,88.92383,26.19333,7841,1
KAKRA SUKHAN DHIGHI DAKHIL MADRASAHA,124807,Madrasha,NILPHAMARI,DIMLA UPAZILA,KAKRA,88.93458,26.20314,7842,1
JHUNAGACH CHPANI KAKRA DAKHIL  MADRASAH,124819,Madrasha,NILPHAMARI,DIMLA UPAZILA,KAKRA,88.92222,26.19567,7843,2
SHALHATI ISLAMIA DAKHIL MADRASHA,124818,Madrasha,NILPHAMARI,DIMLA UPAZILA,SALHATI,88.98764,26.12717,7844,1
UTTAR chATANaI KaRAMTIa DAKHIL MADRASAH,124806,Madrasha,NILPHAMARI,DIMLA UPAZILA,THAKURGANJ,88.95044,26.10736,7845,1
CHHATNAHI BARO BESH DAKHIL MADRASAH,124814,Madrasha,NILPHAMARI,DIMLA UPAZILA,CHHATNAI,88.88183,26.26019,7846,1
DAKHIN KHARIBARI M.P. DAKHIL MADRASHA,124812,Madrasha,NILPHAMARI,DIMLA UPAZILA,DAKSHIN KHARIBARI,88.88242,26.26961,7847,1
KAZIRHAT  PANTHAPARA  IDEAL  ALIM   MADRASHA,124961,Madrasha,NILPHAMARI,JALDHAKA UPAZILA,KAZIRHAT (NORTH),89.00803,26.02578,7850,1
KHOCHIMADA EID GAH MATH ISLAMIA DAKHIL MADRASHA,124957,Madrasha,NILPHAMARI,JALDHAKA UPAZILA,KHACHIMADA,88.877,26.05817,7853,1
GORDHARMOPAL ISLAMIA FAZIL MADRASHA,124950,Madrasha,NILPHAMARI,JALDHAKA UPAZILA,GAR DHARMAPAL,88.89947,26.08533,7854,1
GOLNA ISLAMIA FAZIL MADRASHA,124951,Madrasha,NILPHAMARI,JALDHAKA UPAZILA,CHIRABHIJA GOLNA,88.90478,26.08406,7855,1
PASDHIM GOLNA DARUSSALAM BALIKA DAKHIL MADRASHA,124972,Madrasha,NILPHAMARI,JALDHAKA UPAZILA,KHARIJA GOLNA,88.92239,26.09586,7856,2
GOLMONDA FAZIL MADRASHA,124946,Madrasha,NILPHAMARI,JALDHAKA UPAZILA,PASCHIM GOLMUNDA,88.92239,26.09586,7857,2
TALUK  GOLNA  RASHIDUL  CHOW.  DAKHIL  MADRASHA,124959,Madrasha,NILPHAMARI,JALDHAKA UPAZILA,TALUK GOLNA,88.92244,26.09717,7858,1
BAMNA BAMNI ISLAMIA DAKHIL MADRRASHA,124971,Madrasha,NILPHAMARI,JALDHAKA UPAZILA,BAONABAONI,88.99747,25.97917,7862,2
KHALISHA  KHUTAMARA  DAKHIL  MADRASHA,124970,Madrasha,NILPHAMARI,JALDHAKA UPAZILA,ARAZI KATALI,88.92919,25.98439,7863,1
KHUTAMARA ALIM MADRASHA,124948,Madrasha,NILPHAMARI,JALDHAKA UPAZILA,PASCHIM KHUTAMARA,88.97172,25.96344,7864,1
PATAHAN PARA M U ALIM MADRASA,124944,Madrasha,NILPHAMARI,JALDHAKA UPAZILA,ARAZI PATHAN PARA,88.96386,25.97661,7865,1
BANSHDASHA EMDADIA D S DAKHIL MADRASHA,124958,Madrasha,NILPHAMARI,JALDHAKA UPAZILA,BANSHDAHA,88.94572,26.02208,7866,1
MIRZA HABIBUR RAHMAN BEG DAKHIL MADRASHA,124969,Madrasha,NILPHAMARI,JALDHAKA UPAZILA,GHUGUMARI,88.94075,26.04106,7867,1
LAXMIMARI  AHAMMADIA  DAKHIL MADRASHA,124960,Madrasha,NILPHAMARI,JALDHAKA UPAZILA,LAKSHMIMARAI,88.91164,26.03086,7868,1
SHIMUL  BARI  KASHIM  BAZAR  DAKHIL  MADRSSHA,124968,Madrasha,NILPHAMARI,JALDHAKA UPAZILA,SHIMULBARI,88.89808,26.00567,7869,1
HAROWA  SHIMULBARI  D.D.  MADRASHA,124953,Madrasha,NILPHAMARI,JALDHAKA UPAZILA,HAROA SHIMULBARI,88.91775,26.00472,7870,1
UTTAR DESHI BAI FOYZUL ULLUM DAKHIL MADRASHA,124966,Madrasha,NILPHAMARI,JALDHAKA UPAZILA,UTTAR DESHIBAI,88.91072,26.01444,7871,1
SHOULMARI ANSARHAT ISLAMIA DIMUKI DAKHIL MADRASAH,124949,Madrasha,NILPHAMARI,JALDHAKA UPAZILA,TALUK SAULMARI,88.90294,26.03725,7872,1
RAZARHAT KABADI R.M ALIM MADRASHA,124955,Madrasha,NILPHAMARI,JALDHAKA UPAZILA,DAKSHIN DESHIBAI,88.91208,26.02867,7873,1
DELWAR  HOSEN  CHOWDHURY  DARUL  ULUM  DAKIL  MADRASHA,124962,Madrasha,NILPHAMARI,JALDHAKA UPAZILA,BAGULAGARI (PART),89.05453,26.00553,7874,2
JALDHAKA  DAKHIL  MADRASHA,124952,Madrasha,NILPHAMARI,JALDHAKA UPAZILA,JALDHAKA (PART),89.01833,26.02178,7875,1
PURBA BALAGRAM SAKHINA DAKHIL MADRASAH,124954,Madrasha,NILPHAMARI,JALDHAKA UPAZILA,PURBA BALAGRAM,88.98517,26.05222,7876,3
BALAPARA  DARUS  SALAM  DAKHIL  MADRASHA,124965,Madrasha,NILPHAMARI,JALDHAKA UPAZILA,BALA PARA,89.05972,25.97097,7877,1
KAIMARI ALIM MADRASHA,124956,Madrasha,NILPHAMARI,JALDHAKA UPAZILA,KAIMARI,89.04214,25.97206,7878,2
DAKSHIN DURAKUTI EKRAMIA DAKHIL MADRASHA,125037,Madrasha,NILPHAMARI,KISHOREGANJ UPAZILA,DAKSHIN DURAKUTHI,89.05381,26.01806,7879,2
DASKHIN BAHAGILY DARUS SUNNAT DAKHIL MADRASHA,125044,Madrasha,NILPHAMARI,KISHOREGANJ UPAZILA,DAKSHIN DURAKUTHI,88.98689,26.00031,7880,2
UTTAR DURAKUTI KUDRATIA DAKHIL MADRASHA,125039,Madrasha,NILPHAMARI,KISHOREGANJ UPAZILA,UTTAR DURAKUTHI,89.05453,26.00553,7881,2
BARABHITA A.U. BAHUMOKHI FAZIL MADRASHA,125026,Madrasha,NILPHAMARI,KISHOREGANJ UPAZILA,UTTAR BARABHITA,89.00133,25.86494,7882,1
DAKKHIN BOROVITA BAYTUL ULUM DAKHIL MADRASHA,131575,Madrasha,NILPHAMARI,KISHOREGANJ UPAZILA,DAKSHIN BARABHITA,89.01275,25.83486,7883,1
MELABOR YOUSUFIA DAKHIL MADRASHA,125030,Madrasha,NILPHAMARI,KISHOREGANJ UPAZILA,MELABAR,88.99983,25.88994,7884,1
MELABOR GIRLS DAKHIL MADRASHA,125041,Madrasha,NILPHAMARI,KISHOREGANJ UPAZILA,MELABAR,89.01267,25.83192,7885,1
BARABHITA POSHCHIM PARA HOSAINIA ALIM MADRASHA,125029,Madrasha,NILPHAMARI,KISHOREGANJ UPAZILA,UTTAR BARABHITA,89.02992,25.95278,7886,1
CHANDKHANA BURIRHAT A.UDAKHIL MADRASHA,125028,Madrasha,NILPHAMARI,KISHOREGANJ UPAZILA,UTTAR CHANDKHANA,89.01147,25.95158,7887,1
GARAGRAM KHAIRIA DAKHIL MADRASHA,125033,Madrasha,NILPHAMARI,KISHOREGANJ UPAZILA,GARAGRAM,89.06328,25.90847,7888,2
DALIRAM ISLAMIA DAKHIL MADRASHA,125045,Madrasha,NILPHAMARI,KISHOREGANJ UPAZILA,PASCHIM DALIRAM,89.06328,25.90847,7889,2
KISHORGANG KESHABA FAZIL MADRASHA,125024,Madrasha,NILPHAMARI,KISHOREGANJ UPAZILA,KESBA,89.08328,25.90514,7890,1
MUSHA MODEL DAKHIL MADRASHA,125050,Madrasha,NILPHAMARI,KISHOREGANJ UPAZILA,MUSHA,89.02092,25.90028,7891,1
SINGERGARI JAHURIA SHARIF DAKHIL MADRASHA,125035,Madrasha,NILPHAMARI,KISHOREGANJ UPAZILA,DAKSHIN SINGERGARI,89.07781,25.84394,7892,2
MAGURA DOLARPARA ALIM MADRASHA,125031,Madrasha,NILPHAMARI,KISHOREGANJ UPAZILA,MAGURA,89.07561,25.86286,7893,1
MAGURA MUNSHIPARA DAKHIL MADRASHA,125036,Madrasha,NILPHAMARI,KISHOREGANJ UPAZILA,MAGURA,89.06969,25.84561,7894,1
SINGARGARI PURBAPARA GIRLS DAKHIL MADRASHA,125048,Madrasha,NILPHAMARI,KISHOREGANJ UPAZILA,UTTAR SINGERGARI,89.05275,25.85886,7895,1
NITAI DANGA PARA MAHBUBIYA DHAKIL MADRASHA,125046,Madrasha,NILPHAMARI,KISHOREGANJ UPAZILA,NITAI,89.08231,25.84644,7896,1
PANIAL PUKUR MAHATABIA ALIM  MADRASHA,125042,Madrasha,NILPHAMARI,KISHOREGANJ UPAZILA,PANIAL PUKUR,89.09697,25.87639,7897,1
BHERBHERI JUMMAPARA D.S. DAKHIL MADRASHA,125040,Madrasha,NILPHAMARI,KISHOREGANJ UPAZILA,BHERBHERI,88.9875,25.89803,7898,1
BHERBHERI KAMAL UDDIN DAKHIL MADRASHA,125038,Madrasha,NILPHAMARI,KISHOREGANJ UPAZILA,BHERBHERI,89.00994,25.92689,7899,1
UTTAR KALIKAPUR MUSLIM SHAHI DAKHIL MADRASHA,125025,Madrasha,NILPHAMARI,KISHOREGANJ UPAZILA,KALIKAPUR,88.99864,25.93717,7900,1
KALIKAPUR DAKHIL MADRASHA,125034,Madrasha,NILPHAMARI,KISHOREGANJ UPAZILA,KALIKAPUR,88.98442,25.95856,7901,1
RANACHANDI SAMSUL ULUM MADRASHA,125027,Madrasha,NILPHAMARI,KISHOREGANJ UPAZILA,RANACHANDI,88.98183,25.92364,7903,1
RANACHANDI BASUNIA PARA BALIKA DAKHIL MADRASHA,125032,Madrasha,NILPHAMARI,KISHOREGANJ UPAZILA,RANACHANDI,89.05603,25.93036,7904,2
NILFAMARI MOHILA DAKHIL MADRASA,125181,Madrasha,NILPHAMARI,NILPHAMARI SADAR UPAZ,MADHYA HARUA,88.85228,25.93344,7905,1
BERA DANGA JADUR HAT DAKHIL MADRASA,125175,Madrasha,NILPHAMARI,NILPHAMARI SADAR UPAZ,SARAMJAMI CHAPRA,88.76367,25.94436,7906,1
CHAPRA BANIA PARA B /L DAKHIL MADRASAHA,125157,Madrasha,NILPHAMARI,NILPHAMARI SADAR UPAZ,SARAMJAMI CHAPRA,88.83833,25.93178,7907,1
DAKHIN RAMKALA BL- DHAHIL MADRASHA,125167,Madrasha,NILPHAMARI,NILPHAMARI SADAR UPAZ,RAMKALA,88.84239,25.93192,7908,1
PASCHIM CHPRA ALIM MADRASAH,125153,Madrasha,NILPHAMARI,NILPHAMARI SADAR UPAZ,SARAMJAMI CHAPRA,88.75039,25.957,7909,1
KISMAT CHARAIKHOLA DAKHIL MADRASAH,125161,Madrasha,NILPHAMARI,NILPHAMARI SADAR UPAZ,KISMAT CHARAIKHOLA,88.91233,25.89261,7910,1
KANCHANON PARA ADARSHA GRAME DAKHIL MADRASAH,131552,Madrasha,NILPHAMARI,NILPHAMARI SADAR UPAZ,KANCHAN PARA,88.76828,26.01367,7911,1
NATIBARI EKRAMIA DAKHIL MADRASAH,125162,Madrasha,NILPHAMARI,NILPHAMARI SADAR UPAZ,KANCHAN PARA,88.77633,26.01972,7912,1
BORAI BARI ISLAMIA DAKHIL MADRASAH,125171,Madrasha,NILPHAMARI,NILPHAMARI SADAR UPAZ,KIRTANIA PARA,88.77167,25.96575,7913,2
BAMNA BAMNI KACHUKATA GIRLS DAKHIL MADRASHA,125184,Madrasha,NILPHAMARI,NILPHAMARI SADAR UPAZ,KACHUKATA,88.8295,25.91611,7914,1
KANIALKHATA B\L DAKHIL MADRASAH,125160,Madrasha,NILPHAMARI,NILPHAMARI SADAR UPAZ,KANIALKHATA (PART),88.86936,25.93133,7915,1
SINGDI DAKHIL MADRASAH,125156,Madrasha,NILPHAMARI,NILPHAMARI SADAR UPAZ,SINDAI,88.87039,25.91192,7916,1
DUHULI ALIM MADRSAH,125152,Madrasha,NILPHAMARI,NILPHAMARI SADAR UPAZ,DUHULI,88.93647,25.94622,7917,1
DONDARI GIRLS DAKHIL MADRASHA,125180,Madrasha,NILPHAMARI,NILPHAMARI SADAR UPAZ,DONDARI,88.93075,25.96483,7918,1
KACHUKATA UTTAR PARA DAKHIL MADRASHA,125159,Madrasha,NILPHAMARI,NILPHAMARI SADAR UPAZ,KACHUKATA,88.92731,25.95225,7919,1
BAJIT PARA (DANGA PARA) GIRLS DAKHIL MADRASHA,125146,Madrasha,NILPHAMARI,NILPHAMARI SADAR UPAZ,KACHUKATA,88.95878,25.95583,7920,1
MAZDANGA TAYMUNNESA D K M DAKHIL MADRASHA,125149,Madrasha,NILPHAMARI,NILPHAMARI SADAR UPAZ,KHOKSABARI,88.7505,25.95717,7921,1
PANCHAPUKUR SENIOR ALIM MADRASHA,125147,Madrasha,NILPHAMARI,NILPHAMARI SADAR UPAZ,PANCH PUKUR,88.87131,25.90156,7922,1
UTTARA  SHASHI HABIBIA DAKHIL MADRASAH,125148,Madrasha,NILPHAMARI,NILPHAMARI SADAR UPAZ,UTTAR SHASHI,88.80061,25.90758,7923,1
PALASH BARI DAKHIL MADRASA,125183,Madrasha,NILPHAMARI,NILPHAMARI SADAR UPAZ,PALASHBARI,88.94294,25.91792,7924,1
TARANIBARI DAKHIL MADRASAH,125172,Madrasha,NILPHAMARI,NILPHAMARI SADAR UPAZ,KAKAI BARGACHHA,88.85267,25.93367,7925,1
DUBA SURI B.L DHAKHIL MADRSAH,131593,Madrasha,NILPHAMARI,NILPHAMARI SADAR UPAZ,DUBACHHURI,88.85431,25.93269,7926,1
LAKSHMICHAP D. D.S. DAKHIL MADRASAHA,125150,Madrasha,NILPHAMARI,NILPHAMARI SADAR UPAZ,LAKSHMI CHAP,88.86181,26.00817,7927,1
SHODEB BARA GACHA DAKHIL MADRASHA,125176,Madrasha,NILPHAMARI,NILPHAMARI SADAR UPAZ,LAKSHMI CHAP,88.82972,26.02967,7928,1
CHANDER HAT FAZIL MADRASHA,125164,Madrasha,NILPHAMARI,NILPHAMARI SADAR UPAZ,BISHMURI,88.906,25.95222,7930,1
CHARCHRA BARI DARUS SUNNAT ALIM MADRASAH,125144,Madrasha,NILPHAMARI,NILPHAMARI SADAR UPAZ,CHAR CHARABARI,88.9045,25.95125,7931,1
DOKHIN RAMNAGAR BALIKA DAKHIL MADRASHA,125185,Madrasha,NILPHAMARI,NILPHAMARI SADAR UPAZ,BISHMURI,88.90539,25.99825,7932,1
SANGALSHI HAZIPARA ALIM MADRASAH,125154,Madrasha,NILPHAMARI,NILPHAMARI SADAR UPAZ,BARA SANGALSHI,88.90389,25.95397,7933,1
BERADUTHI BARUA DAKHIL MADRASHA,125182,Madrasha,NILPHAMARI,NILPHAMARI SADAR UPAZ,BERAKUTHI,88.82789,25.82128,7934,1
FAKIRGANJ CHAK-BERA DAKHIL MADRASAH,125165,Madrasha,NILPHAMARI,NILPHAMARI SADAR UPAZ,SONAROY,88.8355,25.8825,7935,1
DAROANI KUNDUPUKUR MONIRUDDIN DAKHIL MADRASAH,125155,Madrasha,NILPHAMARI,NILPHAMARI SADAR UPAZ,KUNDA PUKUR,88.84122,25.88442,7936,1
KAZIRHAT FAZIL MADRASAH,125143,Madrasha,NILPHAMARI,NILPHAMARI SADAR UPAZ,SONAROY,88.82689,25.86125,7937,1
NITTANANDI PATWARI PARA DAKHIL MADRASA,125169,Madrasha,NILPHAMARI,NILPHAMARI SADAR UPAZ,NITYANANDI,88.83744,25.94686,7939,1
TUPAMARI FAZIL MADRASAH,125142,Madrasha,NILPHAMARI,NILPHAMARI SADAR UPAZ,TUPAMARI,88.84908,25.937,7941,2
MUSROT GORGRAM DAKHIL MADRASHA,125186,Madrasha,NILPHAMARI,NILPHAMARI SADAR UPAZ,MUSURAT GORGRAM,88.84908,25.937,7943,2
HAZIPARA  DAKHIL  MADRASHA,125232,Madrasha,NILPHAMARI,SAIDPUR UPAZILA,MUSARAT DHULIA,88.92008,25.97725,7944,1
KACHUKATA MAJAPARA FAZIL MADRASAH,125151,Madrasha,NILPHAMARI,NILPHAMARI SADAR UPAZ,MADHAYA NILPHAMARI TOWN,88.86497,25.99842,7945,1
SAIDPUR RAZZAKIA GOFURIA DARUS SUNNAT DAKHIL MADRASHA,125238,Madrasha,NILPHAMARI,SAIDPUR UPAZILA,KAYA GOLAHAT DAKSHIN,88.87567,25.80472,7946,1
SAEDPUR ASMOTIA DAKHIL MADRASAHA,125237,Madrasha,NILPHAMARI,SAIDPUR UPAZILA,KAYA GOLAHAT UTTAR,88.89217,25.7835,7947,1
LASMANPUR BALAPARA ISLAMIA DAKHIL MADRASA,125239,Madrasha,NILPHAMARI,SAIDPUR UPAZILA,BARA SAIL PARA (PART,88.89583,25.76231,7948,1
PORARHAT SIDDIKIA ALIM MADRASHA,125234,Madrasha,NILPHAMARI,SAIDPUR UPAZILA,KISMAT KADIKHOL,88.93553,25.74219,7949,1
SHASKANDAR SENIOR  MADRASHA,125231,Madrasha,NILPHAMARI,SAIDPUR UPAZILA,SASHKANDAR,88.907,25.77075,7950,1
SONAKULI MUNSHIPARA KAMIL MADRASHA,125227,Madrasha,NILPHAMARI,SAIDPUR UPAZILA,SONAKHULI,88.86428,25.80789,7951,1
UTTAR SOMAHOLI SARKAR PARA DAKHIL MADRASAH,125235,Madrasha,NILPHAMARI,SAIDPUR UPAZILA,SONAKHULI,88.85283,25.79042,7952,1
Aisdhal khairpara alim and vocational madrasaha,125228,Madrasha,NILPHAMARI,SAIDPUR UPAZILA,AISDHAL,88.90344,25.84372,7953,1
CHAPRA KASHIRAM ALIM MADRASAHA,125229,Madrasha,NILPHAMARI,SAIDPUR UPAZILA,KASHIRAM BELPUKUR,88.91947,25.81353,7954,2
HAZARIHAT MOHAMMADIA ALIM MADRASHA,125236,Madrasha,NILPHAMARI,SAIDPUR UPAZILA,KASHIRAM BELPUKUR,88.94147,25.85764,7955,2
KUMAR GARI DAKHIL MADRASA,125240,Madrasha,NILPHAMARI,SAIDPUR UPAZILA,KUMARGARI,88.93128,25.85594,7956,1
PASCHIM BELPUKUR MAJHA PARA BALIKA DAKHIL MADRASA,131697,Madrasha,NILPHAMARI,SAIDPUR UPAZILA,PASCHIM BELPUKUR,88.92069,25.83086,7957,1
HUKLI PARA EKRAMIA DAKHIL MADRASHA,125233,Madrasha,NILPHAMARI,SAIDPUR UPAZILA,KISMAT DANGI,88.95497,25.83542,7958,1
MUSHRUT DHOLIA DAKHIL MADRASHA,125230,Madrasha,NILPHAMARI,SAIDPUR UPAZILA,MUSARAT DHULIA,88.95622,25.83317,7959,1
BAMUNIA JUNIOR GIRLS SCHOOL,124861,School,NILPHAMARI,DOMAR UPAZILA,BAMUNIA,89.16799,25.43449,20816,1
BAMUNIA S .C. HIGH SCHOOL,124837,School,NILPHAMARI,DOMAR UPAZILA,BAMUNIA,89.2289,25.46827,20817,1
UTTAR BHOGDABURI HIGH SCHOOl,124841,School,NILPHAMARI,DOMAR UPAZILA,PURBA BHOGDABARI,89.15214,25.40235,20818,1
CHILAHATI MERCHANTS HIGH SCHOOL,124829,School,NILPHAMARI,DOMAR UPAZILA,NIJ BHOGDABARI,88.79478,26.29157,20819,1
KHANKAYA KERAMATIA HIGH SCHOOL,124851,School,NILPHAMARI,DOMAR UPAZILA,NIJ BHOGDABARI,88.79705,26.25176,20820,1
CHILAHATI KARENGATALI HIGH SCHOOL,124843,School,NILPHAMARI,DOMAR UPAZILA,GOSAIGANJA,88.79757,26.25006,20821,1
PASCHIM BORAGARI  HIGH SCHOOL,124858,School,NILPHAMARI,DOMAR UPAZILA,PASCHIM BORAGARI,88.80059,26.21328,20822,1
MAHIGONJ HIGH SCHOOL,124842,School,NILPHAMARI,DOMAR UPAZILA,BAGHDOKRA,88.84098,26.20029,20823,1
BAKDOKRA  ADARSHA HIGH SCHOOL,124846,School,NILPHAMARI,DOMAR UPAZILA,BAGHDOKRA,88.80616,26.17388,20824,1
BARA ROUTA HIGH SCHOOL,124859,School,NILPHAMARI,DOMAR UPAZILA,BARA RAUTA,88.81124,26.12813,20825,1
DOMAR BALIKA BIDDAY NIKETON,124832,School,NILPHAMARI,DOMAR UPAZILA,CHIKANMATI,88.81499,26.11116,20826,1
DOMAR MULTILATERAL HIGH SCHOOL,124831,School,NILPHAMARI,DOMAR UPAZILA,CHOTTA ROUTA MIDDLE,88.82848,26.10658,20827,1
DOMAR GOVT. GIRLS  HIGH SCHOOL,124830,School,NILPHAMARI,DOMAR UPAZILA,CHIKANMATI,88.82378,26.10388,20828,1
AMBARI JR GIRLS SCHOOL,124850,School,NILPHAMARI,DOMAR UPAZILA,UTTAR AMBARI,88.82394,26.09635,20829,1
GOMNATI HIGH SCHOOL,124835,School,NILPHAMARI,DOMAR UPAZILA,GOMNATI,88.76663,26.08539,20830,1
AMBARY BANGABANDHU High SCHOOL,124845,School,NILPHAMARI,DOMAR UPAZILA,PURBA AMBARI,88.83218,26.07809,20831,1
SHALMARA B N  HIGH SCHOOL,124836,School,NILPHAMARI,DOMAR UPAZILA,SALMARA,88.83803,26.04484,20832,1
ATIA BARI HIGH SCHOOL,124853,School,NILPHAMARI,DOMAR UPAZILA,ATIABARI,88.84387,26.06276,20833,1
JORABARI GIRLS HIGH SCHOOL,124854,School,NILPHAMARI,DOMAR UPAZILA,JORABARI,88.83259,26.11242,20834,1
HALHALIA ADARSHA BIDYA NIKETAN,124862,School,NILPHAMARI,DOMAR UPAZILA,HALHALIA,88.83037,26.10264,20835,1
MIRZA GONJ  BL .  HIGH SCHOOL,124834,School,NILPHAMARI,DOMAR UPAZILA,MIRZAGANJ,88.86618,26.0967,20836,1
DAKSHIN CHAND KHANA JUNIOR SCHOOL,124855,School,NILPHAMARI,DOMAR UPAZILA,CHANDKHANA,88.88544,26.12055,20837,1
CHAND KHANA G.R HIGH SCHOOL,124833,School,NILPHAMARI,DOMAR UPAZILA,CHANDKHANA,88.88914,26.14327,20838,1
PANGA MOHESH CHANDRA LALA HIGH SCHOOL,124840,School,NILPHAMARI,DOMAR UPAZILA,PANGA,88.86939,26.1585,20839,1
SOUTH MATUK PUR HIGH SCHOOL,124849,School,NILPHAMARI,DOMAR UPAZILA,MATUKPUR,88.85996,26.16407,20840,1
SONARAY FARMHAT JUNIOR HIGH SCHOOL,124857,School,NILPHAMARI,DOMAR UPAZILA,SONAROY,88.85205,26.19766,20841,1
KHATURIA HIGH SCHOOL,124848,School,NILPHAMARI,DOMAR UPAZILA,KHATURIA,88.82386,26.2183,20842,1
SONARAY BI LATERAL HIGH SCHOOL,124839,School,NILPHAMARI,DOMAR UPAZILA,SONAROY,88.83876,26.23329,20843,1
BROGACHHA B.L.-LETTAREL  HIGH SCHOOL,124856,School,NILPHAMARI,DOMAR UPAZILA,BARAGACHHA,88.79728,26.246,20844,1
PANGA GIRLS HIGH SCHOOL,124860,School,NILPHAMARI,DOMAR UPAZILA,PANGA,88.79675,26.17164,20845,1
JAMIR BARI JUNIOR ADARSH GIRLS SCHOOL,124870,School,NILPHAMARI,DOMAR UPAZILA,JAMIRBARI,88.78232,26.25947,20846,1
TIN BAT SHAHID SRITEE JUNIOR HIGH SCHOOL,124867,School,NILPHAMARI,DOMAR UPAZILA,MATUKPUR,88.88866,26.14171,20847,1
UTTOR MATUKPUR JUNIOR GIRLS SCHOOL,124869,School,NILPHAMARI,DOMAR UPAZILA,MATUKPUR,88.76751,26.08546,20848,1
HANGSHARAJ BL GIRLS HIGH SCHOOL,124868,School,NILPHAMARI,DOMAR UPAZILA,HANGSARAJ,88.79514,26.05779,20850,1
SHAHID ZIA GIRLS JUNIOR HIGH SCHOOL,124871,School,NILPHAMARI,DOMAR UPAZILA,GOMNATI,88.88399,26.11586,20851,1
MONIR UDDIN SARKAR JUNIOR SCHOOL,124866,School,NILPHAMARI,DOMAR UPAZILA,DAKSHIN GOMATI,88.88551,26.11656,20852,1
SHAHRIN ISLAM CHOW. (TUHIN) JUNIOR SCHOOL,124863,School,NILPHAMARI,DOMAR UPAZILA,CHHOTA RAUTA,88.8823,26.11778,20853,1
KATAL TULI high school,124872,School,NILPHAMARI,DOMAR UPAZILA,NIJ BHOGDABARI,88.88413,26.11793,20854,1
BORAGARI GIRLS HIGH SCHOOL,124865,School,NILPHAMARI,DOMAR UPAZILA,PURBA BHOGDABARI,88.84023,26.05692,20855,1
NODABASH JUNIOR SCHOOL,124873,School,NILPHAMARI,DOMAR UPAZILA,NAODABAS,88.86471,26.20333,20856,1
BALAPARANEWMODELGIRLSHIGHSCHOOL,124790,School,NILPHAMARI,DIMLA UPAZILA,CHHATNAI BALA PARA,88.77248,26.24563,20857,1
BALAPARA HIGH SCHOOL,124917,School,NILPHAMARI,DIMLA UPAZILA,CHHATNAI BALA PARA,88.81499,26.1138,20858,1
UTTAR NAWTARA bl high SCHOOL,124796,School,NILPHAMARI,DIMLA UPAZILA,CHHATNAI,88.83785,26.15547,20859,1
JATUA KHATA BL. HIGH SCHOOL,124762,School,NILPHAMARI,DIMLA UPAZILA,DAKSHIN KHARIBARI,88.90769,26.20975,20860,1
DIMLA  ADARSHA HIGH SCHOOL,124775,School,NILPHAMARI,DIMLA UPAZILA,DIMLA,88.90819,26.17653,20861,1
DIMLA RANI BRINDA RANI GOVERNMENT HIGH SCHOOL,124755,School,NILPHAMARI,DIMLA UPAZILA,BABURHAT,88.90664,26.25181,20862,1
DIMLA TITPARA ADARSHA HIGH SCHOOL,124784,School,NILPHAMARI,DIMLA UPAZILA,UTTAR TITA PARA,88.92058,26.20533,20863,1
PACHARHAT JUNIOR HIGH SCHOOL,124798,School,NILPHAMARI,DIMLA UPAZILA,PACHARHAT,88.91097,26.17653,20864,1
DIMLA HIGH SCHOOL,124781,School,NILPHAMARI,DIMLA UPAZILA,DAKSHIN TITA PARA,88.98581,26.18558,20865,1
DIMLA GOVT. GIRLS HIGH SCHOOL,124754,School,NILPHAMARI,DIMLA UPAZILA,DAKSHIN TITA PARA,88.93025,26.13628,20866,1
GAYA KHARI BARI ADARSA B/L GIRLS HIGH SCOOL,124773,School,NILPHAMARI,DIMLA UPAZILA,GAYABARI,88.91997,26.12831,20868,1
NAUTARABREZER PAR HIGH SCHOOL,124793,School,NILPHAMARI,DIMLA UPAZILA,PASCHIM KHARIBARI,88.92283,26.15375,20869,1
PASCHIM KHARIBARI HIGH SCHOOL,124786,School,NILPHAMARI,DIMLA UPAZILA,PASCHIM KHARIBARI,88.92633,26.15069,20870,1
SONAKHULI HAZI JAHARATULLAH HIGH SCHOOL,124759,School,NILPHAMARI,DIMLA UPAZILA,DAKSHIN SONAKHULI,88.9935,26.18369,20871,1
JHUNAGACH CHAPANI B.L. HIGH SCHOOL,124758,School,NILPHAMARI,DIMLA UPAZILA,DAKSHIN JHUNAGACHH C,88.95075,26.20219,20872,1
MASTERPARA GIRLS HIGH SCHOOL,124767,School,NILPHAMARI,DIMLA UPAZILA,DAKSHIN JHUNAGACHH C,88.96814,26.20425,20873,2
SONAKHULI CHAPANI SAYKET JUNIOR SCHOOL,124785,School,NILPHAMARI,DIMLA UPAZILA,UTTAR JHUNAGACHH CHA,88.99269,26.15508,20874,1
UTTAR JHUNAGACH CHAPANI GIRLS HIGH SCHOOL,124779,School,NILPHAMARI,DIMLA UPAZILA,UTTAR JHUNAGACHH CHA,88.99717,26.18364,20875,1
DAILA BI-LATERA HIGH SCHOOL,124768,School,NILPHAMARI,DIMLA UPAZILA,DALIA,89.04461,26.11761,20876,1
DALIA SHISHU NIKATON HIGH SCHOOL,124769,School,NILPHAMARI,DIMLA UPAZILA,DALIA,89.02144,26.10908,20877,1
DALIA CHAPANI HIGH SCHOOL,124774,School,NILPHAMARI,DIMLA UPAZILA,DALIA,89.02506,26.10478,20878,1
ADARSHA  GIRLS HIGH SCHOOL,DIMLA,124791,School,NILPHAMARI,DIMLA UPAZILA,DALIA,89.05369,26.09592,20879,1
KHAGA KHARIBARI B.L. HIGH SCHOOL,124760,School,NILPHAMARI,DIMLA UPAZILA,KHOGA KHARIBARI,89.03761,26.15522,20880,1
AKASHKURI HIGH SCHOOL,124761,School,NILPHAMARI,DIMLA UPAZILA,AKASHKURI,88.92222,26.19567,20881,2
NAUTARA ABIUNNESSA BL HIGH SCHOOL,124757,School,NILPHAMARI,DIMLA UPAZILA,NAOTARA,88.9575,26.18653,20882,1
SHALHATI B.L. HIGH SCHOOL,124780,School,NILPHAMARI,DIMLA UPAZILA,SALHATI,88.92989,26.21392,20883,1
KALIGANJ HIGH SCHOOL,124776,School,NILPHAMARI,DIMLA UPAZILA,KALIGANJA,88.96933,26.10656,20884,1
PASCHIM CHHATNAI GIRLS HIGH SCHOOL,124789,School,NILPHAMARI,DIMLA UPAZILA,MADHYA CHHATNAI,88.9655,26.17197,20885,1
PASCHIM CHHATNAI SUNRISE JUNIOR GIRLS SCHOOL,124788,School,NILPHAMARI,DIMLA UPAZILA,THAKURGANJ,88.99244,26.12053,20886,1
CHHATNAI HIGH SCHOOL,124763,School,NILPHAMARI,DIMLA UPAZILA,THAKURGANJ,89.014,26.10053,20887,1
CHHATNAI COLONY MULTILARAL HIGH SCHOOL,124764,School,NILPHAMARI,DIMLA UPAZILA,PURBA CHHATNAI,88.90508,26.27414,20888,1
PURBA CHHATNAI ADARSHA GIRLS SCHOOL,124772,School,NILPHAMARI,DIMLA UPAZILA,PURBA CHHATNAI,88.88358,26.254,20889,1
DAKSIN KAKRA SAIFUN SIDE JUNIOR HIGH SCHOOL,124782,School,NILPHAMARI,DIMLA UPAZILA,KAKRA,88.93292,26.24147,20890,1
SATJAN HIGH SCHOOL,124765,School,NILPHAMARI,DIMLA UPAZILA,SATJAN,88.92711,26.24181,20891,1
MALEKA BEGUM GIRLS HIGH SCHOOL,124929,School,NILPHAMARI,JALDHAKA UPAZILA,BAGULAGARI (PART),88.99517,26.01394,20895,1
BAGULAGARI HIGH SCHOOL,124912,School,NILPHAMARI,JALDHAKA UPAZILA,BAGULAGARI (PART),89.01653,26.01892,20896,1
BALAGRAM  HIGH SCHOOL,124928,School,NILPHAMARI,JALDHAKA UPAZILA,PURBA BALAGRAM,88.98883,26.01353,20897,1
BALAGRAM JR.  GIRLS SCHOOL,124942,School,NILPHAMARI,JALDHAKA UPAZILA,PURBA BALAGRAM,89.01919,26.01339,20898,1
KHACHIMADA JUNIOR SCHOOL,124931,School,NILPHAMARI,JALDHAKA UPAZILA,KHACHIMADA,88.98517,26.05222,20902,3
KHERKATI HIGH SCHOOL,124914,School,NILPHAMARI,JALDHAKA UPAZILA,KHERKATI,89.01892,26.0515,20903,1
RASHIDPUR GIRLS HIGH SCHOOL,124932,School,NILPHAMARI,JALDHAKA UPAZILA,RASIDPUR,89.06639,26.0415,20904,1
BHABANCHUR JR. GIRLS SCHOOL,124938,School,NILPHAMARI,JALDHAKA UPAZILA,PURBA GOLMUNDA,88.93031,26.06219,20905,1
GOLAMUNDA ADARSHA JR.GIRLS SCHOOL,124939,School,NILPHAMARI,JALDHAKA UPAZILA,PASCHIM GOLMUNDA,88.88944,26.05775,20906,1
GOLMUNDA B.L.HIGH SCHOOL,124898,School,NILPHAMARI,JALDHAKA UPAZILA,PASCHIM GOLMUNDA,88.92097,26.07394,20907,1
BHABONCHUR MARATESSTA SYFUNE HIGH SCHOOL,124925,School,NILPHAMARI,JALDHAKA UPAZILA,BHABANCHUR,88.93067,26.0605,20908,1
CHIRAVIZA  GOLNA  B.L HIGH   SCHOOL,124905,School,NILPHAMARI,JALDHAKA UPAZILA,CHIRABHIJA GOLNA,88.93061,26.0605,20909,1
GOLNA KALI GANJ SHAHID SMRITI HIGH SCHOOL,124902,School,NILPHAMARI,JALDHAKA UPAZILA,KALIGANJ,89.03711,26.07336,20910,2
KHARIZA GOLNA DIGHIR PAR GIRLS HIGH SCHOOL,124924,School,NILPHAMARI,JALDHAKA UPAZILA,KHARIJA GOLNA,89.03711,26.07336,20911,2
BALAPARA GABROL KACHARI GIRLS HIGH SCHOOL,124930,School,NILPHAMARI,JALDHAKA UPAZILA,BALA PARA,88.90583,26.10367,20913,1
BINNAKURI B.C.S B.L HIGH SCHOOL,124907,School,NILPHAMARI,JALDHAKA UPAZILA,BINYAKURI,89.03756,26.07339,20914,1
GABROL TAHOSHILDAR PARA HIGH SCHOOL,124922,School,NILPHAMARI,JALDHAKA UPAZILA,GABROL,88.93878,26.06669,20915,1
TALUKBADI JUNIOR HIGH SCHOOL,124935,School,NILPHAMARI,JALDHAKA UPAZILA,TALUKBADI,88.931,26.09294,20916,1
WEST KANTHLI GIRLS High SCHOOL,124936,School,NILPHAMARI,JALDHAKA UPAZILA,PASCHIM KANTHALI,89.05042,25.99922,20918,2
UTTAR DESHIBAI JUNIOR SCHOOL,124940,School,NILPHAMARI,JALDHAKA UPAZILA,UTTAR DESHIBAI,89.07494,25.98764,20919,1
KANTHALI S.C HIGH SCHOOL,124910,School,NILPHAMARI,JALDHAKA UPAZILA,PASCHIM KANTHALI,89.09581,25.96253,20920,1
HARISH CHANDRA PATH  HIGH  SCHOOL and college,124908,School,NILPHAMARI,JALDHAKA UPAZILA,HARISCHANDRA PAT,88.97717,26.01078,20923,2
PATHANPARA HIGH SCHOOL,124903,School,NILPHAMARI,JALDHAKA UPAZILA,ARAZI PATHAN PARA,88.98972,25.9795,20926,1
MIRGONJHAT ML. HIGH SCHOOL,124901,School,NILPHAMARI,JALDHAKA UPAZILA,PURBA SHIMULBARI,88.99747,25.97917,20927,2
DAKHIN PATHAN PARA H.B.M GIRLS HIGH SCHOOL,124920,School,NILPHAMARI,JALDHAKA UPAZILA,ARAZI PATHAN PARA,88.98267,25.97747,20928,2
SHIMUL BARI S.C HIGH SCHOOL,124900,School,NILPHAMARI,JALDHAKA UPAZILA,ARAZI SHIMULBARI,88.94583,26.02086,20929,1
BERUBANDA HAT B.L HIGH SCHOOL,124918,School,NILPHAMARI,JALDHAKA UPAZILA,BERUBAND,88.94111,26.04081,20930,1
GHUGHUMARI  JUNIOR HIGH SCHOOL,124919,School,NILPHAMARI,JALDHAKA UPAZILA,GHUGUMARI,88.94775,26.01833,20931,1
CHERANGA JHARAPARA HIGH SCHOOL,124923,School,NILPHAMARI,JALDHAKA UPAZILA,CHERENGA (PART),88.9165,26.04472,20932,1
SINGRIA BALA DANGA JUNIOR HIGH SCHOOL,124921,School,NILPHAMARI,JALDHAKA UPAZILA,CHERENGA (PART),89.08761,26.00264,20933,1
JALDHAKA PILOT GIRL'S HIGH SCHOOL,124906,School,NILPHAMARI,JALDHAKA UPAZILA,JALDHAKA (PART),88.97717,26.01078,20934,2
JALDHAKA PILOT HIGH SCHOOL,124897,School,NILPHAMARI,JALDHAKA UPAZILA,JALDHAKA (PART),89.07886,26.01256,20935,2
AL-HAJ MOBARAK HOSSAIN ANIRBAN BYDDA TIRTHA M,L HIGH SCHOOL,124915,School,NILPHAMARI,JALDHAKA UPAZILA,MATHABHANGA,89.05381,26.01806,20936,2
SHOULMARI ML HIGH SCHOOL,124899,School,NILPHAMARI,JALDHAKA UPAZILA,TALUK SAULMARI,88.98689,26.00031,20937,2
NEKBAKTA HIGH SCHOOL,124904,School,NILPHAMARI,JALDHAKA UPAZILA,NEKBAKTA,88.98769,26.07097,20938,1
DAKSHIN PAITKAPARA JUNIOR GIRLS SCHOOL,124941,School,NILPHAMARI,JALDHAKA UPAZILA,PAITKA PARA DHARAMPA,89.02283,26.02978,20939,1
GAR DHARMOPAL SC. HIGH SCHOOL,124916,School,NILPHAMARI,JALDHAKA UPAZILA,GAR DHARMAPAL,88.98517,26.05222,20940,3
DAKAHIN DESHIBIE JUNIOR HIGH SCHOOL,124926,School,NILPHAMARI,JALDHAKA UPAZILA,DAKSHIN DESHIBAI,89.05042,25.99922,20942,2
UTTAR DURAKUTI HIGH SCHOOL,125010,School,NILPHAMARI,KISHOREGANJ UPAZILA,UTTAR DURAKUTHI,89.07886,26.01256,20945,2
MELABAR B.L GIRLS HIGH SCHOOL,125002,School,NILPHAMARI,KISHOREGANJ UPAZILA,MELABAR,89.00303,25.88242,20946,1
KELLABARI  BIDDA NIKETON,131416,School,NILPHAMARI,KISHOREGANJ UPAZILA,BAGULAGARI,89.03364,25.94631,20947,1
CHAND KHANA MAZAPARA HIGH SCHOOL,125008,School,NILPHAMARI,KISHOREGANJ UPAZILA,DAKSHIN CHANDKHANA,89.05292,25.95844,20948,1
CHANDKHANA HIGH SCHOOL,124993,School,NILPHAMARI,KISHOREGANJ UPAZILA,UTTAR CHANDKHANA,89.05133,25.93711,20949,1
GANESH ADARSHA HIGH SCHOOL,124999,School,NILPHAMARI,KISHOREGANJ UPAZILA,GANESH,89.01356,25.82383,20950,1
GARAGRAM  HIGH SCHOOL,124996,School,NILPHAMARI,KISHOREGANJ UPAZILA,GARAGRAM,89.03894,25.83181,20951,1
GARAGRAM ADARSO  HIGH SCHOOL,125012,School,NILPHAMARI,KISHOREGANJ UPAZILA,GARAGRAM,89.0405,25.86297,20952,1
KHAMAR GARAGRAM BI-LATERAL HIGH SCHOOL,124992,School,NILPHAMARI,KISHOREGANJ UPAZILA,GARAGRAM,89.04022,25.84575,20953,1
DALIRAM JUNIOR GIRLS SCHOOL,125023,School,NILPHAMARI,KISHOREGANJ UPAZILA,PASCHIM DALIRAM,89.01294,25.82444,20954,1
SHARIFABAD BL HIGH SCHOOL,124988,School,NILPHAMARI,KISHOREGANJ UPAZILA,PURBA DALIRAM,89.08603,25.92153,20955,1
PURBADALIRAM HIGH SCHOOL,124997,School,NILPHAMARI,KISHOREGANJ UPAZILA,GANESH,89.08303,25.89253,20956,1
KISHORIGONJ GIRLS HIGH SCHOOL,124984,School,NILPHAMARI,KISHOREGANJ UPAZILA,KESBA,89.08692,25.89964,20957,1
KISHOREGANJ M.L HIGH SCHOOL,124986,School,NILPHAMARI,KISHOREGANJ UPAZILA,KESBA,89.09939,25.93039,20958,1
SITE RAJIB MODEL HIGH SCHOOL,125015,School,NILPHAMARI,KISHOREGANJ UPAZILA,RAJIB,89.07717,25.8905,20959,1
MAGURA JR.GIRLS SCHOOL,125014,School,NILPHAMARI,KISHOREGANJ UPAZILA,MAGURA,89.02008,25.90208,20960,1
MAGURA HIGH SCHOOL,124985,School,NILPHAMARI,KISHOREGANJ UPAZILA,MAGURA,89.03231,25.88094,20961,1
MAGURA DOLAPARA ADARSHA JUNIOR SCHOOL,125021,School,NILPHAMARI,KISHOREGANJ UPAZILA,MAGURA,89.02144,25.90344,20963,1
SINGERGARI GAHURIA SHARIF  HIGH SCHOOL,125009,School,NILPHAMARI,KISHOREGANJ UPAZILA,UTTAR SINGERGARI,89.00242,25.91322,20964,1
SINGER GARI HIGH SCHOOL,124990,School,NILPHAMARI,KISHOREGANJ UPAZILA,UTTAR SINGERGARI,89.09217,25.88542,20965,1
KHILAL GANJ HIGH SCHOOL,125004,School,NILPHAMARI,KISHOREGANJ UPAZILA,UTTAR SINGERGARI,89.09564,25.88036,20966,1
MUSHRUT PANIAL PUKUR HIGH SCHOOL,124987,School,NILPHAMARI,KISHOREGANJ UPAZILA,PANIAL PUKUR,89.06794,25.84522,20967,1
NITAI HIGH SCHOOL,124995,School,NILPHAMARI,KISHOREGANJ UPAZILA,NITAI,89.07931,25.86367,20968,1
BEGUEM KHALEDA ZIA MODEL SCHOOL and College,125018,School,NILPHAMARI,KISHOREGANJ UPAZILA,PANIAL PUKUR,89.09672,25.86989,20969,1
DAKHIN BHARBHARI JUNIOR GIRL'S SCHOOL,125013,School,NILPHAMARI,KISHOREGANJ UPAZILA,BHERBHERI,88.97106,25.89631,20970,1
BHARBHARI MAJAPARA SCHOOL and college,125003,School,NILPHAMARI,KISHOREGANJ UPAZILA,BHERBHERI,88.95703,25.87933,20971,1
DHAIJAN JUNIOR GIRLS SCHOOL,125017,School,NILPHAMARI,KISHOREGANJ UPAZILA,DHAIJAN,88.98742,25.91853,20972,1
KALIKAPUR HIGH SCHOOL,124989,School,NILPHAMARI,KISHOREGANJ UPAZILA,KALIKAPUR,88.98656,25.86953,20973,1
DAKSHIN SONA KURI GIRL'S HIGH SCHOOL,125005,School,NILPHAMARI,KISHOREGANJ UPAZILA,SONAKURI,88.97342,25.95486,20975,1
KISAMAT BIRCHARAN BODI(K.B) JR. GIRL'S SCHOOL,125016,School,NILPHAMARI,KISHOREGANJ UPAZILA,KISMAT BIRCHARAN,88.96978,25.93103,20976,1
KISHAMAT BODI HIGH SCHOOL,125007,School,NILPHAMARI,KISHOREGANJ UPAZILA,KISMAT BIRCHARAN,89.088,25.93681,20977,2
ADV. ANISUL AREFEEN CHOWDHURY JUNIOR SCHOOL,125020,School,NILPHAMARI,KISHOREGANJ UPAZILA,MAGURA,89.05603,25.93036,20979,2
BAHAGILIGAT HIGH SCHOOL,125011,School,NILPHAMARI,KISHOREGANJ UPAZILA,DAKSHIN BAHAGILI,89.05544,25.92886,20980,1
SARKAR PARA JU  GIRLS SCHOOL,125131,School,NILPHAMARI,NILPHAMARI SADAR UPAZ,TUPAMARI,89.06617,25.87669,20981,1
NIL PHAMARI ADARSHA HIGH SCHOOL,125085,School,NILPHAMARI,NILPHAMARI SADAR UPAZ,UTTAR HARUA,88.93633,25.86378,20982,1
JADUR HAT GIRL'S SCHOOL,125101,School,NILPHAMARI,NILPHAMARI SADAR UPAZ,BERADANGA,88.83775,25.9475,20983,1
CHAPRA KACHHARI HIGH SCHOOL,125109,School,NILPHAMARI,NILPHAMARI SADAR UPAZ,SARAMJAMI CHAPRA,88.83783,25.93108,20984,1
DAKSHIN SUTIPARA JU GIRLS SCHOOL,125135,School,NILPHAMARI,NILPHAMARI SADAR UPAZ,SUTI PARA (PART),88.93872,25.86903,20985,1
BABRIJHAR B.L HIGH SCHOOL,125072,School,NILPHAMARI,NILPHAMARI SADAR UPAZ,ARAZI KUCHIAMOR,88.93442,25.87347,20986,1
NAGAR DARWANI HIGH SCHOOL,125081,School,NILPHAMARI,NILPHAMARI SADAR UPAZ,DARWANI,88.85564,25.93525,20987,1
CHAWRA BAROGHACHA HIGH SHCOOL,125075,School,NILPHAMARI,NILPHAMARI SADAR UPAZ,DAKSHIN CHAORA BARGA,88.92575,25.8645,20988,1
VANGAMALI JUNIOR HIGH SCHOOL,125130,School,NILPHAMARI,NILPHAMARI SADAR UPAZ,UTTAR CHAORA BARGACH,88.92517,25.86908,20989,1
SHATRASHAL HIGH SCHOOL,125094,School,NILPHAMARI,NILPHAMARI SADAR UPAZ,KANCHAN PARA,88.87189,25.88656,20990,1
NATI BARI HIGH SCHOOL,125108,School,NILPHAMARI,NILPHAMARI SADAR UPAZ,UTTAR CHAORA BARGACH,88.91217,25.886,20991,1
KANCHAN PARA F.A BL HIGH SCHOOL,125078,School,NILPHAMARI,NILPHAMARI SADAR UPAZ,KANCHAN PARA,88.91456,25.86856,20992,1
DOLUA ADARSHA JUNIOR HIGH SCHOOL,125141,School,NILPHAMARI,NILPHAMARI SADAR UPAZ,UTTAR CHAORA BARGACH,88.80289,26.02344,20993,1
UTTAR KANCHAN PARA HIGH SCHOOL,125098,School,NILPHAMARI,NILPHAMARI SADAR UPAZ,KANCHAN PARA,88.80347,26.00667,20994,1
DHABADANA HIGH  SCHOOL,125112,School,NILPHAMARI,NILPHAMARI SADAR UPAZ,DHOBADANGA,88.78617,26.02325,20995,1
GOREGRAM  school and collage,125067,School,NILPHAMARI,NILPHAMARI SADAR UPAZ,GORGRAM,88.77392,26.02297,20997,1
GORE GARAM NIJPARA GIRLS HIGH SCHOOL,125119,School,NILPHAMARI,NILPHAMARI SADAR UPAZ,GORGRAM,88.79525,26.04092,20998,1
KIRTINIA PARA B.L HIGH SCHOOL,125076,School,NILPHAMARI,NILPHAMARI SADAR UPAZ,KIRTANIA PARA,88.79033,26.00728,20999,1
GYANDASH KANAIKATA HIGH SCHOOL,125127,School,NILPHAMARI,NILPHAMARI SADAR UPAZ,PALASHBARI,88.749,25.99119,21001,1
ITAKHOLA KALITALA HIGH SCHOOL,125103,School,NILPHAMARI,NILPHAMARI SADAR UPAZ,ITAKHOLA (PART),88.75931,25.96944,21002,1
DAXIN HAROWA JU SCHOOL,125126,School,NILPHAMARI,NILPHAMARI SADAR UPAZ,GURGURI,88.78464,25.98369,21003,1
UTTAR KANIAL KHATA JU SCHOOL,125124,School,NILPHAMARI,NILPHAMARI SADAR UPAZ,KANIALKHATA (PART),88.77167,25.96575,21004,2
KANIAL KHATA JUNIOR GIRLS SCHOOL,125125,School,NILPHAMARI,NILPHAMARI SADAR UPAZ,KANIALKHATA (PART),88.79706,25.98167,21005,1
KANIAL KHATA  HIGH SCHOOL,125091,School,NILPHAMARI,NILPHAMARI SADAR UPAZ,KANIALKHATA (PART),88.82756,25.99917,21006,1
SARAR PAR HIGH SCHOOL,125118,School,NILPHAMARI,NILPHAMARI SADAR UPAZ,SINDAI,88.86592,25.95147,21007,1
DAKKIN DONDORI JUNIOR GIRLS SCHOOL,131085,School,NILPHAMARI,NILPHAMARI SADAR UPAZ,DONDARI,88.94983,25.96106,21008,1
DONDORY JUNIOR SCHOOL,125111,School,NILPHAMARI,NILPHAMARI SADAR UPAZ,DONDARI,88.88342,25.92386,21009,1
DUHULI HIGH SCHOOL,125071,School,NILPHAMARI,NILPHAMARI SADAR UPAZ,DUHULI,88.87944,25.93703,21010,1
KACHUKATA HIGH SCHOOL,125065,School,NILPHAMARI,NILPHAMARI SADAR UPAZ,KACHUKATA,88.41678,25.91736,21011,1
KACHUKATA JU GIRLS SCHOOL,125128,School,NILPHAMARI,NILPHAMARI SADAR UPAZ,KACHUKATA,88.84378,25.92794,21012,1
DAKSHIN PARA GIRLS HIGH SCHOOL,125100,School,NILPHAMARI,NILPHAMARI SADAR UPAZ,DAKSHINPARA,88.95717,25.95569,21013,1
KHOKSHA BARI M.U.HIGH SCHOOL,125084,School,NILPHAMARI,NILPHAMARI SADAR UPAZ,KHOKSABARI,88.92733,25.95208,21014,1
KUKRA DANGA HIGH SCHOOL,125095,School,NILPHAMARI,NILPHAMARI SADAR UPAZ,KUKRADANGA,88.92681,25.94722,21015,1
MUSRUT GOR GRAM GIRLS SCHOOL,125133,School,NILPHAMARI,NILPHAMARI SADAR UPAZ,MUSURAT GORGRAM,88.94989,25.96514,21016,1
UTTAR RAMKALA JUNIOR GIRLS SCHOOL,125136,School,NILPHAMARI,NILPHAMARI SADAR UPAZ,RAMKALA,88.96064,25.93539,21017,1
RAMKALA SHAIL BARI S.R.  HIGH SCHOOL,125105,School,NILPHAMARI,NILPHAMARI SADAR UPAZ,KHOKSABARI,88.7635,25.94403,21018,1
TEPUR  DANGA  HIGH SCHOOL,125102,School,NILPHAMARI,NILPHAMARI SADAR UPAZ,RAMKALA,88.81022,25.96939,21019,1
KUKHAPARA JU HIGH SCHOOL,125122,School,NILPHAMARI,NILPHAMARI SADAR UPAZ,PURBA KHOKAPARA,88.75475,25.96472,21020,1
KUNDUPUKUR HIGH SCHOOL,125083,School,NILPHAMARI,NILPHAMARI SADAR UPAZ,KUNDA PUKUR,88.78614,25.96075,21021,1
UTTAR PATKAMURI HIGH SCHOOL,125107,School,NILPHAMARI,NILPHAMARI SADAR UPAZ,PATKAMURI,88.77506,25.95403,21022,1
SHALHATI high SCHOOL,125121,School,NILPHAMARI,NILPHAMARI SADAR UPAZ,SALHATI,88.7935,25.95122,21023,1
BALAPARA JU HIGH SCHOOL,125134,School,NILPHAMARI,NILPHAMARI SADAR UPAZ,KUNDA PUKUR,88.80861,25.95253,21024,1
FULTALA  HIGH SCHOOL,125099,School,NILPHAMARI,NILPHAMARI SADAR UPAZ,SUTI PARA (PART),88.86181,25.91639,21025,1
PANCHAPUKUR GIRLS HIGH SCHOOL,125104,School,NILPHAMARI,NILPHAMARI SADAR UPAZ,PANCH PUKUR,88.82247,25.89736,21027,1
UTTAR SHASHI JUNIOR HIGH SCHOOL,125093,School,NILPHAMARI,NILPHAMARI SADAR UPAZ,UTTAR SHASHI,88.80294,25.907,21028,1
PALASH BARI GIRLs HIGH SCHOOL,125110,School,NILPHAMARI,NILPHAMARI SADAR UPAZ,ARAZI ITAKHOLA,88.92811,25.92969,21029,1
DARUL HUDA HIGH SCHOOL,125086,School,NILPHAMARI,NILPHAMARI SADAR UPAZ,PANCH PUKUR,88.92892,25.9295,21030,1
PALASHBARI PARASH MANI HIGH SCHOOL,125074,School,NILPHAMARI,NILPHAMARI SADAR UPAZ,PALASHBARI,88.93628,25.92575,21031,1
TARANI BARI B L HIGH SCHOOL,125087,School,NILPHAMARI,NILPHAMARI SADAR UPAZ,TARANIBARI,88.90019,25.92019,21032,1
NILPHAMARI GOVT. GIRLS HIGH SCHOOL,125062,School,NILPHAMARI,NILPHAMARI SADAR UPAZ,MADHAYA NILPHAMARI TOWN,88.84139,25.98508,21033,1
DUBACHURI  GIRLS high SCHOOL,125132,School,NILPHAMARI,NILPHAMARI SADAR UPAZ,LAKSHMI CHAP,88.85239,25.93117,21034,1
KACHUA CHOWRANGI SHEBA HIGH SCHOOL and collage,125115,School,NILPHAMARI,NILPHAMARI SADAR UPAZ,KACHUA,88.84283,25.98744,21035,1
KAKAI BARAGACHHA P.C. HIGH SCHOOL,125070,School,NILPHAMARI,NILPHAMARI SADAR UPAZ,KAKAI BARGACHHA,88.82172,26.02436,21036,1
LUXMICHAP B.L  HIGH SCHOOL,125096,School,NILPHAMARI,NILPHAMARI SADAR UPAZ,LAKSHMI CHAP,88.84114,25.98681,21037,1
BAHALIPARA JU SCHOOL,125063,School,NILPHAMARI,NILPHAMARI SADAR UPAZ,BAHALI PARA,88.85067,26.01914,21038,1
CHANDERHAT GIRLS HIGH SCHOOL,125113,School,NILPHAMARI,NILPHAMARI SADAR UPAZ,BISHMURI,88.86461,26.04392,21039,1
BISHMURY CHANDER HAT HIGH SCHOOL,125092,School,NILPHAMARI,NILPHAMARI SADAR UPAZ,RAMNAGAR,88.86133,26.01161,21040,1
CHARCHARA BARI HIGH SCHOOL,125079,School,NILPHAMARI,NILPHAMARI SADAR UPAZ,CHAR CHARABARI,88.85697,26.04333,21041,1
RAMNAGAR HIGH SCHOOL,125082,School,NILPHAMARI,NILPHAMARI SADAR UPAZ,RAMNAGAR,88.83942,26.01869,21042,1
SHAPLA GIRLS high SCHOOL,125114,School,NILPHAMARI,NILPHAMARI SADAR UPAZ,SONAROY,88.90514,25.95019,21043,1
BARUNIRDANGA ADARSHA HIGH SCHOOL,125058,School,NILPHAMARI,NILPHAMARI SADAR UPAZ,DIGHALDANGI,88.90336,25.99736,21044,1
KAZI ABDUR RASHID HIGH SCHOOL,125090,School,NILPHAMARI,NILPHAMARI SADAR UPAZ,CHHOTA SANGALSHI,88.90939,25.95172,21045,1
SONARAI SANGALSHI HIGH SCHOOL,125073,School,NILPHAMARI,NILPHAMARI SADAR UPAZ,MUSRAT KUKHA PARA,88.90925,25.94936,21046,1
CHAKDUBLIYA S.C.B. HIGH SCHOOL,125064,School,NILPHAMARI,NILPHAMARI SADAR UPAZ,CHAK DUBLIA,88.83808,25.84025,21047,1
DAROANI BL- ATERAL HIGH SCHOOL,125069,School,NILPHAMARI,NILPHAMARI SADAR UPAZ,SONAROY,88.85928,25.83833,21048,1
DAROWANI JUNIOR GIRLS SCHOOL,125137,School,NILPHAMARI,NILPHAMARI SADAR UPAZ,SUTI PARA (PART),88.87342,25.8495,21049,1
CHALK SONARAI JU GIRLS SCHOOL,125116,School,NILPHAMARI,NILPHAMARI SADAR UPAZ,SONAROY,88.87178,25.86153,21050,1
TILAI JOYCHANDI Junior high SCHOOL,125138,School,NILPHAMARI,NILPHAMARI SADAR UPAZ,TILAI JOYCHANDI,88.85961,25.85994,21051,1
SHAHID ZIA GIRLS HIGH SCHOOL,125106,School,NILPHAMARI,NILPHAMARI SADAR UPAZ,NILPHAMARI BAZAR (PA,88.84186,25.81653,21052,1
POLICE LINES ACADEMY NILPHAMARI,133344,School,NILPHAMARI,NILPHAMARI SADAR UPAZ,PURBA NILPHAMARI BAZAR,88.83164,25.85683,21053,1
RAMGANJ B L HIGH SCHOOL,125066,School,NILPHAMARI,NILPHAMARI SADAR UPAZ,SUKHDHAN,88.81844,25.87169,21054,1
TUPAMARI B.L. HGIH SHCOOL,125117,School,NILPHAMARI,NILPHAMARI SADAR UPAZ,TUPAMARI,88.85886,25.85872,21055,1
RAMGANJ JR. GIRLS SCHOOL,125140,School,NILPHAMARI,NILPHAMARI SADAR UPAZ,RAMNAGAR,88.86475,25.97906,21056,1
RAMNAGAR ADORSHA BALIKA BIDDA NIKATON,125120,School,NILPHAMARI,NILPHAMARI SADAR UPAZ,RAMNAGAR,88.76672,25.95206,21058,1
GORE GRAM ADARSHA JUNIOR SCHOOL,125123,School,NILPHAMARI,NILPHAMARI SADAR UPAZ,GORGRAM,88.92811,25.92981,21059,1
NILPHAMARI GOVT. HIGH SCHOOL,125061,School,NILPHAMARI,NILPHAMARI SADAR UPAZ,DAKSHIN NILPHAMARI TOWN,88.84364,25.92786,21060,1
AL FARQUE ACADEMy,125205,School,NILPHAMARI,SAIDPUR UPAZILA,BANSHBARI MADDHAYA,88.97614,25.81308,21061,1
SHER E BANGLA MULT HIGH SCHOOL,125203,School,NILPHAMARI,SAIDPUR UPAZILA,BANSHBARI DAKSHIN,88.88828,25.96422,21062,1
BOTLAGARI ADARSHA GIRLS NIKETAN,125221,School,NILPHAMARI,SAIDPUR UPAZILA,BOTHLAGARI (PART),88.95886,25.94942,21063,1
SHAHEED ZIA SHISHO NIKETON JUNIAR SCHOOL,125216,School,NILPHAMARI,SAIDPUR UPAZILA,SAHEBPARA DAKSHIN,88.77131,25.99261,21064,1
GOALAHAT  GIRLS JUNIOR SCHOOL,131031,School,NILPHAMARI,SAIDPUR UPAZILA,KAYA GOLAHAT DAKSHIN,88.85439,25.93536,21065,1
KAYANIZPARA HIGH SCHOOL,125208,School,NILPHAMARI,SAIDPUR UPAZILA,KOYANIZ PARA UTTAR,88.89017,25.78444,21066,1
SAIDPUR MUSLIM HIGH SCHOOL,125207,School,NILPHAMARI,SAIDPUR UPAZILA,RASULPUR,88.88678,25.80131,21067,1
SAIDPUR ISLAMIA HIGH SCHOOL,125202,School,NILPHAMARI,SAIDPUR UPAZILA,MUNSHI PARA PASCHIM,88.89431,25.80656,21068,1
TULSHIRAM GIRLS HIGH SCHOOL,125200,School,NILPHAMARI,SAIDPUR UPAZILA,KoyANIZ PARA DAKSHIN,88.893,25.77586,21069,1
BANGALIPUR HIGH SCHOOL,125209,School,NILPHAMARI,SAIDPUR UPAZILA,BARA SAIL PARA (PART,88.88811,25.80269,21070,2
SAIDPUR PILOT HIGH SCHOOL,125198,School,NILPHAMARI,SAIDPUR UPAZILA,NIAMATPUR,88.90136,25.78433,21071,1
BANGLADESH RAILWAY GOVT .SCHOOL,125210,School,NILPHAMARI,SAIDPUR UPAZILA,SAHEB PARA UTTAR,88.89778,25.78833,21072,1
LAKSHMANPUR  HIGH SCHOOL,125212,School,NILPHAMARI,SAIDPUR UPAZILA,LAKSHMANPUR BALA PAR,88.89964,25.77472,21073,1
BOTLAGARI HIGH SCHOOL,125214,School,NILPHAMARI,SAIDPUR UPAZILA,BOTHLAGARI,88.89011,25.78381,21074,1
SASKANDAR BENGMARY JUNIR SCHOOL,125226,School,NILPHAMARI,SAIDPUR UPAZILA,SASHKANDAR,88.89422,25.77689,21075,1
SAMIR UDDIN ADARSHA HIGH SCHOOL,125218,School,NILPHAMARI,SAIDPUR UPAZILA,SONAKHULI,88.93933,25.74678,21076,1
DHALA GASS JUNIOR SCHOOL,125223,School,NILPHAMARI,SAIDPUR UPAZILA,DHALGACHH,88.89056,25.83219,21077,1
KAMAR PUKUR HIGH SCHOOL,125215,School,NILPHAMARI,SAIDPUR UPAZILA,KAMAR PUKUR,88.86417,25.81525,21078,1
CHOWRA HIGH SCHOOL,125219,School,NILPHAMARI,SAIDPUR UPAZILA,CHAORA,88.94614,25.78547,21083,1
SHIPAIGANJ HIGH SCHOOL,125217,School,NILPHAMARI,SAIDPUR UPAZILA,PASCHIM BELPUKUR,88.92639,25.78356,21084,1
SAIDPUR CANTOMENT BORAD HIGH SCHOOL,125206,School,NILPHAMARI,SAIDPUR UPAZILA,BANGALIPUR NICHU COL,88.94147,25.85764,21085,2
SHAHEED ZIA    ADARSHA GIRLS  JR. SCHOOL,125220,School,NILPHAMARI,SAIDPUR UPAZILA,BOTHLAGARI,88.92828,25.83575,21086,1
MADHUPUR NAYA HAT JUNIOR SECONDARY SCHOol,125222,School,NILPHAMARI,SAIDPUR UPAZILA,KHATA MADHUPUR,88.92022,25.80478,21087,1
CHILAHATI GIRLS HIGH SCHOOL AND COLLEGE,124844,School and College,NILPHAMARI,DOMAR UPAZILA,NIJ BHOGDABARI,89.21568,25.37085,26207,1
BAGDOKRA NIMOJKHANA SCHOOL AND COLLAGE,124847,School and College,NILPHAMARI,DOMAR UPAZILA,NAYANI BAGHDOKRA,88.79619,26.17272,26208,1
MATUKPUR SCHOOL AND COLLEGE,124838,School and College,NILPHAMARI,DOMAR UPAZILA,MATUKPUR,88.88325,26.15015,26209,1
GOSAIGANJ SCHOOL AND COLLEGE,124876,School and College,NILPHAMARI,DOMAR UPAZILA,GOSAIGANJA,88.85261,26.09939,26210,1
SUNDAR KHATA SCHOOL and college,124771,School and College,NILPHAMARI,DIMLA UPAZILA,NIJ SUNDARKHATA,88.88353,26.15968,26211,1
GAYABARI SCHOOL AND COLLEGE,124828,School and College,NILPHAMARI,DIMLA UPAZILA,GAYABARI,88.96814,26.20425,26212,2
Adabari School & College,124778,School and College,NILPHAMARI,DIMLA UPAZILA,KHOGA KHARIBARI,89.01542,26.16167,26213,1
NAUTARA GIRLS SCHOOL AND COLLEGE,124770,School and College,NILPHAMARI,DIMLA UPAZILA,NAOTARA,88.92183,26.25722,26214,1
CHAWRADANGI    SCHOOL AND COLLEGE,124909,School and College,NILPHAMARI,JALDHAKA UPAZILA,CHAORADANGI,89.01467,26.01219,26215,1
KAIMARI SCHOOL AND COLLEGE,124983,School and College,NILPHAMARI,JALDHAKA UPAZILA,KAIMARI,89.04214,25.97206,26216,2
SHOULMARI GIRLS SCHOOL AND COLLEGE,124927,School and College,NILPHAMARI,JALDHAKA UPAZILA,TALUK SAULMARI,88.91803,26.0065,26217,1
BARABHITA SCHOOL & COLLEGE,125056,School and College,NILPHAMARI,KISHOREGANJ UPAZILA,DAKSHIN BARABHITA,89.02308,25.97408,26219,1
SHESHU NIKETAN  SCHOOL AND COLLEGE,124998,School and College,NILPHAMARI,KISHOREGANJ UPAZILA,KESBA,89.09153,25.89667,26220,1
RANA CHANDI HIGH SCHOOL AND COLLAEGE,125057,School and College,NILPHAMARI,KISHOREGANJ UPAZILA,RANACHANDI,89.088,25.93681,26221,2
NAYAN KHAL  SCHOOL AND COLLEGE,124991,School and College,NILPHAMARI,KISHOREGANJ UPAZILA,NAYANKHAL,89.01792,25.84656,26223,1
JADUR HAT SCHOOL AND COLLEGE,125088,School and College,NILPHAMARI,NILPHAMARI SADAR UPAZ,BERADANGA,88.77911,25.94167,26224,1
CHARAIKHOLA SCHOOL & COLLAGE,125196,School and College,NILPHAMARI,NILPHAMARI SADAR UPAZ,CHARAIKHOLA,88.93853,25.89694,26225,1
UTTAR CHOWRA BARAGACHHA SCHOOL and COLLEGE,125197,School and College,NILPHAMARI,NILPHAMARI SADAR UPAZ,UTTAR CHAORA BARGACH,88.79742,25.997,26226,1
SAMIR UDDIN SCHOOL AND COLLEGE,125060,School and College,NILPHAMARI,NILPHAMARI SADAR UPAZ,MADHAYA NILPHAMARI TOWN,88.92253,25.91192,26227,1
collectorate Public SCHOOL  & COLLEGE nilphamari,125195,School and College,NILPHAMARI,NILPHAMARI SADAR UPAZ,MADHAYA NILPHAMARI TOWN,88.82825,26.01681,26228,1
SAIDPUR ADARSHA GIRLS SCHOOL & COLLEGE,125252,School and College,NILPHAMARI,SAIDPUR UPAZILA,KAZIRHAT,88.89139,25.79867,26230,1
KAYA GOLAHAT HIGH SCHOOL & COLLEGE,125250,School and College,NILPHAMARI,SAIDPUR UPAZILA,KAYA GOLAHAT UTTAR,88.90033,25.78394,26231,1
SUNFLOWAR SCHOOL & COLLEGE,125251,School and College,NILPHAMARI,SAIDPUR UPAZILA,KOYANIZ PARA UTTAR,88.88811,25.80269,26232,2
CANTONMENT PUBLIC SCHOOL AND COLLEGE SAIDPUR,125248,School and College,NILPHAMARI,SAIDPUR UPAZILA,BANGALIPUR NICHU COL,88.89806,25.78297,26233,1
LIONS SCHOOL AND COLLEGE,125204,School and College,NILPHAMARI,SAIDPUR UPAZILA,HATIKHANA PASCHIM,88.90011,25.74708,26234,1
SAIDPUR PILOT GIRLS SCHOOL AND COLLEGE,125201,School and College,NILPHAMARI,SAIDPUR UPAZILA,SAHEBPARA DAKSHIN,88.89867,25.78075,26235,1
GOVT.SAIDPUR INTERMEDIATE TECHNICAL COLLEGE,125242,School and College,NILPHAMARI,SAIDPUR UPAZILA,BANGALIPUR (PART),88.88386,25.77569,26236,1
HAZARIHAT SCHOOL & COLLEGE,125247,School and College,NILPHAMARI,SAIDPUR UPAZILA,PURBA BELPUKUR,88.91947,25.81353,26237,2
