inst name, eiin, inst_type, district, thana, mauza, long, lat, serial,isUnique
CHAUMUHANI GOVT. S.A. COLLEGE,107253,College,NOAKHALI,BEGUMGANJ,PURBA GANIPUR,91.110756,22.944416,1586,1
KABIRHAT GOVT. COLLEGE,107655,College,NOAKHALI,KABIRHAT,ENAYET NAGAR,92.00526,23.13706,1587,1
CHAPRASHIR HAT ISMAIL COLLEGE,107656,College,NOAKHALI,KABIRHAT,UPARDI LAMCHHI,91.16506,22.88075,1588,1
HATIYA DEGREE COLLEGE,107463,College,NOAKHALI,HATIYA,CHAR ISHWAR ROY (PART-2),91.13978,22.31069,1589,1
HATYA COMMUNITY COLLEGE,132033,College,NOAKHALI,HATIYA,JAHAJMARA,91.12153,22.35403,1590,2
ENGINEER MOHAMMAD FAZLUL AZIM MOHILA COLLEGE,107465,College,NOAKHALI,HATIYA,CHAR KAILASH (PART),91.09608,22.25492,1591,1
SAIKAT DEGREE COLLEGE,107662,College,NOAKHALI,SUBARNACHAR,CHAR BATA,91.16897,22.82572,1592,1
CHAR JABBAR DEGREE COLLEGE,107663,College,NOAKHALI,SUBARNACHAR,CHAR JABBAR,91.03989,22.66739,1593,1
SONAIMURI COLLEGE,107413,College,NOAKHALI,SONAIMURI,BHANUAI,91.14506,22.61406,1594,1
KHALILUR RAHMAN DEGREE COLLEGE,107414,College,NOAKHALI,SONAIMURI,AMISHA PARA,91.03553,22.97628,1595,1
NANDIA PARA bir shrestha shahid md ruhul amin DEGREE COLLAGE,107415,College,NOAKHALI,SONAIMURI,NANDIA PARA,91.04144,23.03919,1596,1
JOYAG COLLEGE,107416,College,NOAKHALI,SONAIMURI,JAYAG,91.04661,23.06258,1597,1
CHATKHIL WOMENS COLLEGE,107309,College,NOAKHALI,CHATKHIL,CHATKHIL,90.97192,23.06225,1598,1
ABDUL WAHAB DEGREE COLLEGE,107311,College,NOAKHALI,CHATKHIL,MOZAD PARA,90.94744,23.04736,1599,1
CHATKHIL PANCHGAON MAHBUB GOVT. COLLEGE,107308,College,NOAKHALI,CHATKHIL,BARAI PARA,90.98903,23.04289,1600,1
SOMPARA COLLEGE,107310,College,NOAKHALI,CHATKHIL,GOPIRBAGH,90.93517,22.99275,1601,1
M. A. HASHEM COLLEGE,107256,College,NOAKHALI,BEGUMGANJ,ALAIAR PUR,91.18356,22.98497,1602,1
JALAL UDDIN COLLEGE,107254,College,NOAKHALI,BEGUMGANJ,UTTAR ALIPUR (KURI PARA),91.20064,22.92594,1603,1
MAIJDEE PUBLIC COLLEGE,107661,College,NOAKHALI,NOAKHALI SADAR,JOYKRISHNAPUR,91.14272,22.89869,1604,1
NOAKHALI GOVERNMENT COLLEGE,107659,College,NOAKHALI,NOAKHALI SADAR,LAKSHMI NARAYANPUR (PART),91.09672,22.8555,1605,1
 NOAKHALI GOVT. MOHILA COLLEGE,107658,College,NOAKHALI,NOAKHALI SADAR,LAKSHI NARAANPUR (PART-A),91.09658,22.85786,1606,1
SONAPUR COLLEGE,107657,College,NOAKHALI,NOAKHALI SADAR,SONAPUR,91.06586,22.74839,1607,1
CHAR MATUA COLLEGE,107665,College,NOAKHALI,NOAKHALI SADAR,NEWAZER DOGI,90.98281,22.85044,1608,1
BHULUA DEGREE COLLEGE,107664,College,NOAKHALI,NOAKHALI SADAR,DHANYAPUR,91.07181,22.87872,1609,1
MAJOR (RTD) ABDUL MANNAN COLLEGE,131927,College,NOAKHALI,NOAKHALI SADAR,CHAR URIYA,91.07894,22.81289,1610,1
BANDHER HAT A. M. COLLEGE,107660,College,NOAKHALI,NOAKHALI SADAR,ATASPUR,91.04519,22.78489,1611,1
GOVT. MUJIB COLLEGE,107359,College,NOAKHALI,COMPANIGANJ,CHAR PARBATI (PART),91.27964,22.87431,1612,1
CHOWDHURY HAT COLLEGE,107360,College,NOAKHALI,COMPANIGANJ,CHAR PARBATI (PART),91.3215,22.90342,1613,1
BAMNI COLLEGE,107358,College,NOAKHALI,COMPANIGANJ,RAMPUR,91.31089,22.81244,1614,1
SEBNAG GOVT. COLLEGE,107516,College,NOAKHALI,SENBAGH,CHANDPUR PART,91.25844,22.86486,1615,1
BALIAKANDI DEGREE COLLEGE,107518,College,NOAKHALI,SENBAGH,BALIAKANDI,91.23328,22.98756,1616,1
KANKIR HAT COLLEGE,107517,College,NOAKHALI,SENBAGH,MAJHIRKHIL,91.14208,23.06461,1617,1
HATIYA DWIP GOVT. COLLEGE,107464,College,NOAKHALI,HATIYA,CHAR ISHWAR ROY (PART 1),91.10203,22.54064,1618,2
ASHRAFPUR RAHMANIA  DAKHIL MADRASHA,107648,Madrasha,NOAKHALI,KABIRHAT,BATAIYA,91.20481,22.83675,7962,1
CHAPRASHIR HAT A.ROB FAZIL MADRASHA,107612,Madrasha,NOAKHALI,KABIRHAT,UPARDI LAMCHHI,91.22747,22.85689,7963,1
SOUTH RAMESHWAR PUR AHAMADIA DAKHIL MADRASHA,107646,Madrasha,NOAKHALI,KABIRHAT,RAMESHWARPUR,91.21197,22.87494,7964,1
CHAR GULLA KHALI DAKHIL MADRASHA,107613,Madrasha,NOAKHALI,KABIRHAT,CHAR GULLAKHALI,91.22744,22.87028,7965,1
UTTAR NARATTAM PUR HAZI HAIDER A.DAKHIL MADRASHA,107641,Madrasha,NOAKHALI,KABIRHAT,NAROTTAMPUR,91.1775,22.80083,7966,1
CHANKHOLA ALAMIA ISLAMIA ALIM MADRASHA,107607,Madrasha,NOAKHALI,KABIRHAT,NAROTTAMPUR,91.19828,22.81956,7967,1
ABDULLAH MEARHAT HAMIDIA DAKHIL MADRASHA,107629,Madrasha,NOAKHALI,KABIRHAT,PURBA RAJURGAON,91.17214,22.86244,7968,1
CHOEMOHANI TABARKIA ISLAMIA ALIM MADRASHA,107457,Madrasha,NOAKHALI,HATIYA,GULLAKHALI (PART),91.14086,22.26486,7970,2
CHAR KAILASH HADIA FAZIL MADRASAH,107452,Madrasha,NOAKHALI,HATIYA,CHAR KAILASH (PART),91.14678,22.28931,7972,1
HATIYA DARUL ULUM KAMIL MADRASHA,107451,Madrasha,NOAKHALI,HATIYA,SURJYA MUKHE (PART),91.14136,22.28422,7973,2
SUKCHAR AZAHARUL ULUM FAZIL MADRASHA,107454,Madrasha,NOAKHALI,HATIYA,CHAR KAILASH (PART),91.14136,22.28678,7975,1
CHARKING MOHAMMADIA DAKHIL MADRASAH,107455,Madrasha,NOAKHALI,HATIYA,CHAR ISHWAR ROY (PART),91.09269,22.32244,7976,1
KHASHER HAT MAJEDIA GIRLS DAKHIL MADRASAH,107461,Madrasha,NOAKHALI,HATIYA,CHAR ISHWAR ROY (PART-2),91.11533,22.31339,7977,1
JAHAJMARA MOHILA DAKHIL MADRASAH,107462,Madrasha,NOAKHALI,HATIYA,CHAR BIRBIRI,91.12933,22.31383,7978,1
BIRBIRI AKBARIA DAKHIL MADRASAH,107446,Madrasha,NOAKHALI,HATIYA,CHAR BIRBIRI,91.132,22.33008,7979,1
HAZI FAZIL AHMED DAKHIL MADRASAH,107460,Madrasha,NOAKHALI,HATIYA,NUTAN SUKH CHAR,91.06194,22.15444,7981,1
CHAR CHANGA ISLAMIA FAZIL MADRASAH,107450,Madrasha,NOAKHALI,HATIYA,CHAR CHENGA,91.06092,22.43778,7983,1
MAIJCHARA GANIA ISLAMIA DAKHIL MADRASAH,107453,Madrasha,NOAKHALI,HATIYA,MAIJCHARA,91.09769,22.37008,7984,2
SONADIA A.BARI DAKHIL MADRASAH,107459,Madrasha,NOAKHALI,HATIYA,SONADIA,91.06972,22.22558,7985,1
TAMARADDI AHMADIA FAZIL MADRASHA,107448,Madrasha,NOAKHALI,HATIYA,CHAR TAMARUDDIN,91.12042,22.29131,7987,1
CHAR BATA MOHILA MODEL DAKHIL MADRASHA,133744,Madrasha,NOAKHALI,SUBARNACHAR,CHAR BATA,91.08872,22.2665,7988,2
BANGLA BAZAR  DAKHIL MADRASHA,133743,Madrasha,NOAKHALI,SUBARNACHAR,DAKSHIN CHAR CLERK,91.12308,22.62361,7989,1
CHAR HASAN ISLAMIA DAKHIL MADRASHA,107652,Madrasha,NOAKHALI,SUBARNACHAR,CHAR HASAN,91.17778,22.64517,7990,1
CHAR JABBAR MAHMUDIA DAKHIL MADRASHA,107634,Madrasha,NOAKHALI,SUBARNACHAR,CHAR JABBAR,91.02847,22.72194,7991,1
ZAHAZMARA CHEWIAKHALI DAKHIL MADRASAH,107654,Madrasha,NOAKHALI,SUBARNACHAR,JAHAJMARA,91.08067,22.70533,7992,1
BAITUS SAIF ISLAMIA DAKHIL MADRASHA,107617,Madrasha,NOAKHALI,SUBARNACHAR,UTTAR CHAR BAGGA,91.05689,22.69028,7993,1
CHAR JUBILEE RABBANIA FAZIL MADRASHA,107624,Madrasha,NOAKHALI,SUBARNACHAR,CHAR JUBILEE,91.07528,22.67292,7994,1
CHAR CLARKE ISLAMIA DAKHIL MADRASAH,107627,Madrasha,NOAKHALI,SUBARNACHAR,CHAR TORABALI,91.05467,22.65731,7995,1
CHARHATA ISLAMIA ALIM MADRASHA,107625,Madrasha,NOAKHALI,SUBARNACHAR,HAJIPUR,91.09864,22.66081,7996,1
KATHALI ISLAMIA DAKHIL MADRASHA,131566,Madrasha,NOAKHALI,SONAIMURI,KATHALI,91.15694,22.61714,7997,1
UTTAR WASEKPUR MOHAMMADIA GIRLS DAKHIL MADRASHA,107404,Madrasha,NOAKHALI,SONAIMURI,WASEKPUR,91.11497,23.04844,7998,1
ABIR PARA DAKHIL MADRASHA,107400,Madrasha,NOAKHALI,SONAIMURI,ABIR PARA,91.15406,23.00697,7999,1
KHALILUR RAHAMAN KAMIL MADRASHA,107398,Madrasha,NOAKHALI,SONAIMURI,BHADRAGRAM,91.03808,23.00372,8000,1
PODIPARA ISLAMIA SENIOR FAZIL MADRASHA,107401,Madrasha,NOAKHALI,SONAIMURI,PADI PARA,91.02458,22.99,8001,1
MANIKKANAGAR WOMEN  DHAKIL MADRASHA,107408,Madrasha,NOAKHALI,SONAIMURI,MANIKYANAGAR,91.02008,23.00783,8002,1
HOSSAINPUR DARUSSUNNAH ISLAMIA ALIM MADRASHA,107406,Madrasha,NOAKHALI,SONAIMURI,UTTAR MIRZANAGAR,91.03894,23.00506,8003,1
KASHIPUR MUHAMMADIA FAZIL MADRASHA,107395,Madrasha,NOAKHALI,SONAIMURI,KASHIPUR,91.02719,22.99686,8004,1
TALIMUL ISLAM DAKHIL MADRASHA,107412,Madrasha,NOAKHALI,SONAIMURI,RAJIBPUR,91.03275,23.00833,8005,1
BEGUM KHALEDA ZIA MOHILA DAKHIL MADRASHA,107409,Madrasha,NOAKHALI,SONAIMURI,BAGADIA,91.12289,23.02547,8006,1
NANDIA PARA A. U. SENIOR MADRASHA,107403,Madrasha,NOAKHALI,SONAIMURI,NANDIA PARA,91.01436,23.01936,8007,1
PITAMBER PUR MOWLAVI RAFIQ ULLAH DAKHIL MADRASHA,107410,Madrasha,NOAKHALI,SONAIMURI,PITAMBARPUR,91.04706,23.03744,8008,1
DHANNAYPUR GIRLS DAKHIL MADRASHA,107651,Madrasha,NOAKHALI,SONAIMURI,DHANYAPUR,91.04936,23.06214,8009,1
JOYAG RASHIDIA ALIM MADRASHA,107397,Madrasha,NOAKHALI,SONAIMURI,JAYAG,91.03656,23.05686,8010,1
THANAR HAT ISLAMIA ALIM MADRASAH,107399,Madrasha,NOAKHALI,SONAIMURI,MAHUTALA,91.05411,23.00356,8011,1
SONUA NAZMUL ULUM DAKHIL MADRASHA,107402,Madrasha,NOAKHALI,SONAIMURI,ENAYETPUR,91.06289,23.00275,8012,1
AMKI MOHILA ALIM MADRASHA,107411,Madrasha,NOAKHALI,SONAIMURI,AMKI,91.01256,23.06322,8013,1
SHAKTOLA SIDDIKIA ISLAMIA ALIM MADRASHA,107407,Madrasha,NOAKHALI,SONAIMURI,SAKTALA,91.04844,23.05244,8014,1
ABDULLAH HAT ISLAMIA FAZIL MADRASAH,107405,Madrasha,NOAKHALI,SONAIMURI,NATESHWAR,91.07756,23.06233,8015,1
FATEHPUR SIRAJUM MONIR DAKHIL MADRASHA,107294,Madrasha,NOAKHALI,CHATKHIL,FATEHPUR,91.14408,22.98975,8016,1
CHATKHIL KAMIL MADRASHA,107295,Madrasha,NOAKHALI,CHATKHIL,BHIMPUR (PART),91.2475,23.03869,8017,1
KARI IBRAHIM M0HILA DAKHIL MADRASAH,107305,Madrasha,NOAKHALI,CHATKHIL,NEWAZPUR (DAULATPUR),91.09814,23.00036,8018,1
CHATKHIL MOHILA DAKHIL MADRASA,131692,Madrasha,NOAKHALI,CHATKHIL,CHATKHIL,90.96214,23.07689,8019,1
HIRAPUR ALIM MADRASAH,107299,Madrasha,NOAKHALI,CHATKHIL,HIRAPUR,90.96947,23.05964,8020,1
ISLAMPUR HOSSAINIA DAKHIL MADRASAH,107302,Madrasha,NOAKHALI,CHATKHIL,MURAIM,90.97869,23.11183,8021,1
DOKHIN GHATL ABAG MOHILA DHAKHIL MADRASHA,107304,Madrasha,NOAKHALI,CHATKHIL,GHATLABAGH,90.97214,23.12231,8022,1
GHATLABAG KASHURBAG R.GONJ ASHRAFI D/MADRASHA,107298,Madrasha,NOAKHALI,CHATKHIL,GHATLABAGH,90.98017,23.11544,8023,1
MOLLAKER DIGHIR PAR FAZIL MADRASHA,107300,Madrasha,NOAKHALI,CHATKHIL,PURBA KHIL PARA,90.93553,23.03575,8024,1
DAKKHIN DELIAI HASEMIA DHAKIL MADRASHA,107293,Madrasha,NOAKHALI,CHATKHIL,DELIAI,90.94142,23.04547,8025,1
FOYJUN NESA MOHILA DAKHIL MADRASAH,107307,Madrasha,NOAKHALI,CHATKHIL,NAHARKHIL,90.95558,23.00964,8026,1
SREE RAY MOHILA ALIM  MADRASAH,107303,Madrasha,NOAKHALI,CHATKHIL,PURBA KHIL PARA,90.95317,23.00792,8027,1
MOHAMMADPUR ANOWAR ALI ISLAMIA alim MADRASAH,107289,Madrasha,NOAKHALI,CHATKHIL,MOHAMMADPUR,90.99528,23.10983,8028,1
KARIHATI SALEMIA FAZIL MADRASAH,107291,Madrasha,NOAKHALI,CHATKHIL,BHARATPUR,91.01453,23.09908,8029,1
TALTALA ISLAMIA MOHILA  ALIM MADRASHA,107292,Madrasha,NOAKHALI,CHATKHIL,SATRA PARA,90.9895,23.09433,8030,1
SHADHURKHIL A I DAKHIL MADRASHA,107288,Madrasha,NOAKHALI,CHATKHIL,SADHURKHIL,90.95233,23.02764,8031,1
RUHITKHALI ISLAMIA MOHILA DAKHIL MADRASAH,107290,Madrasha,NOAKHALI,CHATKHIL,ROHITKHALI,90.9885,23.05353,8032,1
KHOWAZER BHITI FAZIL MADRASAH,107296,Madrasha,NOAKHALI,CHATKHIL,GOPIRBAGH,90.9415,23.01014,8033,1
MOMINPUR DAKHIL MADRASAH,107301,Madrasha,NOAKHALI,CHATKHIL,MAMINPUR,90.91528,23.02292,8034,1
AL-MANAR CADET MADRASAH,131558,Madrasha,NOAKHALI,BEGUMGANJ,MIR WARISHPUR,90.92542,23.02369,8035,1
MIDDLE NAZIRPUR AZIZIA ISLAMIA DAKHIL MADRASHA,107249,Madrasha,NOAKHALI,BEGUMGANJ,MADDHA NAZIRPUR (PART-2),90.89458,23.03139,8036,1
K  .M   BoHUMoKHI  ADARSHA  mohila  ALIM   MADRASha,107246,Madrasha,NOAKHALI,BEGUMGANJ,KARIMPUR,91.10481,22.94053,8037,1
JOYNARAYaNpur ISLaMIA FAZIL degree MADRASAh,107225,Madrasha,NOAKHALI,BEGUMGANJ,MOHAMMADPUR,91.11275,22.947,8038,1
AMANULLAHPUR DARUSSALAM MOHILA DAKHIL MADRASHA,107241,Madrasha,NOAKHALI,BEGUMGANJ,AMANULLAPUR,91.02919,22.95681,8039,1
BALUCHARA HASANIA ALIM MADRASAH,107244,Madrasha,NOAKHALI,BEGUMGANJ,BALU CHAR,91.02439,22.95639,8040,1
DIThPUR DARUL ULUM DAKHIL MADRASAH,107247,Madrasha,NOAKHALI,BEGUMGANJ,CHHOTA SONAIMURI,91.086,22.89922,8041,1
CHANDRAGANJ  KARAMATIA   KAMIL  MADRASah,107228,Madrasha,NOAKHALI,BEGUMGANJ,MOHAMMADPUR,90.99519,22.91714,8042,1
HAJRAT UMMe HANe MOHILA DAKHIL MADRASHA,131554,Madrasha,NOAKHALI,BEGUMGANJ,CHHOTA KHANPUR,91.00058,22.94794,8043,1
KACHIHATA    ISLAMIA   DAKHIL   mADRASah,107396,Madrasha,NOAKHALI,BEGUMGANJ,KACHIHATA,91.04325,22.96331,8044,1
WEST BHABANI JIBANPUR DAKHIL MADRASAH,107243,Madrasha,NOAKHALI,BEGUMGANJ,BHABANI JIBANPUR,91.00047,22.94761,8045,1
CHhAYANI IMAMIA FAZIL MADRASah,107223,Madrasha,NOAKHALI,BEGUMGANJ,LAKSHMANPUR,91.02953,22.97528,8046,1
NITTANANDA PUR DARUL ULUM MOHILA ALIM MADRASAH.,107242,Madrasha,NOAKHALI,BEGUMGANJ,NITYANANDAPUR,91.08867,22.93853,8047,1
N.W.DURGAPUR M.A.MaTIN ISLaMIA  DAKHIL MADRASah,107238,Madrasha,NOAKHALI,BEGUMGANJ,DURGAPUR,91.01078,22.89764,8048,1
MOHAMMADIA ISLAMIA DAKHIL MADRASHA,107250,Madrasha,NOAKHALI,BEGUMGANJ,LAKSHMI NARAYANPUR,91.01186,22.89881,8049,1
EKLASHPUR  FAZIL  MADRASHA,107229,Madrasha,NOAKHALI,BEGUMGANJ,KISMAT KARIMPUR,91.13206,22.97178,8050,1
PASCHIM ANNANTAPUR ISLAMIA ALIM MADRASah,107245,Madrasha,NOAKHALI,BEGUMGANJ,ANANTAPUR,91.14769,22.94342,8051,1
HAZRAT KHADIJATUl KOBRA DAKHIL GIRLS MADRASHA,107248,Madrasha,NOAKHALI,BEGUMGANJ,EKLASHPUR (PART),91.10181,22.91097,8052,1
RAMNAT PUR ISLAMIA DhAKIL MADRASHA,131559,Madrasha,NOAKHALI,BEGUMGANJ,RAMNATHPUR,91.10161,22.91022,8053,1
BASANTABaG ISLAMIA FAZIL MADRASah,107227,Madrasha,NOAKHALI,BEGUMGANJ,BASANTERBAGH,90.087,22.89189,8054,1
MODHUPUR ISLAMIA DAKHIL MADRASha,131620,Madrasha,NOAKHALI,BEGUMGANJ,MADHUPUR,91.10706,22.91372,8055,1
UTTAR HAZIPUR ISLAMIA DAKHIL MADRASAH,107237,Madrasha,NOAKHALI,BEGUMGANJ,HAJIPUR,91.05528,22.97461,8056,1
CHOUMUHoNI ISLAMIA FAZIL degree MADRASAH,107239,Madrasha,NOAKHALI,BEGUMGANJ,MADHYA HAZIPUR,91.04989,22.94725,8057,1
BANGLA  BAZAR  MOHILA   DAKHIL  MADRASah,107251,Madrasha,NOAKHALI,BEGUMGANJ,BARUICHATAL,91.12389,22.94708,8058,1
GHATLA ALIM MADRASHA,107230,Madrasha,NOAKHALI,BEGUMGANJ,IARPUR,91.05447,22.94328,8059,1
SHOHID AHMED ALI MOHILA DAKHIL MADRASah,107252,Madrasha,NOAKHALI,BEGUMGANJ,KADIRPUR,91.16669,22.88708,8060,1
ALAIRPUR KAZIR HAT ISLAMIA DAKHIL MADRASAH,107232,Madrasha,NOAKHALI,BEGUMGANJ,ALAIAR PUR,91.16831,22.92139,8061,1
KUTUB PUR  ISLAMIA  ALIM   MADRASHA,107233,Madrasha,NOAKHALI,BEGUMGANJ,KUTUBPUR,91.18642,22.89369,8062,1
MIR AHMaDPUR FAZIL MADRASaH,107224,Madrasha,NOAKHALI,BEGUMGANJ,MIR AHMADPUR,91.16639,22.90819,8063,1
MIRWARISHPUR alim MADRASAH,107226,Madrasha,NOAKHALI,BEGUMGANJ,MIR WARISHPUR,91.17228,22.96378,8064,1
RAJGoNJ DARUL ULUM FAZIL MADRASah,107231,Madrasha,NOAKHALI,BEGUMGANJ,ALADINAGAR,90.10583,22.95989,8065,1
BAKIPUR SIDDIKIA DAKHIL MADRASah,107235,Madrasha,NOAKHALI,BEGUMGANJ,BAKIPUR,91.05222,22.91456,8066,1
ISLAMPUR dAKHIL MADRASah,107240,Madrasha,NOAKHALI,BEGUMGANJ,BABUNAGAR,91.18369,22.95378,8067,1
DARUL FALAH FAZIL MADRASHA,107234,Madrasha,NOAKHALI,BEGUMGANJ,BARA KHANPUR,91.19597,22.95033,8068,1
UTTAR SHARIFPUR KARAMOTIA DAKHIL MADRASAH,107236,Madrasha,NOAKHALI,BEGUMGANJ,BARA SHARIFPUR,91.12714,22.88369,8069,1
DARUL FALAH GIRLS DAKHIL MADRASHA,107222,Madrasha,NOAKHALI,BEGUMGANJ,DAKSHIN SONAPUR,91.13106,22.9015,8070,1
AL MADRASHATUD DEENIA DAKHIL MADRASHA,107621,Madrasha,NOAKHALI,NOAKHALI SADAR,HARINARAYANPUR,91.09725,22.86125,8071,1
KARAMOTIA KAMIL MADRASHA,107618,Madrasha,NOAKHALI,NOAKHALI SADAR,SONAPUR,91.09653,22.85378,8072,1
NOAKHALI ISLAMIA KAMIL MADRASHA,107619,Madrasha,NOAKHALI,NOAKHALI SADAR,SONAPUR,91.09767,22.85058,8073,1
UNDER CHAR RAHMANIA DAKHIL MADRASHA,107637,Madrasha,NOAKHALI,NOAKHALI SADAR,ANDERCHAR,91.09914,22.83292,8074,1
EAST MAIJ CHARA BANGLA BAZAR DAKHIL MADRASHA,107609,Madrasha,NOAKHALI,NOAKHALI SADAR,PURBA MAIJ CHAR,91.09892,22.82753,8075,1
H.A.JANAKALLAN ALIM  MADRASA,131666,Madrasha,NOAKHALI,NOAKHALI SADAR,PURBA MAIJ CHAR,90.97944,22.77975,8076,1
SAFIPUR GIRL'S DAKHIL MADRASHA,107650,Madrasha,NOAKHALI,NOAKHALI SADAR,SAFIPUR,91.13508,22.83817,8077,1
NOTUNHAT BOBAR KANDI ISLAMIA DAKHIL MADRASHA,107626,Madrasha,NOAKHALI,NOAKHALI SADAR,BOBARKANDI,91.10119,22.83258,8078,1
BAGA SALA PIR M. D MADRASHA,107643,Madrasha,NOAKHALI,NOAKHALI SADAR,MANARKHIL,91.08706,22.84889,8079,1
HAZRAT KHADIJA KUBRA (R) MOHILA DAKHIL MADRASHA,107608,Madrasha,NOAKHALI,NOAKHALI SADAR,LAKSHMI NARAYANPUR,90.98228,22.85083,8080,1
MUJIBUL HAQUE ISLAMIA DAKHIL MADRASHA,107639,Madrasha,NOAKHALI,NOAKHALI SADAR,RAMANANDI,90.99711,22.85908,8081,1
KHALIFAR HAT HAMEDIA FAZIL MADRASHA,107614,Madrasha,NOAKHALI,NOAKHALI SADAR,BARAIPUR,90.98342,22.85825,8082,1
KRIPALPUR ISLAMIA ALIM  MADRASHA,107615,Madrasha,NOAKHALI,NOAKHALI SADAR,KRIPALPUR,90.99294,22.8485,8083,1
OBAIDIA SULTANIA DARUSSUNAT DAKHIL MADRASAH,107610,Madrasha,NOAKHALI,NOAKHALI SADAR,BHATERTEK,91.02631,22.86575,8084,1
SOUTH SULLUKIA NOMANIA ISLAMIA DAKHILA MADRASHA,107636,Madrasha,NOAKHALI,NOAKHALI SADAR,DAKSHIN SULUKIA,91.11375,22.74889,8085,1
MOHABBATPUR MODINATUL ULUM DAKHIL MADRASHA,107628,Madrasha,NOAKHALI,NOAKHALI SADAR,DAKSHIN SULUKIA,91.02775,22.78994,8086,1
NURUL ULUM SIDDIQIA DAKHIL MADRASHA,107631,Madrasha,NOAKHALI,NOAKHALI SADAR,EWAZBALIA,91.06606,22.74906,8087,1
NANDANPUR ISLAMIA DAKHIL MADRASAH,107653,Madrasha,NOAKHALI,NOAKHALI SADAR,NANDANPUR,91.04622,22.83303,8088,1
MAJOR MANNAN DARUL ULUM DAKHIL MADRASHA,107644,Madrasha,NOAKHALI,NOAKHALI SADAR,EWAZBALIA,91.04978,22.74072,8089,1
RAHMANIA DAKHIL MADRASHA,107635,Madrasha,NOAKHALI,NOAKHALI SADAR,GOPINATHPUR,91.04356,22.82225,8090,1
SUJAPUR MAHILA dakhil  MADRASHA,107647,Madrasha,NOAKHALI,NOAKHALI SADAR,PASCHIM SUJAPUR,91.06808,22.79594,8091,1
SAIDUL ABRAR GIRLS ALIM MADRASHA,107649,Madrasha,NOAKHALI,NOAKHALI SADAR,PURBA CHAR ELAHI,91.15158,22.86333,8092,1
ASWADIA NURUL ULUM FARUKIA DAKHIL MADRASAH,107620,Madrasha,NOAKHALI,NOAKHALI SADAR,ASHWADIA,91.15133,22.86231,8093,1
GORAPUR ISLIMIA FAZIL MADRASHA,107623,Madrasha,NOAKHALI,NOAKHALI SADAR,GORAPUR,91.11744,22.84583,8094,1
CHAR CHOWNIA SULTANIA ISLAMIA DAKHIL MADRASHA,107642,Madrasha,NOAKHALI,NOAKHALI SADAR,CHANDRA BALLABH,91.04894,22.86686,8095,1
CHOWDHUYR  HAT  ANTAZIA  ISLAMIA  MODEL dakhil  MADRASA,107357,Madrasha,NOAKHALI,COMPANIGANJ,CHAR PARBATI (PART),91.31286,22.87906,8096,2
RUPNAGAR TALIMUL QURAN DAKHIL MADRASA,131626,Madrasha,NOAKHALI,COMPANIGANJ,KAKRA CHAR (PART),91.31286,22.87906,8097,2
EAST CHARPARBATI MADINATUL ULUM ISLAMIA DAKHIL MADRASHA,107353,Madrasha,NOAKHALI,COMPANIGANJ,CHAR PARBATI (PART),91.31214,22.90544,8098,1
CHAR HAJARI MOHILA DAKHIL MADRASA,131628,Madrasha,NOAKHALI,COMPANIGANJ,CHAR HAZARI (PART),91.31789,22.90133,8099,1
ABU MAZIRHAT A. SAYIDA DAKHIL MADRASHA,107352,Madrasha,NOAKHALI,COMPANIGANJ,CHAR HAZARI (PART),91.322,22.86517,8100,1
HAZARI HAT ALIM MADRASHA,107347,Madrasha,NOAKHALI,COMPANIGANJ,CHAR HAZARI (PART),91.29194,22.86967,8101,1
BASURHAT ISLAMIA FAZIL MADRASHA,107345,Madrasha,NOAKHALI,COMPANIGANJ,CHAR PARBATI (PART),91.29147,22.8795,8102,1
SAYED HAFEZ ASGAR ALI DAKHIL MADRASHA,107351,Madrasha,NOAKHALI,COMPANIGANJ,CHAR FAKIRA,91.27406,22.81767,8103,1
FATEMATUZ  ZOHRA rA  BAHUMUKHI  MAHILA DAKHIL MADRASAH,107356,Madrasha,NOAKHALI,COMPANIGANJ,KAKRA CHAR (PART),91.27775,22.86992,8104,1
MOHAMMADIA ISLAMIA DAKHIL MADRASAH,107354,Madrasha,NOAKHALI,COMPANIGANJ,KAKRA CHAR (PART),91.24686,22.80764,8105,1
JAMIA SHARAFATIA ISLAMIA FAZIL MADRASHA,107349,Madrasha,NOAKHALI,COMPANIGANJ,MADHYA MUSAPUR,91.28656,22.86406,8106,1
RONGMALA DARUSSUNNAH MODEL ALIM MADRASHA,107344,Madrasha,NOAKHALI,COMPANIGANJ,RAMPUR,91.27097,22.81861,8107,1
BAMNI ASSIRIA  FAZIL MADRASHA,107346,Madrasha,NOAKHALI,COMPANIGANJ,RAMPUR,91.31275,22.80886,8108,1
BHUIYAN SELINA AKHTER MULTILATERAL MOHILA  dakhil MADRASHA,107355,Madrasha,NOAKHALI,COMPANIGANJ,RAMPUR,91.31244,22.82489,8109,1
SHAHZADPUR ISLAMIA DAKHIL MADRASHA,107348,Madrasha,NOAKHALI,COMPANIGANJ,SAHAZADPUR,91.2645,22.87814,8110,1
MANDAR TOLI DARUSSUNNA  ISLAMIA DAKHIL MADRASHA,107616,Madrasha,NOAKHALI,NOAKHALI SADAR,MANDARTALI,91.29264,22.89344,8111,1
SENBAG FAZIL MADRASHA,107499,Madrasha,NOAKHALI,SENBAGH,BABUPUR ARJUNTALA,91.13844,23.04703,8112,1
AZIZIA GIRLS DAKHIL MADRASHA,107512,Madrasha,NOAKHALI,SENBAGH,KAZIRKHIL,91.20794,22.93028,8113,1
JOYNAGAR WAZEDIA ALIM MADRASHA,107497,Madrasha,NOAKHALI,SENBAGH,KAZIRKHIL,91.16244,22.47156,8114,1
ENAYETPUR RAHMATIA ALIM MADRASAH,107508,Madrasha,NOAKHALI,SENBAGH,ENAYETPUR,91.22161,23.13956,8115,1
MOIZDIPUR ASHRAFUL ULUM DAKHIL MADRASHA,107510,Madrasha,NOAKHALI,SENBAGH,MAJDIPUR,91.21333,23.01061,8116,1
KANKIR HAT FAZIL MADRASHA,107505,Madrasha,NOAKHALI,SENBAGH,BIRKOT,91.24447,23.00978,8117,1
KALYANDI FAIZUL ULUM DAKHIL MADRASHA,107507,Madrasha,NOAKHALI,SENBAGH,MOHAMMADPUR (PART),91.23375,23.01303,8118,1
RAZARAMPUR BASHIRIA ALIM MADRASHA,107509,Madrasha,NOAKHALI,SENBAGH,RAJARAMPUR,91.20119,23.04131,8119,1
ESFAQUL HAQUE MANNA ALIM MADRASHA,131640,Madrasha,NOAKHALI,SENBAGH,BARA CHARIGAON,91.20233,23.04011,8120,1
NABIPUR FAYEJIA DAKHIL  MADRASAH,107502,Madrasha,NOAKHALI,SENBAGH,NABIPUR,91.22617,22.95358,8121,1
KUTUBAR HAT DAKHIL MADRASah,107503,Madrasha,NOAKHALI,SENBAGH,DEBISINGPUR,91.25697,22.946,8122,1
BURIRCHAR AHMADIA ALIM MADRASHA,107449,Madrasha,NOAKHALI,HATIYA,BURIR CHAR,91.14086,22.26486,8125,2
JAHAJMARA SERAJUL ULUM ALIM MADRASAH,107456,Madrasha,NOAKHALI,HATIYA,JAHAJMARA,91.12931,22.31383,8132,1
NOLCHIRA SYED AHMAD DAKHIL MADRASAH,107458,Madrasha,NOAKHALI,HATIYA,KAWNIA,91.12153,22.35403,8134,2
KABIRHAT MODEAL JUNIOR HIGH SCHOOL,131250,School,NOAKHALI,KABIRHAT,JONADPUR,91.91859,23.20945,21088,1
KABIR HAT HIGH SCHOOL,107549,School,NOAKHALI,KABIRHAT,ENAYET NAGAR,91.9798,23.11999,21089,1
BHUIYAR HAT HIGH SCHOOL,107553,School,NOAKHALI,KABIRHAT,DAKSHIN GOSHBAG,91.93895,23.17829,21090,1
BATAIYA MOUDUD AHAMMED HIGH SCHOOL,107566,School,NOAKHALI,KABIRHAT,BATAIYA,91.20175,22.83728,21091,1
OTERHAT HIGH SCHOOL,107530,School,NOAKHALI,KABIRHAT,RAMDI,91.20406,22.8365,21092,1
CHAPRASHIR HAT HIGH SCHOOL,107666,School,NOAKHALI,KABIRHAT,UPARDI LAMCHHI,91.20303,22.83725,21093,1
LAMCHI PROSAD HIGH SCHOOL,107573,School,NOAKHALI,KABIRHAT,LAMCHHI PRASAD,91.22983,22.86333,21094,1
BANGA BANDHU SHEK MUJIBUR RAHMAN JUNIOR HIGH SCHOOL,107592,School,NOAKHALI,KABIRHAT,UTTAR JAGADANANDA,91.23939,22.81703,21095,1
JANATA BAZAR JUNIOR HIGH SCHOOL,107600,School,NOAKHALI,KABIRHAT,CHHOTA RAMPUR,91.24144,22.81578,21096,1
NABA GRAM HIGH SCHOOL,131271,School,NOAKHALI,KABIRHAT,NABAGRAM,91.22031,22.80186,21097,1
SAUDIA  BAZAR  JUNIOR  HIGH  SCHOOL,107595,School,NOAKHALI,KABIRHAT,NARASINHAPUR,91.21536,22.79628,21098,1
UTTAR RAMESHWARPUR JR.HIGH SCHOOL,107561,School,NOAKHALI,KABIRHAT,RAMESHWARPUR,91.22814,22.79311,21099,1
MOSAREF HOSSAIN JUNIOR HIGH SCHOOL,107588,School,NOAKHALI,KABIRHAT,NARASINHAPUR,91.14075,22.81897,21100,1
RAMESHWARPUR  M.M HIGH SCHOOL,107531,School,NOAKHALI,KABIRHAT,RAMESHWARPUR,91.23703,22.77683,21101,1
NOLUA BHUIYAr  HAT HIGH SCHOOL,107594,School,NOAKHALI,KABIRHAT,NALUA,91.15603,22.71978,21102,1
ABDUR  RAHIM  HIGH SCHOOL,107597,School,NOAKHALI,KABIRHAT,PURBA LAMCHHI,91.2245,22.8345,21103,1
GOSHBAG  KADERIA  HIGH SCHOOL,107560,School,NOAKHALI,KABIRHAT,GHOSHBAGH(PART-3),91.21708,22.81403,21104,1
TAJUL ISLAM MODEL ACADEMY HIGH SCHOOL,107586,School,NOAKHALI,KABIRHAT,MANINAGAR,91.22364,22.84458,21105,1
SADAR NAROTTAMPUR HIGH SCHOOL,107550,School,NOAKHALI,KABIRHAT,NAROTTAMPUR,91.2195,22.81047,21106,1
KARAM BOX ADARSHA HIGH SCHOOL,107526,School,NOAKHALI,KABIRHAT,PHALAHARI,91.1405,22.77706,21107,1
MEARHAT HIGH SCHOOL,107528,School,NOAKHALI,KABIRHAT,PURBA RAJURGAON,91.19803,22.86472,21108,1
BANDATTA HIGH SCHOOL,107558,School,NOAKHALI,KABIRHAT,BARA RAMDEBPUR,91.17336,22.86403,21109,1
KALAMUNSHI HIGH SCHOOL,107571,School,NOAKHALI,KABIRHAT,SUNDALPUR,91.17061,22.85148,21110,1
A GONI GIRLS HIGH SCHOOL /SAGORIA,131363,School,NOAKHALI,HATIYA,BURIR CHAR,91.12556,22.29136,21115,2
HATIYA JANAKALLAN SHIKKAH TRUST  HIGH SCHOOL,131272,School,NOAKHALI,HATIYA,BHUIYAR CHAR,91.13308,22.19808,21117,2
CHAR LATIYA JUNIOR HIGH SCHOOL,107427,School,NOAKHALI,HATIYA,CHAR ISHWAR ROY (PART 1),91.13914,22.24817,21118,1
HATIYA UNION MODEL PILOT HIGH SCHOOL,107421,School,NOAKHALI,HATIYA,CHAR ISHWAR ROY (PART 1),91.13394,22.19725,21119,1
A. M HIGH SCHOOL,107431,School,NOAKHALI,HATIYA,CHAR ISHWAR ROY (PART 1),91.12322,22.36236,21120,1
OSKHALI K.S.S GOVT. HIGH SCHOOL,107419,School,NOAKHALI,HATIYA,CHAR ISHWAR ROY (PART 1),91.10203,22.54064,21121,2
NANDA KUMAR JUNIOR GIRLS HIGH SCHOOL,107439,School,NOAKHALI,HATIYA,CHAR ISHWAR ROY (PART 1),91.16308,22.30675,21122,1
AZMERI BEGUM HIGH  SCHOOL,107430,School,NOAKHALI,HATIYA,REHANIA,91.13528,22.32589,21123,2
CHAR KING GIRLS HIGH SCHOOL,107438,School,NOAKHALI,HATIYA,CHAR ISHWAR ROY (PART-2),91.16372,22.28381,21124,1
BOALIYA HIGH  SCHOOL,107432,School,NOAKHALI,HATIYA,CHAR ISHWAR ROY (PART-2),91.14553,22.2875,21125,1
HATIYA TOWN GOVT GIRLS HIGH SCHOOL,107420,School,NOAKHALI,HATIYA,CHAR ISHWAR ROY (PART),91.09806,22.3615,21128,1
BIRBIRI CENTRE BAZAR HIGH SCHOOL,107441,School,NOAKHALI,HATIYA,CHAR BIRBIRI,91.09708,22.36786,21129,2
M.C,S HIGH SCHOOL,107433,School,NOAKHALI,HATIYA,GULLAKHALI (PART),91.08172,22.16569,21131,1
MAIJDEE  HIGH SCHOOL,107417,School,NOAKHALI,HATIYA,CHAR CHENGA,91.06553,22.15394,21132,1
SONADIA ADARSH  HIGH SCHOOL,107443,School,NOAKHALI,HATIYA,SONADIA,91.05994,22.11992,21133,1
SUKCHAR UNION BANG BANDHU HIGH SCHOOL,107437,School,NOAKHALI,HATIYA,CHAR TAMARUDDIN,91.07267,22.228,21135,1
JOREKHALI HIGH SCHOOL,107435,School,NOAKHALI,HATIYA,CHAR TAMARUDDIN,91.08158,22.38819,21137,2
HAZI MOSHAREF HOSSAN  HIGH SCHOOL,107602,School,NOAKHALI,SUBARNACHAR,CHAR BATA,91.13189,22.33164,21138,2
CHAR BATA GIRLS HIGH SCHOOL,107521,School,NOAKHALI,SUBARNACHAR,CHAR BATA,91.141,22.28167,21139,2
CHAR BATA  SOWDAGORHAT  HIGH SCHOOL,107601,School,NOAKHALI,SUBARNACHAR,CHAR BATA,91.07592,22.29172,21140,2
KERAMOTPUR M.S. HIGH SCHOOL,107584,School,NOAKHALI,SUBARNACHAR,KERAMATPUR,91.11731,22.62658,21141,1
LORD LEONARD CHESHIRE HIGH SCHOOL,107585,School,NOAKHALI,SUBARNACHAR,CHAR CLERK,91.12694,22.63578,21142,1
CHAR HASAN BHUIYARHAT HIGH SCHOOL,107523,School,NOAKHALI,NOAKHALI SADAR,CHAR SALLA,91.18044,22.67856,21143,1
ABDULLAH MIAR HAT JUNIOR HIGH SCHOOL,107606,School,NOAKHALI,SUBARNACHAR,CHAR RASHID,91.13103,22.63372,21144,1
CHAR JABBAR UNION JUNIOR HIGH SCHOOL,131289,School,NOAKHALI,SUBARNACHAR,PASCHIM CHAR JABBAR,91.20644,22.66689,21145,1
CHAR RASHID HIGH SCHOOL,131280,School,NOAKHALI,SUBARNACHAR,CHAR RASHID,91.18081,22.64836,21146,1
JUBLIE HABIB ULLAH MIAR HAT HIGH SCHOOL,107589,School,NOAKHALI,SUBARNACHAR,DAKSHIN KANCHAPIA,91.04631,22.72458,21147,1
PANKHAR BAGAR JUNIOR HIGH SCHOOL,107532,School,NOAKHALI,SUBARNACHAR,CHAR JUBILEE,91.02811,22.70564,21148,1
SHAHID JOYNAL ABEDIN HIGH SCHOOL,107562,School,NOAKHALI,SUBARNACHAR,PASCHIM CHAR JUBILEE,91.01289,22.73181,21149,1
CHAR  CLERK  HIGH SCHOOL,107563,School,NOAKHALI,SUBARNACHAR,CHAR TORABALI,91.0895,22.63219,21150,1
CHARBATA R.G. HIGH SCHOOL,107551,School,NOAKHALI,SUBARNACHAR,CHAR BATA,91.11681,22.6576,21151,1
SOMIRHAT MADHAMIC GIRLS SCHOOL,107596,School,NOAKHALI,SUBARNACHAR,HAJIPUR,91.11681,22.65767,21152,1
MAHBU8EN NESA GIRLS HIGH SCHOOL,107385,School,NOAKHALI,SONAIMURI,UTTAR SONAPUR,91.23753,22.64058,21153,1
SONAIMURI GIRLS HIGH SCHOOL,107382,School,NOAKHALI,SONAIMURI,PASCHIM SONAIMURI,91.15425,22.61953,21154,1
SONAIMURI MODEL HIGH SCHOOL,107373,School,NOAKHALI,SONAIMURI,PASCHIM SONAIMURI,91.14839,22.59611,21155,1
AMBER NAGAR HIGH SCHOOL,107391,School,NOAKHALI,SONAIMURI,AMBARNAGAR,91.07497,23.00706,21156,1
WASEKPUR HIGH SCHOOL,107379,School,NOAKHALI,SONAIMURI,WASEKPUR,91.09406,23.04086,21157,1
ABIRPARA MADHYAMIC  BIDYA NIKETAN,107378,School,NOAKHALI,SONAIMURI,ABIR PARA,91.09769,23.03653,21158,1
AMISHA PARA KRISHAK HIGH SCHOOL,107376,School,NOAKHALI,SONAIMURI,DAKSHIN KAICHERBAGH,91.10078,23.03808,21159,1
KESHAR KHIL GIRLS HIGH SCHOOL,107390,School,NOAKHALI,SONAIMURI,MANIKYANAGAR,91.17689,22.99825,21160,1
SOHEED MUKTTIZODHA IDEAL HIGH SCHOOL,131291,School,NOAKHALI,SONAIMURI,NAYA RAJARAMPUR,91.16278,22.98936,21161,1
NAZRUL ACADEMY HIGH SCHOOL,107386,School,NOAKHALI,SONAIMURI,PADI PARA,91.00439,22.99606,21162,1
KASHIPUR MULTILATERAL HIGH SCHOOL,107375,School,NOAKHALI,SONAIMURI,KASHIPUR,91.00847,22.995,21163,1
RAJIBPUR HIGH SCHOOL,107367,School,NOAKHALI,SONAIMURI,RAJIBPUR,91.03675,22.97436,21164,1
RASHIDPUR HIGH SCHOOL,107389,School,NOAKHALI,SONAIMURI,RASHIDPUR,91.15206,23.01783,21165,1
BAZRA ML HIGH SCHOOL,107374,School,NOAKHALI,SONAIMURI,PURBA CHANDPUR,91.13464,23.02533,21166,1
BHUIYAR BAZAR HANUFA KHATUN HIGH SCHOOL,107365,School,NOAKHALI,SONAIMURI,SAHARPAR,91.15178,23.01822,21167,1
KHALILUR RAHMAN HIGH SCHOOL,107370,School,NOAKHALI,SONAIMURI,BRAJERGAON,91.12358,23.02753,21168,1
AMIRABAD HIGH SCHOOL,107368,School,NOAKHALI,SONAIMURI,AMIRABAD,91.10222,23.01483,21169,1
NANDIA PARA HIGH SCHOOL,107383,School,NOAKHALI,SONAIMURI,NANDIA PARA,91.09914,22.99144,21170,1
BIR SRESTHA SHAHID RUHUL AMIN ACADEMY,107363,School,NOAKHALI,SONAIMURI,BIRCRESTOO RUHUL AMINNAGAR,91.0925,23.02336,21171,1
PITAMBER PUR HIGH SCHOOL,107371,School,NOAKHALI,SONAIMURI,PITAMBARPUR,91.124,23.06197,21172,1
MUHURIGONJ ABDUL MATIN PATOWARI  HIGH SCHOOL,107392,School,NOAKHALI,SONAIMURI,DURGA DAULATPUR,91.03192,23.01278,21173,1
KISHALOY BIDDANIKATON,131281,School,NOAKHALI,SONAIMURI,KEGHNA,91.00925,23.04144,21174,1
C.B.L SCHOOl,131328,School,NOAKHALI,SONAIMURI,KEGHNA,91.02653,23.03567,21175,1
GANDHI MEMORIAL INSTITUTE,107372,School,NOAKHALI,SONAIMURI,JAYAG,91.03994,23.03744,21176,1
JOYAG  BOHUMUKHI HIGH SCHOOL,107377,School,NOAKHALI,SONAIMURI,JAYAG,91.04169,23.039,21177,1
PALLI MANGAL HIGH SCHOOL,107380,School,NOAKHALI,SONAIMURI,JUNADPUR,91.01406,23.04089,21178,1
KALIKAPUR HIGH SCHOOL,107362,School,NOAKHALI,SONAIMURI,UTTAR KALIKAPUR,91.04981,23.06492,21179,1
SONAPUR ALI AKBAR HIGH SCHOOL,107387,School,NOAKHALI,SONAIMURI,DHANYAPUR,91.00558,23.06475,21180,1
UDAYAN SCHOOL,131317,School,NOAKHALI,SONAIMURI,KEGHNA,91.01194,23.06358,21181,1
THANAR HAT HIGH SCHOOL,107388,School,NOAKHALI,SONAIMURI,MAHUTALA,91.06703,23.02181,21182,1
FLORA SHIKKHA NIKETON,131364,School,NOAKHALI,SONAIMURI,HATGAON,91.02753,23.08806,21183,1
IDEAL KINDER GARTEN,131295,School,NOAKHALI,SONAIMURI,KEGHNA,91.02658,23.08831,21184,1
RUBIRHAT BANGABANDHU HIGH SCHOOL,107364,School,NOAKHALI,SONAIMURI,PANCH BARIA,91.10517,22.99669,21185,1
NADONA ADARSHA HIGH SCHOOL,107384,School,NOAKHALI,SONAIMURI,KALUAI,91.01272,23.06489,21186,1
NILAMHAT ADARSHA HIGH SCHOOL,107393,School,NOAKHALI,SONAIMURI,KALUAI,91.02961,23.06372,21187,1
NATESWAR ABUL KHAIR HIGH SCHOOL,107381,School,NOAKHALI,SONAIMURI,NATESHWAR,91.04969,23.06158,21188,1
MORSHID ALAM HIGH SCHOOL,107369,School,NOAKHALI,SONAIMURI,NATESHWAR,91.05014,23.06042,21189,1
CHONGOW GIRLS HIGH SCHOOL,107221,School,NOAKHALI,SONAIMURI,BAZRA,91.07236,23.06072,21190,1
CHATKHIL PANCH GAON GOVT. HIGH SCHOOL,107278,School,NOAKHALI,CHATKHIL,BHIMPUR (PART),91.12536,22.98419,21191,1
BHIMPUR ML HGIH SCHOOL,107277,School,NOAKHALI,CHATKHIL,BHIMPUR (PART),91.15611,22.98919,21192,1
CHATKHIL GOVT GIRLS HIGH SCHOOL,107281,School,NOAKHALI,CHATKHIL,CHATKHIL,90.98439,23.06008,21193,1
BADAL KOTE HIGH SCHOOL,107270,School,NOAKHALI,CHATKHIL,BADALKUT,90.97236,23.06189,21194,1
HIRAPUR IDEAL HIGH SCHOOL,107284,School,NOAKHALI,CHATKHIL,HIRAPUR,90.92519,23.07925,21195,1
DARUL ISLAM GIRLS HIGH SCHOOL,131292,School,NOAKHALI,CHATKHIL,BADALKUT,90.96678,23.05481,21196,1
SAPTAGAON  ADARSHA   HIGH SCHOOL,107258,School,NOAKHALI,CHATKHIL,CHANDPUR,90.96961,23.05858,21197,1
CHYANI TOBGA AZAM GIRLS HIGH SCHOOL,107285,School,NOAKHALI,CHATKHIL,CHHAYANI TABGA (PART),90.95,23.08775,21198,1
NARAYAN PUR R.K. HIGH SCHOOL,107266,School,NOAKHALI,CHATKHIL,NARAYANPUR,90.95706,23.09256,21199,1
MALLIKER DIGHIRPAR HIGH SCHOOL,107286,School,NOAKHALI,CHATKHIL,KALIKAPUR,90.97328,23.04553,21200,1
HAT PUKURIA HIGH SCHOOL,107282,School,NOAKHALI,CHATKHIL,GOBINDAPUR(PART-1),90.9655,23.11925,21201,1
KHILPARA M.L. HIGH SCHOOL,107259,School,NOAKHALI,CHATKHIL,PURBA KHIL PARA,91.01106,22.9065,21202,1
FAORAH HIGH SCHOOL,107274,School,NOAKHALI,CHATKHIL,PHAORA,90.97242,23.01386,21203,1
KAMALPUR M. H  HIGH SCHOOL,107263,School,NOAKHALI,CHATKHIL,BANSA,90.97769,22.98669,21204,1
OMAR ALI HIGH SCHOOL,107272,School,NOAKHALI,CHATKHIL,KULASREE,90.99725,23.00586,21205,1
MOHAMMADPUR JANATA HIGH SCHOOL,107264,School,NOAKHALI,CHATKHIL,MOHAMMADPUR,90.9685,23.01803,21206,1
PALLA MAHBUB ADARSHA HIGH SCHOOL,107261,School,NOAKHALI,CHATKHIL,PALLA,90.95769,23.01158,21207,1
KARIHATI M.L. HIGH SCHOOL,107268,School,NOAKHALI,CHATKHIL,BHARATPUR,90.98781,23.09853,21208,1
DR. KHALILUR  RAHMAN   GIRLS  HIGH SCHOOL,132543,School,NOAKHALI,CHATKHIL,SOLLA,91.00558,23.08044,21209,1
JIB NAGAR M. L. HIGH SCHOOL,107271,School,NOAKHALI,CHATKHIL,NAYAKHOLA,91.01928,23.09831,21210,1
TALTALA ADARSHA GIRLS HIGH SCHOOL,107275,School,NOAKHALI,CHATKHIL,SATRA PARA,90.98511,23.07864,21211,1
SHING  BAHURA  GIRLS  ACADEMY,107283,School,NOAKHALI,CHATKHIL,SINGBAHURA,90.99789,23.03008,21212,1
PANCH GAON GIRLS HIGH SCHOOL,107262,School,NOAKHALI,CHATKHIL,BARAI PARA,90.99719,23.03058,21213,1
PARKOTE DASHGORIA UNION HIGH SCHOOL,107260,School,NOAKHALI,CHATKHIL,DASHGHARIA,90.98694,23.02997,21214,1
RAMNARAYANPUR HIGH SCHOOL,107280,School,NOAKHALI,CHATKHIL,RAMNARAYANPUR,90.98906,23.04092,21215,1
SOMPARA HIGH SCHOOL,107276,School,NOAKHALI,CHATKHIL,PRASADPUR,90.9905,23.01747,21216,1
SOMPARA GIRL'S HIGH SCHOOL,107273,School,NOAKHALI,CHATKHIL,PRASADPUR,90.99714,23.06075,21217,1
SHAHAPUR M L HIGH SCHOOL,107279,School,NOAKHALI,CHATKHIL,SAHAPUR,90.93269,23.06694,21218,1
MIRJAPUR POUR mukti jodda abdur rahim pouro JUNIOR SCHOOL,107269,School,NOAKHALI,CHATKHIL,MIRZAPUR,90.91417,23.02239,21219,1
M A MOTALEB JUNIOR HIGH SCHOOL,107195,School,NOAKHALI,BEGUMGANJ,CHANDPUR,90.91606,23.05039,21220,1
SHAHEED AMAN ULLAH PUBLIC HIGH SCHOOL,133830,School,NOAKHALI,BEGUMGANJ,ALAIAR PUR,90.91994,23.02533,21221,1
BEGUMGONJ GOVT. TECHNICAL HIGH SCHOOL,107188,School,NOAKHALI,BEGUMGANJ,AMANATPUR,90.97436,23.07536,21222,1
NOAKHALI PUBLIC high SCHOOL,107257,School,NOAKHALI,BEGUMGANJ,MADHYA ALIPUR,91.08458,22.97097,21223,1
ZAINUL ABEDIN MEMORIAL ACADEMY,131247,School,NOAKHALI,BEGUMGANJ,DAKSHIN ALIPUR,91.10431,22.95278,21224,1
DELTA  JUTE  MILL'S  HIGH SCHOOL,107214,School,NOAKHALI,BEGUMGANJ,DAKSHIN GANIPUR,91.18586,22.98525,21225,2
BEGUMGoNJ GOVT PILOT HIGH SCHOOL,107191,School,NOAKHALI,BEGUMGANJ,KARIMPUR,91.10572,22.94228,21226,1
JANAKALLAN ADARSHAw HIGH SCHOOL,107219,School,NOAKHALI,BEGUMGANJ,KARIMPUR,91.10467,22.93464,21227,1
GABUA bangobundhu ADARSHA HIGH SCHOOL,131263,School,NOAKHALI,BEGUMGANJ,EKLASHPUR (PART),91.11086,22.96247,21228,1
BALUCHARA IBRAHIM MIA HIGH SCHOOL,107185,School,NOAKHALI,BEGUMGANJ,BALU CHAR,91.02903,22.97133,21229,1
KHURSHIDA  GIRLS HIGH SCHOOL,107184,School,NOAKHALI,BEGUMGANJ,CHAND KASHIMPUR,90.98828,22.91636,21230,1
A.K.G SAYEDUL HOQUE ADARSHA HIGH SCHOOL,107181,School,NOAKHALI,BEGUMGANJ,KASHIPUR,90.98814,22.91672,21231,1
OVIRAMPUR AFAZIA GIRLS HIGH SCHOOL,107207,School,NOAKHALI,BEGUMGANJ,UTTAR ABHIRAMPUR,90.99803,22.92217,21232,1
CHANDRAGONJ HIGH SCHOOL,107206,School,NOAKHALI,BEGUMGANJ,AMANULLAPUR,91.02594,22.92511,21233,1
DEWAN GOLAM SARWAR(N.A)HIGH SCHOOL,107193,School,NOAKHALI,BEGUMGANJ,AMANATPUR,91.00894,22.96756,21234,1
CHHAYANI HIGH SCHOOL,107208,School,NOAKHALI,BEGUMGANJ,LAKSHMANPUR,91.01753,22.95669,21235,1
CHHAYANI GIRLs HIGH SCHOOL,107215,School,NOAKHALI,BEGUMGANJ,LAKSHMANPUR,91.00981,22.9545,21236,1
LAKshMINARAYANPUR HIGH SCHOOL,107216,School,NOAKHALI,BEGUMGANJ,LAKSHMI NARAYANPUR,91.01203,22.8975,21237,1
DURGAPUR HIGH SCHOOL,107187,School,NOAKHALI,BEGUMGANJ,DURGAPUR,90.99003,22.89661,21238,1
EKLASHPUR HIGH SCHOOL,107204,School,NOAKHALI,BEGUMGANJ,EKLASHPUR (PART),90.99389,22.88031,21239,1
NORTH EAST AKLASPUR HARUN OR RASHID  HIGH SCHOOL,107183,School,NOAKHALI,BEGUMGANJ,EKLASHPUR (PART),91.15431,22.94708,21240,1
NUR COMPUTER CADET SCHOOL,131249,School,NOAKHALI,BEGUMGANJ,EKLASHPUR (PART),91.14583,22.95744,21241,1
SHAMSUNNAHAR HIGH SCHOOL,107212,School,NOAKHALI,BEGUMGANJ,BASANTERBAGH,90.12419,22.91869,21242,1
GOPALPUR ALI HAIDaR HIGH SCHOOL,107203,School,NOAKHALI,BEGUMGANJ,BETUABAGH,91.09839,22.8945,21243,1
CHAUMUHANI MoDAN MOHAN HIGH SCHOOL,107192,School,NOAKHALI,BEGUMGANJ,UTTAR HAJIPUR,91.04908,22.94683,21244,1
HAZIPUR ABDUL MAZID HIGH SCHOOL,107198,School,NOAKHALI,BEGUMGANJ,HAJIPUR,91.07061,22.98625,21245,1
JIRTALI UNION HIGH SCHOOL,107200,School,NOAKHALI,BEGUMGANJ,JIRTALI,90.06536,22.96847,21246,1
KALIKAPUR BABUPUR UNION HIGH SCHOOL,107201,School,NOAKHALI,BEGUMGANJ,JIRTALI,91.12583,22.92939,21247,1
NAROTTAMPUR UNION HIGH SCHOOL,107186,School,NOAKHALI,BEGUMGANJ,GAYES PUR,90.13983,22.92375,21248,1
GHATLA ABDUR RoB HIGH SCHOOL,107217,School,NOAKHALI,BEGUMGANJ,GHATLA,91.13347,22.94239,21249,1
GHATLA HIGH SCHOOL,107196,School,NOAKHALI,BEGUMGANJ,GHATLA,91.07042,22.91947,21250,1
KADIRPUR HIGH SCHOOL,107194,School,NOAKHALI,BEGUMGANJ,KADIRPUR,91.04694,22.94072,21251,1
KUTUBPUR ADARSHa HIGH SCHOOL,107179,School,NOAKHALI,BEGUMGANJ,KUTUBPUR,91.16628,22.90828,21252,1
MIRWARISHPUR GIRLS HIGH SCHOOL,107218,School,NOAKHALI,BEGUMGANJ,MIR WARISHPUR,91.19278,22.89236,21253,1
MIRKASHEM BOHUMUKHI HIGH SCHOOL,107213,School,NOAKHALI,BEGUMGANJ,MIR WARISHPUR,90.17242,22.96861,21254,1
GANIPUR PILOT GIRLS HIGH SCHOOL,107189,School,NOAKHALI,BEGUMGANJ,UTTAR HAJIPUR,91.19103,22.96533,21255,1
BABUPUR JIRToLI UNION HIGH SCHOOL,107199,School,NOAKHALI,BEGUMGANJ,ALI HASIMPUR,91.08842,22.96236,21256,1
DARUL ISLAM MODEL ACADEMY,133730,School,NOAKHALI,BEGUMGANJ,PASCHIM HAJIPUR (CHAUMOHANI),91.18586,22.98525,21257,2
KRISHNARAMPUR HIGH SCHOOL,107197,School,NOAKHALI,BEGUMGANJ,BARA KRISHNARAMPUR,91.10175,22.96592,21258,1
RAJGONJ UNION HIGH SCHOOL,107180,School,NOAKHALI,BEGUMGANJ,UTTAR KESHABPUR,91.12389,22.94806,21259,1
LATIFPUR High SCHOOL,107209,School,NOAKHALI,BEGUMGANJ,LATIFPUR,91.12497,22.94394,21260,1
JAMIDAR HAT B.N.HIGH SCHOOL,107210,School,NOAKHALI,BEGUMGANJ,RASULPUR,91.038,22.88644,21261,1
LAUTOLI High SCHOOL,107220,School,NOAKHALI,BEGUMGANJ,2LAUTALI,91.05658,22.88861,21262,1
SHIBPUR ADARSHA  HIGH SCHOOL,107202,School,NOAKHALI,BEGUMGANJ,SHIBPUR,91.05817,22.88886,21263,1
HASAN HAT HIGH SCHOOL,107211,School,NOAKHALI,BEGUMGANJ,BARA SHARIFPUR,91.04031,22.89858,21264,1
SONAPUR NURUL ISLAM HIGH SCHOOL,107182,School,NOAKHALI,BEGUMGANJ,DAKSHIN SONAPUR,91.17883,22.93389,21265,1
DHARAMPUR HAJEERHAT  HIGH SCHOOL,107599,School,NOAKHALI,NOAKHALI SADAR,DHARMAPUR,91.13594,22.90228,21266,1
MAIJDEE BALIKA BIDYA NIKATON,107544,School,NOAKHALI,NOAKHALI SADAR,MAIJDI (PART-A),91.10431,22.94311,21267,1
M. A. RASID  GIRLS HIGH SCHOOL,107543,School,NOAKHALI,NOAKHALI SADAR,LAKSHMI NARAYANPUR (PART),91.16,22.89658,21268,1
ARUN CHANDRA HIGH SCHOOL,107539,School,NOAKHALI,NOAKHALI SADAR,MAIJDI (PART-A),91.132,22.90942,21269,1
NOAKHALI RESIDENTIAL SCHOOL & COLLEGE,131311,School,NOAKHALI,NOAKHALI SADAR,JOYKRISHNAPUR,91.098,22.88242,21270,1
NOAKHALI GOVT. GIRLS GIGH SCHOL,107542,School,NOAKHALI,NOAKHALI SADAR,LAKSHMI NARAYANPUR (PART),91.09581,22.87158,21271,1
HARINARAYAN PUR UNION HIGH SCHOOL,107537,School,NOAKHALI,NOAKHALI SADAR,HARINARAYANPUR,91.08786,22.87289,21272,1
MAIJDEE GIRLS ACADEMY,107555,School,NOAKHALI,NOAKHALI SADAR,HARINARAYANPUR,91.09056,22.86492,21273,1
POURA KALYAN HIGH SCHOOL,107538,School,NOAKHALI,NOAKHALI SADAR,NOAKHALI,91.10147,22.86664,21274,1
NOAKHLI ZILLA SCHOOL,107540,School,NOAKHALI,NOAKHALI SADAR,LAKSHI NARAANPUR (PART-A),91.10217,22.86586,21275,1
M. A. SATTAR HIGH SCHOOL,107572,School,NOAKHALI,NOAKHALI SADAR,MAIJDI (PART-B),91.09492,22.86375,21276,1
UTTAR WAPDA JUNIOR HIGH SCHOOL,131265,School,NOAKHALI,NOAKHALI SADAR,CHHOTA SREEPUR,91.10475,22.87767,21277,1
MOHABBATPUR GIRLS HIGH SCHOOL,107534,School,NOAKHALI,NOAKHALI SADAR,SONAPUR,91.10456,22.86253,21278,1
COLLEGIATE SCHOOL,107583,School,NOAKHALI,NOAKHALI SADAR,SONAPUR,91.09653,22.85389,21279,1
SANTIR HAT  HIGH SCHOOL,107603,School,NOAKHALI,NOAKHALI SADAR,ANDERCHAR,91.09742,22.83261,21280,1
KALI TARA MUSLIM GIRLS ACHDEMY,107546,School,NOAKHALI,NOAKHALI SADAR,SALLA GATAYA,91.10017,22.83361,21281,1
MRIDHAR HAT HIGH SCHOOL,107556,School,NOAKHALI,NOAKHALI SADAR,OLIPUR,91.09897,22.82817,21282,1
BENODPUR HIGH SCHOOL,107576,School,NOAKHALI,NOAKHALI SADAR,BINODPUR,90.97117,22.77858,21283,1
NALPUR HIGH SCHOOL,107519,School,NOAKHALI,NOAKHALI SADAR,NALPUR,90.94542,22.79256,21284,1
OBAID ULLAH MEMORIAL HIGH SCHOOL,107547,School,NOAKHALI,NOAKHALI SADAR,JALIAL (PART-B),91.14083,22.84872,21285,1
AHMADIA MODEL HIGH SCHOOL,107545,School,NOAKHALI,NOAKHALI SADAR,SONAPUR,90.96803,22.80847,21286,1
PANA MEA T.F. HGIH SCHOOL,107548,School,NOAKHALI,NOAKHALI SADAR,RAMANANDI,91.08453,22.84039,21287,1
THAKEER HAT HAZI AHAMED ULLAH HIGH SCHOOL,107570,School,NOAKHALI,NOAKHALI SADAR,BRAHMAPUR,91.06772,22.832,21288,1
CHAR MATUA PRE-CADET ACADEMY,131382,School,NOAKHALI,NOAKHALI SADAR,SANKARPUR,91.08775,22.81497,21289,1
RAMBALLAVPUR HIGH SCHOOL,107557,School,NOAKHALI,NOAKHALI SADAR,HAKIMPUR,90.96867,22.85825,21290,1
BHATER TAK  HIGH SCHOOL,107522,School,NOAKHALI,NOAKHALI SADAR,BHATERTEK,90.97986,22.84917,21291,1
NOAKHALI BANGLA BAZAR HIGH SCHOOL,107580,School,NOAKHALI,NOAKHALI SADAR,SALLA (PART),91.10197,22.86744,21292,1
KARMULLA  HIGH SCHOOL,107587,School,NOAKHALI,NOAKHALI SADAR,CHAR KARAMULLA,91.02444,22.834,21293,1
NOANNAI UNION HIGH SCHOOL,107533,School,NOAKHALI,NOAKHALI SADAR,ATASPUR,91.10619,22.74747,21294,1
JAMIDAR HAT HIGH SCHOOL,107525,School,NOAKHALI,NOAKHALI SADAR,NANDANPUR,91.00394,22.87408,21295,1
WEST EWAZBALI JUNIOR HIGH SCHOOL,107582,School,NOAKHALI,NOAKHALI SADAR,EWAZBALIA,91.10172,22.77864,21296,1
AL-FAROOQ ACADEMY,107535,School,NOAKHALI,NOAKHALI SADAR,JOYKRISHNAPUR,91.03492,22.81342,21297,1
AL MADINA ACADEMY HIGH SHCOOL,107575,School,NOAKHALI,NOAKHALI SADAR,KRISHNARAMPUR,91.03772,22.78039,21298,1
ADARSHO UCHHA BIDYALAYA,107569,School,NOAKHALI,NOAKHALI SADAR,LAKSHMI NARAYANPUR (PART-B),91.02489,22.79089,21299,1
BROTHER ANDRES HIGH SCHOOL,107536,School,NOAKHALI,NOAKHALI SADAR,PASCHIM BADARIPUR,91.09483,22.86386,21300,1
GOURIPUR GIRLS HIGH SCHOOL,107578,School,NOAKHALI,NOAKHALI SADAR,RAMHARI TALUK,91.08194,22.86583,21301,1
FEROJ SHA MAIZ VANDARY HIGH SCHOOL,107581,School,NOAKHALI,NOAKHALI SADAR,PURBA DEBIPUR,91.10944,22.86678,21302,1
KHALIFAR HAT HIGH SCHOOL,107565,School,NOAKHALI,NOAKHALI SADAR,UTTAR CHAKLA,91.06933,22.86475,21303,1
NEAZPUR UNIUN M L HIGH SCHOOL,107568,School,NOAKHALI,NOAKHALI SADAR,DHANYAPUR,91.09278,22.82861,21304,1
NOAKHALI UNION HIGH SCHOOL,107559,School,NOAKHALI,NOAKHALI SADAR,KABIRPUR,91.01028,22.84131,21305,1
ISHAQPUR  MAJOR  MANAN  HIGH SCHOOL,107579,School,NOAKHALI,NOAKHALI SADAR,CHAR URIYA,91.12417,22.86908,21306,1
WEST CHARURIA MODEL HIGH SCHOOL,107529,School,NOAKHALI,NOAKHALI SADAR,CHAR URIYA,91.02389,22.83206,21307,1
SHIBPUR MUSLIM  HIGH SCHOOL,107574,School,NOAKHALI,NOAKHALI SADAR,SHIBPUR,91.06778,22.78803,21309,1
ISLAMGONJ JANATA HIGH SCHOOL,107567,School,NOAKHALI,NOAKHALI SADAR,LAKSHMI NARAYANPUR (PART),91.10897,22.81278,21310,1
NEW MODEL JANATA JUNIOR HIGH SCHOOL,131279,School,NOAKHALI,NOAKHALI SADAR,PASCHIM MAIJ CHAR,91.04422,22.84714,21311,1
CHARKAWNIA ANWAR HOSSAIN HIGH SCHOOL,107590,School,NOAKHALI,NOAKHALI SADAR,BOBARKANDI,91.06703,22.85864,21312,1
MUKTI JODDAH SHAHID KAMAL secondary HIGH SCHOOL,107338,School,NOAKHALI,COMPANIGANJ,BARA RAJAPUR (PART),91.04525,22.84797,21313,1
CHAR PARBATI S.C. HIGH SCHOOL,107332,School,NOAKHALI,COMPANIGANJ,CHAR PARBATI (PART),91.04392,22.84678,21314,1
CHAR PARBATI MEHERUNNESHA HIGH SCHOOL,107316,School,NOAKHALI,COMPANIGANJ,CHAR PARBATI (PART),90.91592,22.81428,21315,1
CHOWDHURYHAT B.ZAMAN HIGH SCHOOL,107325,School,NOAKHALI,COMPANIGANJ,CHAR PARBATI (PART),90.98314,22.81689,21316,1
MAQSUDAH GOVT. GIRLS HIGH SCHOOL,107326,School,NOAKHALI,COMPANIGANJ,KARALIA,90.98189,22.81069,21317,1
NURJAHAN AJMAT CHOWDHURANY GIRLS HIGH SCHOOL,107340,School,NOAKHALI,COMPANIGANJ,CHAR PARBATI (PART),91.32247,22.88128,21319,1
ACHIA  cARMAN GIRLS HIGH SCHOOL,107313,School,NOAKHALI,COMPANIGANJ,CHAR PARBATI (PART),91.33636,22.89967,21320,1
BASURHAT A.H.C. GOVT. HIGH SCHOOL,107327,School,NOAKHALI,COMPANIGANJ,CHAR PARBATI (PART),91.277,22.87225,21322,2
BAITUSH SHARAF AL AMIN ISLAMI ACADEMY,131264,School,NOAKHALI,COMPANIGANJ,CHAR PARBATI (PART),91.277,22.87225,21323,2
ABU MAZIR HAT HIGH SCHOOL,107336,School,NOAKHALI,COMPANIGANJ,CHAR HAZARI (PART),91.31475,22.90153,21324,1
ABUNASER CHWDHURY POURA HIGH SCHOOL,107341,School,NOAKHALI,COMPANIGANJ,CHAR HAZARI (PART),91.28317,22.84117,21325,1
SANTiR HAT Moudud AHAMED JUNIOR HIGH SCHOO,131369,School,NOAKHALI,COMPANIGANJ,CHAR HAZARI (PART),91.28256,22.87347,21326,1
MADHYA CHARKAKRA HIGH SCHOOL,107333,School,NOAKHALI,COMPANIGANJ,KAKRA CHAR (PART),91.30258,22.86397,21327,1
PESHKER HAT HIGH SCHOOL,107334,School,NOAKHALI,COMPANIGANJ,KAKRA CHAR (PART),91.31447,22.86781,21328,1
PASHCHIM CHARKAKRA PANDITER HAT SECONDARY SCHOOL,131297,School,NOAKHALI,COMPANIGANJ,KAKRA CHAR (PART),91.32525,22.86439,21329,1
COMPANIGONJ MODEL HIGH SCHOOL,107328,School,NOAKHALI,COMPANIGANJ,CHAR KAKRA (PART),91.31022,22.878,21330,1
CHARFAKIRA HIGH SCHOOL,107317,School,NOAKHALI,COMPANIGANJ,CHAR FAKIRA,91.27822,22.83472,21331,1
KABIJASIM UDDIN HIGH SCHOOL,107322,School,NOAKHALI,COMPANIGANJ,CHAR KALI,91.25661,22.83097,21332,1
MADHYA PURVA CHARKAKRA   HIGH SCHOOL,107318,School,NOAKHALI,COMPANIGANJ,KAKRA CHAR (PART),91.27539,22.86892,21333,1
CHARKAKRA ACADEMY HIGH SCHOOL,107337,School,NOAKHALI,COMPANIGANJ,KAKRA CHAR (PART),91.25408,22.80222,21334,1
NASER HIGH SCHOOL,107320,School,NOAKHALI,COMPANIGANJ,MADHYA MUSAPUR,91.25225,22.817,21335,1
MUSAPUR HIGH SCHOOL,107335,School,NOAKHALI,COMPANIGANJ,MADHYA MUSAPUR,91.28878,22.84631,21336,1
BAMNI HIGH SCHOOL,107329,School,NOAKHALI,COMPANIGANJ,RAMPUR,91.26242,22.85169,21337,1
JOGADIA GIRLS HIGH SCHOOL,107331,School,NOAKHALI,COMPANIGANJ,BIRAHIMPUR,91.28847,22.81825,21338,1
JOGIDA HIGH SCHOOL,107330,School,NOAKHALI,COMPANIGANJ,BIRAHIMPUR,91.29989,22.84828,21339,1
MANIKPUR HIGH SCHOOL,107319,School,NOAKHALI,COMPANIGANJ,MAMUDNAGAR,91.29003,22.82072,21340,1
SHAHJAD PUR HIGH SCHOOL,107312,School,NOAKHALI,COMPANIGANJ,SAHAZADPUR,91.28547,22.81828,21341,1
SIRAJPUR P.L ACADEMY,107339,School,NOAKHALI,COMPANIGANJ,SIRAJPUR,91.28847,22.81747,21342,1
SIRAJPUR HIGH SCHOOL,107323,School,NOAKHALI,COMPANIGANJ,SIRAJPUR,91.26519,22.879,21343,1
SENBAG GOVT GIRLS  HGIH SCHOOL,107475,School,NOAKHALI,SENBAGH,SENBAGH,91.24792,22.84572,21344,1
CHANDPUR  MODEAL  HIGH SCHOOL,107472,School,NOAKHALI,SENBAGH,CHAND PUR (PART),91.246,22.862,21345,1
BATAKANDI ADARSHA HIGH SCHOOL,107490,School,NOAKHALI,SENBAGH,GORKATA,91.24564,22.84553,21346,1
SHILONIA UNION HIGH SCHOOL,107479,School,NOAKHALI,SENBAGH,CHHILANIA,91.23339,22.99408,21347,1
BIJBAG N.K. HGIH SCHOOL,107477,School,NOAKHALI,SENBAGH,MADLA,91.25031,22.98228,21348,1
JOY NAGAR HIGH SCHOOL,107484,School,NOAKHALI,SENBAGH,KAZIRKHIL,91.23728,22.98481,21349,1
LEMUA HIGH SCHOOL,107483,School,NOAKHALI,SENBAGH,LEMUA,91.21536,22.91486,21350,1
TAMUHANI  ABDUR   RASHID BAUIYN  HIGH SCHOOL,107470,School,NOAKHALI,SENBAGH,MAHTABPUR,91.25089,22.92236,21351,1
GAZIRHAT  HIGH  SCHOOL,107467,School,NOAKHALI,SENBAGH,BABUPUR SREEPUR,91.15928,23.10489,21352,1
NOLUA ADARSHA  HIGH SCHOOL,107493,School,NOAKHALI,SENBAGH,NALUA,91.21967,22.91725,21353,1
DOMURUA Z. A. CHOWDHURY GIRL'S HIGH SCHOOL,107466,School,NOAKHALI,SENBAGH,DUMURIA,91.25478,22.92575,21354,1
EARPUR   HIGH  SCHOOL,107486,School,NOAKHALI,SENBAGH,YEARPUR,91.23808,23.04211,21355,1
UNIVERSAL ACADEMY,107494,School,NOAKHALI,SENBAGH,BINNAGUNI,91.58689,23.04386,21356,1
M.A. ALI HIGH SCHOOL,107488,School,NOAKHALI,SENBAGH,JAMALPUR (PART),91.24369,23.05069,21357,1
M. M. CHOWDHURY MEMORIAL HIGH SCHOOL,107489,School,NOAKHALI,SENBAGH,DAKSHIN ARJUNTALA PART,91.20372,23.04006,21358,1
KANKIRHAT BOHUMUKhi HIGH SCHOOL,107478,School,NOAKHALI,SENBAGH,BIRKOT,91.214,22.93936,21359,1
KHAJURIA ASIRA  KHATUN  HIGH SCHOOL,107495,School,NOAKHALI,SENBAGH,KHEJURIA,91.84433,23.1505,21360,1
KANKIR HAT GIRLS HIGH SCHOOL,107482,School,NOAKHALI,SENBAGH,BIRKOT,91.23328,22.98722,21361,1
SHER-E - BANGLA HIGH SCHOOL,107473,School,NOAKHALI,SENBAGH,RAJARAMPUR,91.21906,23.14239,21362,1
KUTUBER HAT T.A. HIGH SCHOOL,107480,School,NOAKHALI,SENBAGH,DEBISINGPUR,91.17053,23.04614,21363,1
NABIPUR GIRLS HIGH SCHOOL,107491,School,NOAKHALI,SENBAGH,NABIPUR,91.19892,23.041,21364,1
NABIPUR HIGH SCHOOL,107481,School,NOAKHALI,SENBAGH,NABIPUR,91.20161,23.56231,21365,1
CHAR ISWAR ROY AFAZIA HIGH SCHOOL,107422,School,NOAKHALI,HATIYA,CHAR ISHWAR ROY (PART 1),91.12556,22.29136,21371,2
OSKHALI S T GIRLS HIGH SCHOOL,107426,School,NOAKHALI,HATIYA,CHAR LATIA (PART),91.13308,22.19808,21374,2
CHAR KING HIGH SCHOOL,107434,School,NOAKHALI,HATIYA,CHAR ISHWAR ROY (PART-2),91.13528,22.32589,21380,2
CHAR ISWAR ROY DASHAR HAT HIGH SCHOOL,107428,School,NOAKHALI,HATIYA,CHAR ISHWAR ROY (PART-2),91.14136,22.28422,21381,2
JAHAJMARA HIGH SCHOOL,107436,School,NOAKHALI,HATIYA,JAHAJMARA,91.09708,22.36786,21384,2
CHAR AMANULLAH HIGH SCHOOL,107418,School,NOAKHALI,HATIYA,CHAR KAILASH (PART),91.09769,22.37008,21388,2
SUKHCHAR MOFIZIA HIGH SHOOL,107423,School,NOAKHALI,HATIYA,CHAR ISHWAR ROY (PART-2),91.08872,22.26653,21390,1
TAMARADDI HIGH SCHOOL,107424,School,NOAKHALI,HATIYA,CHAR TAMARUDDIN,91.09433,22.18453,21391,1
PURBA  CHARBATA  HIGH  SCHOOL  AND  COLLEGE,107520,School and College,NOAKHALI,SUBARNACHAR,PURBA CHAR BATA,91.23417,22.63989,26238,1
SULTANPUR HANIF BHUIYAN SCHOOL AND COLLEGE,133148,School and College,NOAKHALI,BEGUMGANJ,SULTANPUR,91.09981,22.90017,26239,1
ASWADIA GIRLS  SCHOOL AND COLLEGE,107564,School and College,NOAKHALI,NOAKHALI SADAR,ASHWADIA,91.09425,22.81478,26240,1
