inst name, eiin, inst_type, district, thana, mauza, long, lat, serial,isUnique
ALHAJ AHED ALI BISWASH COLLEGE,125658,College,PABNA,PABNA SADAR,KISMAT PRATAPPUR,89.34864,24.05431,1623,1
SHAMSUL HUDA DEGREE COLLAGE,125654,College,PABNA,PABNA SADAR,MAJIDPUR,89.30131,24.04658,1624,1
HAZI JASIM UDDIN DEGREE COLLEGE,125656,College,PABNA,PABNA SADAR,DUBALIA,89.18397,24.02553,1625,1
GOVT. EDWARD COLLEGE,125663,College,PABNA,PABNA SADAR,RADHANAGAR (PART),89.36258,23.97031,1626,1
PABNA ISLAMIA DEGREE COLLEGE,125660,College,PABNA,PABNA SADAR,SALBARIA PURBA,89.23986,24.01647,1627,1
SHAHID M, MONSUR ALI COLLEGE,125659,College,PABNA,PABNA SADAR,SALBARIA UTTAR,89.24139,24.01908,1628,1
GOVT. PABNA MAHILA COLLEGE,125665,College,PABNA,PABNA SADAR,DILALPUR (PART),89.26022,24.01033,1629,1
SHAHID SADHAN SANGEET COLLEGE,125662,College,PABNA,PABNA SADAR,GOPALPUR,89.25081,24.01736,1630,2
CITY COLLEGE PABNA,125655,College,PABNA,PABNA SADAR,GOPALPUR,89.257,24.00039,1631,1
GOVT.SHAHEED BULBUL COLLEGE,125664,College,PABNA,PABNA SADAR,DILALPUR (PART),89.23433,24.00433,1632,1
PABNA COLLEGE (DAY-NIGHT),125661,College,PABNA,PABNA SADAR,SALGHARIA PASCHIM,89.23528,24.00511,1634,1
PADMA COLLEGE,125667,College,PABNA,PABNA SADAR,SADIRAJPUR,89.34581,23.97472,1635,1
CHATMOHOR WOMEN'S DEGREE COLLEGE,125455,College,PABNA,CHATMOHAR,CHHOTA SALIKA PASCHIM(KALINAGA,89.32844,24.18453,1636,1
CHATMOHAR DEGREE COLLEGE,125454,College,PABNA,CHATMOHAR,NARIKEL PARA,89.30953,24.32842,1637,1
CHHAIKOLA DEGREE COLLEGE,125452,College,PABNA,CHATMOHAR,CHHAIKOLA,89.23706,24.22733,1638,1
CHALAN BIL ADARSHA COLLEGE,131925,College,PABNA,CHATMOHAR,NABIN,89.35283,24.31719,1639,1
HANDIYL COLLEGE,131949,College,PABNA,CHATMOHAR,UTTAR PATIATA,89.35853,24.31797,1640,1
PROFESSOR BOYEN UDDIN DEGREE COLLege,125453,College,PABNA,CHATMOHAR,ATLANKA,89.28139,24.18089,1641,1
MIRZAPUR  DEGREE  COLLEGE,125451,College,PABNA,CHATMOHAR,MIRZAPUR,89.36625,24.27939,1642,1
ISHWARDI GOVT.COLLEGE,125552,College,PABNA,ISHWARDI,MUSHURIA PARA,89.33481,24.16667,1643,1
ISHWARDI MOHILA COLLEGE,125553,College,PABNA,ISHWARDI,PURBA TENGRI UTTAR,89.06944,24.1205,1644,1
DASHURIA DEGREE COLLEGE,125554,College,PABNA,ISHWARDI,DASHURIA,89.10511,24.01919,1645,1
MULADULI COLLEGE,131923,College,PABNA,ISHWARDI,MULADULI,89.06675,24.03411,1646,1
PAKSEY RAILWAY DEREE COLLEGE,125555,College,PABNA,ISHWARDI,PAKSHI,89.04881,24.07742,1647,1
BANSHER BADA DEGREE COLLEGE,125556,College,PABNA,ISHWARDI,BANSHER PATA,89.07933,24.06231,1648,1
SALIMPUR  COLLEGE,125557,College,PABNA,ISHWARDI,JOYNAGAR,89.07592,24.08803,1649,1
JORGAcha COLLEGE,125746,College,PABNA,SANTHIA,JORGACHHA,89.0735,24.12517,1650,1
SANTHIA DEGREE COLLEGE,125742,College,PABNA,SANTHIA,BOALMARI,89.55033,24.05569,1651,2
SANTHIA MOHILA DEGREE COLLEGE,125743,College,PABNA,SANTHIA,DOULATPUR,89.49886,24.05836,1652,1
ATAIKULA MADPUR AMENA KHATUN DEGREE COLLEGE,125745,College,PABNA,SANTHIA,RAGHUNATHPUR,89.54836,24.05514,1653,1
DHULAURI DEGREE COLLEGE,125741,College,PABNA,SANTHIA,DHULAURI,89.49744,24.07553,1654,1
SHOHIDNURUL HOSSAIN DIGREE COLLAGE,125744,College,PABNA,SANTHIA,KASHINATHPUR,89.55761,24.0035,1655,1
HAJI JAMALUDDIN DEGREE COLLEGE,125371,College,PABNA,BHANGURA,CHAUBARIA UTTAR PARA,89.37761,24.21675,1656,2
mohila COLLEGE bhangoora pabna,125370,College,PABNA,BHANGURA,MENDA (PART),89.40464,24.22575,1657,1
ATGHORIA COLLEGE,125300,College,PABNA,ATGHARIA,CHANDBA (PART),89.21097,24.15814,1658,1
ISHARAT ALI WOMANS COLLEGE,131970,College,PABNA,ATGHARIA,CHANDBA (PART),89.17183,24.18328,1659,1
DEBOTTOR DEGREE COLLEG,125298,College,PABNA,ATGHARIA,KANDARPAPUR (PART),89.24783,24.12394,1660,1
BERUAN WOMENS COLLEGE,125299,College,PABNA,ATGHARIA,BERUAN,89.19594,24.10756,1661,1
DENGARGRAM  COLLEGE,125301,College,PABNA,ATGHARIA,NARJAN,89.35478,24.05553,1662,1
KHIDIRPUR DEGREE COLLEGE,125303,College,PABNA,ATGHARIA,DANGA PARA,89.17275,24.10714,1663,1
PAR KHIDIRPUR DEGREE COLLEGE,125302,College,PABNA,ATGHARIA,PAR KHIDIRPUR,89.20386,24.13203,1664,1
SUJANAGOR  WOMEN COLLEGE,125788,College,PABNA,SUJANAGAR,CHAR BHABANIPUR (PART),89.43975,23.95133,1665,1
NIZAM UDDIN  AZGAR ALI degree COLLEGE,125789,College,PABNA,SUJANAGAR,SUJANAGAR RHISI PARA,89.41806,23.97003,1666,1
DR ZAHURUL KAMAL DEGREE  COLLEGE,125790,College,PABNA,SUJANAGAR,DULAI,89.48358,23.94106,1667,1
SELIM REZA HABIB DeGREE COLLEGE,125792,College,PABNA,SUJANAGAR,MALIPHA,89.48961,23.88581,1668,1
SATBARIA COLLEGE,125791,College,PABNA,SUJANAGAR,PHAKITPUR,89.60753,23.88881,1669,1
POURO WOMENS COLLEGE,125488,College,PABNA,FARIDPUR,FARIDPUR,89.46856,24.13661,1671,1
EUNUS ALI DEGREE COLLEGE,125491,College,PABNA,FARIDPUR,PANCHURIA,89.36525,24.12417,1672,1
PUNGALI SHAHIDULLAH COLLEGE,125490,College,PABNA,FARIDPUR,MADHYA PUNGALI,89.36722,24.12306,1673,1
MOHAMMAD YASIN  COLLEGE,125489,College,PABNA,FARIDPUR,BANARINAGAR BAZAR,89.47417,24.18819,1674,1
MONZUR QUADER MOHILA  COLLEGE,125330,College,PABNA,BERA,HATIGARA,89.63119,24.08008,1675,1
BERA COLLEGE,125329,College,PABNA,BERA,JORADAHA,89.62564,24.08194,1676,1
NAKALIA MONJUR KADER  COLLEGE,125328,College,PABNA,BERA,NARAYANPUR,89.64717,24.04144,1677,1
KASHINATH PUR WOMENS COLLEGE,125332,College,PABNA,BERA,NAYABARI,89.65994,23.84606,1678,1
MASHUNDIA BHAWANI PUR K J B COLLEGE,125331,College,PABNA,BERA,MASUNDIA,89.64736,24.00697,1679,1
ATAIKULA SARADANGI ALIM MADRASAH,125619,Madrasha,PABNA,PABNA SADAR,ATAIKOLA,89.33083,24.03133,8139,1
JOURDAH  MOHILA  DAKHIL  MADRASHA,125652,Madrasha,PABNA,PABNA SADAR,JOARDAHA,89.22956,24.02433,8140,1
KASARPUR DAKHIL MADRASHA,125635,Madrasha,PABNA,PABNA SADAR,PIRPUR,89.23792,24.01058,8141,2
MODHU PUR MOHILA ALIM MADRASAH,125617,Madrasha,PABNA,PABNA SADAR,PADMABILA (MODHUPUR),89.21692,23.99831,8142,1
SALEHA  RAHIM  DAKHIL  MADRASHA,125634,Madrasha,PABNA,PABNA SADAR,BHARARA,89.21675,23.99914,8143,1
CHAR  BALARAMPUR  DAKHIL  MADRASHA,125643,Madrasha,PABNA,PABNA SADAR,KHAS CHAR BALARAMPUR,89.31842,24.05778,8145,1
ISLAM GATI DAKHIL MADRASHA,125650,Madrasha,PABNA,PABNA SADAR,GANTI,89.30114,23.96803,8146,1
MIRZAPUR ISLAMIA DAKHIL MADRASAH,125630,Madrasha,PABNA,PABNA SADAR,MIRZAPUR,89.1835,24.07967,8147,2
RAJAPUR ISLAMIA DAKHIL MADRASHA,125640,Madrasha,PABNA,PABNA SADAR,RAJAPUR,89.28886,23.95814,8148,1
MOSTAFA BIA MOHILA DAKHIL MADRASA,131577,Madrasha,PABNA,PABNA SADAR,GAYESHPUR,89.29756,24.02267,8149,1
ISLAM PUR S.K.D. MADRASAH,125626,Madrasha,PABNA,PABNA SADAR,ISLAMPUR,89.3,23.98917,8150,1
JOT GOURI JALAL PUR DARUS SALAM DAKHIL MADRASHA,125642,Madrasha,PABNA,PABNA SADAR,JAT GAURI JALALPUR,89.27817,24.01472,8151,1
BANGABARIA DAKHIL MADRASHA,125625,Madrasha,PABNA,PABNA SADAR,BENGARI,89.38508,23.96478,8152,1
BASUDEB PUR DAKHIL MADRASHA,125636,Madrasha,PABNA,PABNA SADAR,TITPUR,89.24239,24.04944,8153,1
KAMARGAON DAKHIL MADRASHA,125633,Madrasha,PABNA,PABNA SADAR,KAMARGAON,89.20686,24.06981,8154,1
MAHAMUDPUR ISLAMIA ALIM MADRASHA,125623,Madrasha,PABNA,PABNA SADAR,BIL KULA,89.20967,24.06861,8155,1
PABNA ISLAMIA ALIM MADRASHA,125618,Madrasha,PABNA,PABNA SADAR,LASKERPUR DAKSHIN,89.1805,24.05122,8156,1
SHANIRDIAR AND  KRISNADIAR DAKHIL MADRASHA,125646,Madrasha,PABNA,PABNA SADAR,KRISHNA DIAR,89.26236,24.04003,8157,1
SHALAIPUR DAKHIL MADRASHA,125653,Madrasha,PABNA,PABNA SADAR,SALAIPUR,89.24586,24.06767,8158,1
PUSHPA PARA KAMIL MADRASHA,125622,Madrasha,PABNA,PABNA SADAR,PUSHPA PARA,89.24969,24.04447,8159,1
NAN DAN PUR ALHAJ EBRAHIMADAKHIL MADRASHA,125628,Madrasha,PABNA,PABNA SADAR,NANDANPUR,89.36497,24.02283,8160,2
KHADIZATUL KUBRA(RA.) MAHILA DAKHIL MADRASHA,125648,Madrasha,PABNA,PABNA SADAR,SALBARIA PURBA,89.23928,24.01203,8162,1
ARIFPUR J.U.S. FAZIL MADRASHA,125620,Madrasha,PABNA,PABNA SADAR,MADARBARIA,89.25081,24.01736,8163,2
CHAR SHIBRAMPUR ISLAMIA DAKHIL MADRASHA,125644,Madrasha,PABNA,PABNA SADAR,CHAR SHIBRAMPUR,89.24089,24.00583,8164,1
KOLADI DAKHIL MADRASHS,125639,Madrasha,PABNA,PABNA SADAR,KOLADI,89.22489,23.98875,8165,1
TARABARIA ABU BAKAR SIDDIQUE ALIM MADRASHA,125621,Madrasha,PABNA,PABNA SADAR,KHOKSABARIA,89.23808,24.00706,8166,3
LOHAGARA SWARUPPUR DAKHIL MADRASHA,125641,Madrasha,PABNA,PABNA SADAR,LOHAGARA,89.17392,24.08,8167,1
MALIGACHA MAZIED PUR DAKHIL MADRASA,125631,Madrasha,PABNA,PABNA SADAR,MAJIDPUR,89.23161,23.95986,8168,1
PABNA KAMIL MADRASAH,125647,Madrasha,PABNA,PABNA SADAR,RADHANAGAR (PART),89.29192,23.98281,8169,1
HAZI ENGINEER ABUL KASHEM MOHILA ALIM MADRASAH,125637,Madrasha,PABNA,PABNA SADAR,RAGHABPUR (PASCHIM),89.38928,24.00267,8170,1
MOHELA MOHILA DAKHIL MADRASHA,125449,Madrasha,PABNA,CHATMOHAR,MAHELA,89.20814,24.05583,8171,1
MOLLIK BAIN DAKHIL MADRASHA,125413,Madrasha,PABNA,CHATMOHAR,MALLIKBAIN,89.23789,24.00981,8172,1
CHATMOHAR ENAYETULLA ISLAMIA FAZIL MADRASA,125414,Madrasha,PABNA,CHATMOHAR,CHHOTA SALIKA PASCHIM(KALINAGA,89.24125,24.00183,8173,1
SAMAD SAWDA MAHILA DAKHIL MADRASHA,125437,Madrasha,PABNA,CHATMOHAR,CHHOTA SALIKA PASCHIM(KALINAGA,89.29514,24.22614,8174,1
CHHAIKOLA DAKHIL MADRASHA,125420,Madrasha,PABNA,CHATMOHAR,CHHAIKOLA,89.31272,24.31811,8175,1
HOGALBARIA  ALIM MADRASA,125415,Madrasha,PABNA,CHATMOHAR,HOGALBARI,89.30231,24.22389,8176,1
KATAKHALI AYNUL ULUM DAKHIL MADRASAH,125419,Madrasha,PABNA,CHATMOHAR,KATAKHALI,89.22833,24.17839,8177,1
HIRINDA DAKHIL MADRASHA,125430,Madrasha,PABNA,CHATMOHAR,HIRINDA,89.23158,24.22061,8178,1
KADOMTOLI MOHILA  DHKHIL MADRASHA,125446,Madrasha,PABNA,CHATMOHAR,MARAMBALPUR,89.22783,24.17953,8179,1
KUABASHI B.L. DAKHIL MADRASHA,125434,Madrasha,PABNA,CHATMOHAR,MARAMBALPUR,89.28628,24.10892,8180,1
SHARAT GONJ ALHAJ RAISUDDIN DHAKHIL MADRASHA,125422,Madrasha,PABNA,CHATMOHAR,MARAMBALPUR,89.31372,24.13383,8181,1
NENGRI HEFZUL QURAN ATIMKHANA  DAkHIL MADRASA,125412,Madrasha,PABNA,CHATMOHAR,NENGRI KRISHNA RAMPUR,89.36103,24.12342,8182,1
RAMCHANDRAPUR DIMUKHI SENIOR MAFRASHA,125424,Madrasha,PABNA,CHATMOHAR,RAMCHANDRAPUR,89.32839,24.12358,8183,1
BAKHALBARI KOIGRAM DAKHIL MADRASHA,125428,Madrasha,PABNA,CHATMOHAR,BAGHALBARKAI,89.33533,24.21492,8184,1
PAKPARA SHAH MOKHLESUR RAHMAN ALIM MADRASHA,125423,Madrasha,PABNA,CHATMOHAR,HANDIAL,89.33078,24.21369,8185,1
DHULAURI HAJI ABDULLAH DAKHIL MADRASA,125429,Madrasha,PABNA,CHATMOHAR,BARURIA,89.35533,24.31336,8186,1
HARIPUR MASJID PARA SIDDIKA  ALIM MADRASA,125418,Madrasha,PABNA,CHATMOHAR,BARURIA,89.31611,24.31028,8187,1
CHOROIKOL PUKURPAR DAKHIL MADRASAH,125427,Madrasha,PABNA,CHATMOHAR,CHARAIKOL,89.36103,24.32575,8188,1
CHARNABIN LANGOL MORA WARESIA DIMUKHI DA.MADRASA,125426,Madrasha,PABNA,CHATMOHAR,NANGALMORA,89.34089,24.32014,8189,1
CHALK UTHULY SHAHCHHTUN MOHILA DAKHIL MADRASHA,125441,Madrasha,PABNA,CHATMOHAR,CHAK UTHALI,89.27564,24.20956,8190,1
HENGLI BUDH PARA DAKHIL MADRASAH,125421,Madrasha,PABNA,CHATMOHAR,HENGLI,89.27708,24.15022,8191,1
JOGTALA SIDDIKIA DAKHIL MADRASHA,125417,Madrasha,PABNA,CHATMOHAR,JAGTALA,89.31069,24.1775,8192,1
KHATBARI DAKHIL MADRASHA,125443,Madrasha,PABNA,CHATMOHAR,KHATBARI,89.27483,24.18211,8193,1
M K R AHAMMADIA DAKHIL MADRASHA,125442,Madrasha,PABNA,CHATMOHAR,KUBIRDIAR,89.26631,24.16003,8194,1
BARDA NAGAR ABBASIA DAKHIL MADRASAH,125425,Madrasha,PABNA,CHATMOHAR,BARADANAGAR,89.28,24.15164,8195,1
CHINABATKUR WARESIA DAKHIL MADRASHA,125432,Madrasha,PABNA,CHATMOHAR,CHINABHATKUR,89.30869,24.27353,8196,1
MIRZAPUR DAKHIL MADRASHA,125416,Madrasha,PABNA,CHATMOHAR,MIRZAPUR,89.35439,24.26744,8197,1
NIMAICHARA RAHMANIA DAKHIL MADRASHA,125436,Madrasha,PABNA,CHATMOHAR,NIMAICHARA,89.37025,24.28186,8198,1
BONGRAM BENIAJI DAKHIL MADRASHA,125433,Madrasha,PABNA,CHATMOHAR,BANGAON,89.35781,24.27992,8199,1
ISWARDI ISLAMIA ALIM MADRASAH,125540,Madrasha,PABNA,ISHWARDI,BHUTERGARI,89.06128,24.13372,8200,1
DASURIA MADINATUL ULUM ALIM MADRASHA,125548,Madrasha,PABNA,ISHWARDI,DASHURIA,89.16892,24.13244,8201,1
KALIKAPUR ISLAMIA DAKHIL MADRASHA,125550,Madrasha,PABNA,ISHWARDI,KALIKAPUR,89.14528,24.07597,8202,1
SHYMPUR AL HERA DAKHIL MADRASHA,125546,Madrasha,PABNA,ISHWARDI,SHYAMPUR,89.15925,24.09253,8203,1
KAIKUNDA ISLAMIA DAKHIL MADRASHA,131401,Madrasha,PABNA,ISHWARDI,LAKSHMIKUNDI,89.16658,24.10861,8204,1
MULADAULI DARUL ULOM SENIOR (ALIM) MADRASAH,125543,Madrasha,PABNA,ISHWARDI,MULADULI,89.13553,24.01725,8205,1
POTIRAJ PUR ISLAMIA DAKHIL MADRASHA,125551,Madrasha,PABNA,ISHWARDI,PATIRAJPUR,89.08283,24.02306,8206,1
CHAR RUPPUR JOYEN UDDIN DAKHIL MADRASHA,125545,Madrasha,PABNA,ISHWARDI,CHAR RUPPUR,89.039,24.08225,8207,1
AUTAPARA ABU BAKARIA ALIM MADRASAH,125539,Madrasha,PABNA,ISHWARDI,AOTA PARA,89.041,24.08175,8208,1
CHAR GAR GARI DAKHIN PARA ISLAMIA DAKHIL MADRASHA,125544,Madrasha,PABNA,ISHWARDI,BABULCHARA,89.11408,24.05053,8209,1
GARGORI MAHILA DAKHIL  MADRASHA,125549,Madrasha,PABNA,ISHWARDI,BABULCHARA,89.09878,24.03344,8210,1
SHAHAPUR PASCHIM PARA DAKHIL MADRASAH,125547,Madrasha,PABNA,ISHWARDI,SAHAPUR,89.01928,24.07833,8211,1
CHARMIRKAMARI MATHAL PARA DAKHIL MADRASHA,125538,Madrasha,PABNA,ISHWARDI,CHAR MIRKAMARI,89.08311,24.10194,8212,1
MIRKAMARY ADARSHA ALIM  MADRASHA,125542,Madrasha,PABNA,ISHWARDI,CHAR MIRKAMARI,89.08122,24.09344,8213,1
MAZDIA BABUL ULLUM ISLAMIA FAZIL MADRASAH,125541,Madrasha,PABNA,ISHWARDI,MAZDIA,89.10847,24.10325,8214,1
BAITUSH SHARAF DAKHIL MADRASAH,125537,Madrasha,PABNA,ISHWARDI,BALU PARA,89.07406,24.08631,8215,1
HATBARIA DHAKHIL MADRASHA,125719,Madrasha,PABNA,SANTHIA,HATBARIA,89.04144,24.11611,8216,1
MADPUR AL KADRIA  DAKHIL MADRASHA,125720,Madrasha,PABNA,SANTHIA,MADHPURA,89.03781,24.13133,8217,1
BORAILMARI KAMIL MADRASA,125722,Madrasha,PABNA,SANTHIA,BOALMARI,89.54681,24.05928,8218,2
SANTHIA GIRLS ALIM MADRASH,125721,Madrasha,PABNA,SANTHIA,PIPULIA,89.55033,24.05569,8219,2
BRIHOSPOTIPUR DAKHIL MADRASA,133747,Madrasha,PABNA,SANTHIA,BARABARIA,89.41506,24.03306,8220,1
DEBIPUR  TEBARIA  DAKHIL  MADRASHA,125726,Madrasha,PABNA,SANTHIA,DEBIPUR,89.42147,24.03453,8221,1
HORIPUR ISLAMIA MADRASHA,125731,Madrasha,PABNA,SANTHIA,HARIPUR,89.4185,24.03469,8222,1
SWARGRAM DHAKHIL MADRASHA,125729,Madrasha,PABNA,SANTHIA,SWARGRAM,89.45117,24.05628,8223,1
DHOPADAH  AULIA  HAZERIN  DAKHIL  MADRASHA,125733,Madrasha,PABNA,SANTHIA,DHOPADAHA,89.43992,24.07503,8224,1
MONMOTHPUR DAKHIL MADRASAH,125738,Madrasha,PABNA,SANTHIA,MANMATHAPUR,89.52617,24.07539,8225,1
PARGOPALPUR ALIM MADRASAH,125724,Madrasha,PABNA,SANTHIA,GOPALPUR,89.51475,24.08956,8226,1
RAMCHONDRO PUR HAPANIA DAKHIL MADRASAH,125735,Madrasha,PABNA,SANTHIA,RAMCHANDRAPUR,89.50636,24.09325,8227,1
DHULAURI   KAWSARIA    KAMIL   MADRASA,125715,Madrasha,PABNA,SANTHIA,DHULAURI,89.50867,24.09331,8228,1
GOURIGRAM FATEHIA SENIOR MADRASAH,125723,Madrasha,PABNA,SANTHIA,GAURIGRAM,89.47672,24.10378,8229,1
GHUGHUDAH  DAKHIL MADRASHA,125737,Madrasha,PABNA,SANTHIA,GAURIGRAM,89.47861,24.10428,8230,1
HARIAKAHON  DAKHIL MADRASAH,125716,Madrasha,PABNA,SANTHIA,HARIAKAHAN,89.54711,23.98211,8231,1
KAROMJA DHAKHIL MADRASA,125728,Madrasha,PABNA,SANTHIA,KARANJA,89.52864,24.04314,8232,1
PANDURIA DAKHIL MADRASHA,125714,Madrasha,PABNA,SANTHIA,PUNDURIA,89.47353,23.99439,8233,1
EDRAKPUR .K. A. ALIM MADRASHA,125727,Madrasha,PABNA,SANTHIA,EDRAKPUR,89.60108,24.07567,8234,1
M.C.K ALIM MADRASHA,125736,Madrasha,PABNA,SANTHIA,CHANDIPUR,89.59589,24.03464,8235,1
MIAPUR DAKHIL MADRASHA,125732,Madrasha,PABNA,SANTHIA,MIANPUR,89.605,23.96394,8236,1
PAIKPARA MOSTABIA DAKHIL MADERASHA,125730,Madrasha,PABNA,SANTHIA,KHETU PARA,89.51594,23.96872,8237,1
CHENANARY  AND  BILKALME  DAKHIL  MADRASHA,125740,Madrasha,PABNA,SANTHIA,SILANDA,89.49494,23.93456,8238,1
SELANDA  ISLAMIA  SINIOR    ALIM MADRASA,125718,Madrasha,PABNA,SANTHIA,SILANDA,89.47581,23.99703,8239,1
CHOR VODRO COLLA AND VODROCOLLA DAKHIL MADRASAH,125717,Madrasha,PABNA,SANTHIA,PIADAHA,89.48961,24.06453,8240,1
BHERAMARA DAKHIL MADRASHA,125359,Madrasha,PABNA,BHANGURA,BHERAMARA,89.511,24.04708,8241,1
SARATNAGAR FAZIL DEGREE MADRASHA,125353,Madrasha,PABNA,BHANGURA,CHOWBARIA(PART),89.39206,24.1835,8242,1
HAJEE GOYEJ UDDIN MOHILA FAZIL MADRASHA,125354,Madrasha,PABNA,BHANGURA,CHOWBARIA(PART),89.38131,24.22011,8243,2
BARO BISHAKOL DAKHIL MADRASHA,125366,Madrasha,PABNA,BHANGURA,BARA BISAKOL,89.38181,24.21406,8244,1
NURNAGAR DAKHIL MADRASHA,125362,Madrasha,PABNA,BHANGURA,NURNAGAR,89.34775,24.25933,8245,1
LATIFA AYESHA WAHABIA DAKHIL MADRASHA,125360,Madrasha,PABNA,BHANGURA,MONDOTOSH,89.33419,24.23792,8246,1
DIAR PARA DAKHIL MADRASHA,125364,Madrasha,PABNA,BHANGURA,PATALI PARA(PART),89.35717,24.25603,8247,1
B. B. DAKHIL MADRASHA,125356,Madrasha,PABNA,BHANGURA,BETUAN,89.35569,24.20403,8248,1
MAGURA DAKHIL MADRASHA,125357,Madrasha,PABNA,BHANGURA,MAGURA,89.37836,24.20967,8249,1
PAS PATUL DAKHIL MADRASAH,125369,Madrasha,PABNA,BHANGURA,PANCH PATUL,89.36167,24.19658,8250,1
C.K.B. ALIM MADRASAH,125363,Madrasha,PABNA,BHANGURA,KHAN MARICH,89.38342,24.34022,8251,1
DUDHBARIA M DEE MUKHI DAKIL MADRASAH,125355,Madrasha,PABNA,BHANGURA,DUDHBARIA,89.41442,24.31153,8252,1
KAIRA SARA-NASIR ALIM MADRASHA,125361,Madrasha,PABNA,BHANGURA,KAYARA,89.40272,24.26789,8253,1
CHANDVA ISLAMIA ALIM MADRASHA,125280,Madrasha,PABNA,ATGHARIA,CHANDBA (PART),89.24597,24.11564,8254,1
DHALESWER ISLAMIA DAKHIL MADRASHA,125281,Madrasha,PABNA,ATGHARIA,DHALESHWAR (PART),89.22153,24.08906,8255,1
DEBBOTOR DAKPHIL MAF\DRASA,125292,Madrasha,PABNA,ATGHARIA,KAIRABARI,89.22128,24.08733,8256,1
BAOIKOLA YAKUBIA DAKHIL MADRASAH,125287,Madrasha,PABNA,ATGHARIA,BAOIKHOLA,89.24525,24.11528,8257,1
KADAMDANGA A.N DAKHIL MADRASHA,125290,Madrasha,PABNA,ATGHARIA,NAGDAHA,89.22211,24.08767,8258,1
GORURY ISLAMIA DAKHIL MADRASA,125293,Madrasha,PABNA,ATGHARIA,GARURI,89.38919,24.11336,8259,1
JUMAIKHIRI ISLAMIA MOHILA DAKHIL MADRASHA,125291,Madrasha,PABNA,ATGHARIA,JUMAIKHIRI,89.22694,24.11106,8260,1
CHANDAI  RAHMANIA  DAKHIL  MADRASHA,125285,Madrasha,PABNA,ATGHARIA,CHANDAI,89.33644,24.07089,8261,1
CHOUKI BARI MOS TODA BIA DAROSS SONNA HO  DAKHIL MADRA SHA,125294,Madrasha,PABNA,ATGHARIA,CHAUKIBARI,89.31975,24.06131,8262,1
CHOUBARIA TOAZUDDIN DAKHIL MADRASA,125284,Madrasha,PABNA,ATGHARIA,CHAUBARIA,89.3185,24.08383,8263,1
TAHA ISLAMIA FAZILA MADRASAH, SHIBPUR,125282,Madrasha,PABNA,ATGHARIA,SHIBPUR,89.31108,24.07364,8264,1
JATRA PUR MANSURIA DAKHIL MADRASHA,125283,Madrasha,PABNA,ATGHARIA,JATRAPUR,89.313,24.09442,8265,1
LAXMIPUR DHAKHIL MADRASHA,125289,Madrasha,PABNA,ATGHARIA,LAKSHMIPUR,89.35267,24.05586,8266,1
SREEPUR  RAGHORAMPUR  DAKHIL  MADRASHA,125286,Madrasha,PABNA,ATGHARIA,SREEPUR,89.33542,24.07144,8267,1
MAJPARA ALIM MADRASHA,125279,Madrasha,PABNA,ATGHARIA,MAJH PARA,89.18964,24.12833,8268,1
NADURIA ISLAMIA DAKHIL MADRASA,125295,Madrasha,PABNA,ATGHARIA,NADURIA,89.17658,24.16961,8269,1
RAMESWARPUR ISLAMIA DAKHIL MADRASA,125297,Madrasha,PABNA,ATGHARIA,RAMESHWARPUR,89.18356,24.15103,8270,1
ROCONPUR   DAKHIL  MADRASHA,125296,Madrasha,PABNA,ATGHARIA,ROKANPUR,89.18406,24.15406,8271,1
SUJANAGAR MOHAMMADIA DAKHIL MADRASHA,125786,Madrasha,PABNA,SUJANAGAR,BHABANIPUR (PART),89.18506,24.15058,8272,1
AHAMMADPUR AHAMMADIA DAKHIL MADRASA,125781,Madrasha,PABNA,SUJANAGAR,AHAMMEDPUR,89.40983,23.93556,8273,1
SAGORKANDI ISLAMIA DAKHIL MADRASHA,125787,Madrasha,PABNA,SUJANAGAR,GOBINDAPUR,89.60128,23.95922,8274,1
SAYED PUR DAKHIL MADRASA,125784,Madrasha,PABNA,SUJANAGAR,SAIDPUR,89.56889,23.943,8275,1
ULAT SIDDIQUIA FAZIL MADRASHA,125780,Madrasha,PABNA,SUJANAGAR,ULATH CHANDIPUR,89.60561,23.93333,8276,1
UDAYPUR SEKENDARIA DAKHIL MADRASA,125783,Madrasha,PABNA,SUJANAGAR,UDAYPUR,89.47931,23.90556,8277,1
UDAYPUR  HAKKANI DAKHIL  MADRASHA,131475,Madrasha,PABNA,SUJANAGAR,UDAYPUR,89.41597,23.861,8278,1
BHATIKAYA  DAKHIL  MADRASHA,125785,Madrasha,PABNA,SUJANAGAR,BHATIKAYA,89.42994,23.97094,8279,1
KURIPARA MOHAMMADIA DAkHIL MADRASHA,125782,Madrasha,PABNA,SUJANAGAR,KURI PARA,89.60261,23.85364,8280,1
BONWARI NAGAR  ALIM MADRASAH,125479,Madrasha,PABNA,FARIDPUR,BANARINAGAR BAZAR,89.43744,23.90564,8281,1
ARKANDI JOHURA JABBER DHAKIL MADRASHA,125472,Madrasha,PABNA,FARIDPUR,ARKANDI,89.44658,24.15758,8282,1
BRILAHIRI BARI SAURAB JAHANDEMUKI DAKHIL MADRASHA,125480,Madrasha,PABNA,FARIDPUR,BRI-LAHIRIBARI,89.44664,24.15722,8283,2
DEOVOG MRHARULLAH ISLAMIAH DAKHIL MADRASAH,125481,Madrasha,PABNA,FARIDPUR,DEOBHOG,89.44836,24.15867,8284,2
JANTIHER DAKHIL MADRASAH,125482,Madrasha,PABNA,FARIDPUR,PANCH JANTHAR,89.44825,24.15778,8285,2
DEMRA KADERIA TAYBIA DAKHIL MADRSAH,125476,Madrasha,PABNA,FARIDPUR,DEOBARIA (MAJAT),89.42303,24.20411,8286,1
HARODANGA ISLAMIA DAKHIL MADRASHA,125486,Madrasha,PABNA,FARIDPUR,PANCHURIABARI,89.44619,24.19281,8287,1
ALLAH ABAD DAKHIL MADRASHA,125473,Madrasha,PABNA,FARIDPUR,FARIDPUR,89.47242,24.13189,8288,1
BERHAULIA DAKHIL MADRASAH,125484,Madrasha,PABNA,FARIDPUR,FARIDPUR,89.49769,24.14458,8289,1
ISLAMIC LASKARIA DHAKIL MADRASAH,125483,Madrasha,PABNA,FARIDPUR,MAUD,89.41331,24.177,8290,1
YOUNUS ALI DAKHIL MADRASAH,125475,Madrasha,PABNA,FARIDPUR,PANCHURIA,89.44908,24.16094,8291,1
HADAL FAZIL MADRASHA,125477,Madrasha,PABNA,FARIDPUR,GOALGAON,89.40856,24.17694,8292,1
MONGaL GRAM AHMADIA ALIM MADRASHA,125474,Madrasha,PABNA,FARIDPUR,MANGALGRAM,89.41453,24.10558,8293,1
DIGHALIA      DA S S    MADRASA,125478,Madrasha,PABNA,FARIDPUR,SEN DIGHALIA,89.38381,24.14133,8294,1
PUNGALI AMINA NABABJAN DAKHIL MADRASAH,125485,Madrasha,PABNA,FARIDPUR,PANCH PUNGALI,89.43775,24.09028,8295,1
BERA MOHILA  FAZIL MADRASHA,125326,Madrasha,PABNA,BERA,UTTAR BANGRAM,89.44664,24.15722,8296,2
BERA fazil MADRASAh,125321,Madrasha,PABNA,BERA,KAGMARI PARA/UTTAR SHAMBHUPUR,89.44825,24.15778,8297,2
NAKALIA BATENIA ISLAMIA DAKHIL MADRASHA,125322,Madrasha,PABNA,BERA,HATURIA (PART),89.61144,24.07758,8298,1
PANCHURIA DAKHIL MADRASA,125323,Madrasha,PABNA,BERA,PANCHURIA,89.61206,24.07594,8299,1
MANIK NAGAR DAKHIL MADRASHA,125324,Madrasha,PABNA,BERA,HARIRAMPUR,89.6495,24.03486,8300,1
PURAN MASUNDIA ALIM MADRASA,125325,Madrasha,PABNA,BERA,MASUNDIA,89.58011,24.01419,8301,1
BHABANI PUR DAKHIL MADRASHA,125327,Madrasha,PABNA,BERA,BHABANIPUR,89.61989,24.02969,8302,1
DURGAPUR JR.HIGH SCHOOL,125607,School,PABNA,PABNA SADAR,DURGAPUR,88.77253,24.18697,21394,1
B P HIGH SCHOOL,125608,School,PABNA,PABNA SADAR,PURBA BANAGRAM,88.79547,24.18286,21395,1
AMJAD HOSSAIN HIGH SCOOL,125590,School,PABNA,PABNA SADAR,RADHANAGAR (PART),88.78228,24.19597,21396,1
ADARSHA GIRLS HIGH SCOOL,125563,School,PABNA,PABNA SADAR,RADHANAGAR (PART),89.23808,24.00706,21397,3
AL HAJ AHED ALI BISWAS COLLEGIATE HIGH SCHOOL,125573,School,PABNA,PABNA SADAR,KISMAT PRATAPPUR,89.23792,24.01058,21398,2
DR.ISMAIL HOSSAIN MEMORIAL GIRLS HIGH SCHOOL,125605,School,PABNA,PABNA SADAR,KUMUDPUR,89.38569,24.03872,21399,1
SHAHID RAFIZ UDDIN HIGH SCHOOL,125601,School,PABNA,PABNA SADAR,KANKARKHOLA,89.352,24.04225,21400,1
KAMOR PUR HIGH SCHOOL,125597,School,PABNA,PABNA SADAR,KUMARPUR,89.18347,24.06158,21401,1
KHODEZA HARUN GIRLS HIGH SCHOOL,125604,School,PABNA,PABNA SADAR,CHAR KUSHKHALI,89.1835,24.07967,21402,2
ALHAJ ELIAS HIGH SCHOOL,125559,School,PABNA,PABNA SADAR,LAKSHMINATHPUR,89.15608,24.06194,21403,1
MOULANA KASIM UDDIN SMRITEE HIGH SCHOOL,125588,School,PABNA,PABNA SADAR,JALALPUR,89.16917,24.03256,21404,1
SHAHID SMARANIKA HIGH SCHOOL,125595,School,PABNA,PABNA SADAR,GAYESHPUR,89.233,23.98008,21405,1
PABNA CADET COLLEGIATE SCHOOL,PABNA,125568,School,PABNA,PABNA SADAR,MACHHIMPUR,89.27447,24.01125,21406,1
SADULLAPUR HIGH SCHOOL,125610,School,PABNA,PABNA SADAR,SADULLAHPUR,89.29056,24.02314,21407,1
DUBLIA HIGH SCHOOL,125585,School,PABNA,PABNA SADAR,DUBALIA,89.30739,24.04322,21408,1
TEBUNIA WASIM PATSHALA,125586,School,PABNA,PABNA SADAR,MAJIDPUR,89.29286,24.02617,21409,1
HAZERA KHATUN GIRLS HIGH SCHOOL,125598,School,PABNA,PABNA SADAR,MAJIDPUR,89.21106,24.06694,21410,1
MALONCHI HIGH SCHOOL,125561,School,PABNA,PABNA SADAR,MALANCHI,89.36222,23.97231,21411,1
HAMCHIAPUR HIGH SCHOOL,125594,School,PABNA,PABNA SADAR,HAMCHAPUR,89.27325,24.06244,21412,1
SEEFATULLAH BISWAS JUNIOR HIGH SCHOOL,125613,School,PABNA,PABNA SADAR,UDAYPUR,89.16933,24.00453,21413,1
CHAR BALARAMPUR HIGH SCHOOL,125592,School,PABNA,PABNA SADAR,KHAS CHAR BALARAMPUR,89.31031,24.05056,21414,1
CHAK  SHTIANI  HIGH SCHOOL,125575,School,PABNA,PABNA SADAR,CHAK CHATIANI PASCHIM,89.16519,24.00961,21415,1
PABNA ZILA SCHOOL,125564,School,PABNA,PABNA SADAR,GOPALPUR,89.33542,24.03456,21416,1
RADHANAGAR MAJUMDER ACADEMY SCHOOL AND COLLEGE PABNA,125578,School,PABNA,PABNA SADAR,RADHANAGAR (PART),89.29086,23.95778,21417,1
ICHAMATI HIGH SCHOOL,125589,School,PABNA,PABNA SADAR,RADHANAGAR (PART),89.36775,24.00897,21418,1
ALHAJ ASIR UDDIN SARDER HIGH SCHOOL,125579,School,PABNA,PABNA SADAR,ARIPPUR,89.24914,24.02028,21419,1
JAGIR HOSSAIN ACADEMY,125562,School,PABNA,PABNA SADAR,GOPALPUR,89.2615,24.00017,21421,1
PABNA GOVT GIRLS SCHOOL,125582,School,PABNA,PABNA SADAR,DILALPUR (PART),89.23644,24.004,21422,1
MOHIM CHANDRA JUBILEE HIGH SCHOOL,125576,School,PABNA,PABNA SADAR,SHIBRAMPUR UTTAR,89.23844,24.00428,21423,2
SELIM NAZIR HIGH SCHOOL,125566,School,PABNA,PABNA SADAR,DILALPUR (PART),89.23011,23.99914,21424,1
ZANNAT BIBI JUBILEE GIRLS HIGH SCHOOL,125570,School,PABNA,PABNA SADAR,DILALPUR (PART),89.23453,24.00406,21425,1
PABNA TOWN GIRLS HIGH SCHOOL PABNA,125584,School,PABNA,PABNA SADAR,GOPALPUR,89.23844,24.00428,21426,2
HOLUD BARIA HIGH SCHOOL,125600,School,PABNA,PABNA SADAR,HALUDBARIA,89.23886,24.00592,21427,1
KOLADI HIGH SCHOOL,125602,School,PABNA,PABNA SADAR,KOLADI,89.24022,24.00614,21428,1
DARI BHAW DANGA HIGH SCHOOL,125587,School,PABNA,PABNA SADAR,DARI BHAUDANGA,89.23808,24.00706,21429,3
NOWSHER MONDOL HIGH SCHOOL,125606,School,PABNA,PABNA SADAR,CHAR TARAPUR,89.34683,23.97458,21430,1
ISLAM GANTI HIGH SCHOOL,125569,School,PABNA,PABNA SADAR,GANTI,89.32239,23.95203,21431,1
SREEKOLE AZIZA SHRITI HIGH SCHOOL,125591,School,PABNA,PABNA SADAR,SREEKUL,89.39597,23.95128,21432,1
SHAHID AHMED RAFQUE GIRLS HIGH SCHOOL,125583,School,PABNA,PABNA SADAR,DILALPUR (DAKSHIN),89.27919,23.99514,21433,1
SHAHEED FAZLUL HAQ PAURA HIGH SCHOOL,125565,School,PABNA,PABNA SADAR,SHIBRAMPUR UTTAR,89.37772,23.99069,21434,1
CHATMOHAR PILOT GIRLS HIGH SCHOOL,125382,School,PABNA,CHATMOHAR,CHATMOHAR PASCHIM(CHOW.PARA),89.24847,24.00631,21435,1
CHHAIKOLA MAMOREYAL HIGH GIRLS SCHOOL,125399,School,PABNA,CHATMOHAR,CHHAIKOLA,89.24139,23.99983,21436,1
CHATMOHAR R.C.N.&. B.S.N.  HIGH SCHOOL,125376,School,PABNA,CHATMOHAR,CHHOTA SALIKA PURBA(NATUN BAZA,89.33239,24.19661,21437,1
BEEL CHALAN B.L. HIGH SCHOOL,125385,School,PABNA,CHATMOHAR,BARADANAGAR,89.30097,24.22275,21438,1
BOAILMARY  HIGH SCHOOL,125388,School,PABNA,CHATMOHAR,BOALMARA,89.29144,24.22167,21439,1
CHHAIKOLA HIGH SCHOOL,125384,School,PABNA,CHATMOHAR,CHHAIKOLA,89.29453,24.225,21440,1
CHARAI - KOL HIGH SCHOOL,125391,School,PABNA,CHATMOHAR,CHARAIKOL,89.27867,24.21611,21441,1
CHHIKOLA UNION ADARSHO GIRLS HIGH SCHOOL,125401,School,PABNA,CHATMOHAR,CHHAIKOLA,89.28325,24.22944,21442,1
KATENGA B.L. HIGH SCHOOL,125389,School,PABNA,CHATMOHAR,KATENGA,89.31742,24.28672,21443,1
LANGOLMORA HIGH SCHOOL,125402,School,PABNA,CHATMOHAR,NANGALMORA,89.28622,24.2655,21444,1
BILL CHALAN UNION  HIGH SCHOOL,125407,School,PABNA,CHATMOHAR,BOTHAR,89.31008,24.31836,21445,1
UTTAR SENJGRAM HIGH SCHOOL,125375,School,PABNA,CHATMOHAR,UTTAR SENGRAM,89.31253,24.29258,21446,1
BAYEN UDDIN  GIRLS HIGH SCHOOL,125404,School,PABNA,CHATMOHAR,DAKSHIN BAMANGRAM,89.31283,24.31694,21447,1
BANGALA BAHUMUKHI HIGH SCHOOL,125383,School,PABNA,CHATMOHAR,BANGALA,89.29214,24.2315,21448,1
KATAKHALI HIGH SCHOOL,125398,School,PABNA,CHATMOHAR,KATAKHALI,89.31911,24.25656,21449,1
MUKTI JADDHA  ADARSHA HIGH SCHOOL,125408,School,PABNA,CHATMOHAR,PANCHURIA,89.32989,24.25911,21450,1
FOILJANA  HIGH SCHOOL,125378,School,PABNA,CHATMOHAR,FAILJANA,89.23033,24.21922,21451,1
PABAKHALI , HIGH SCHOOL,125411,School,PABNA,CHATMOHAR,MARAMBALPUR,89.26417,24.15753,21452,1
SARATGANJ T.A. HGIH SCHOOL,125381,School,PABNA,CHATMOHAR,MARAMBALPUR,89.23892,24.18203,21453,1
DAHA PARA HIGH SCHOOL,125394,School,PABNA,BHANGURA,JALESSAHR,89.30494,24.14406,21454,1
J. M. R. HIGH SCHOOL,125392,School,PABNA,CHATMOHAR,DAKSHIN SHIRAMPUR,89.31353,24.12069,21455,1
HANDIAL  HIGH SCHOOL,131048,School,PABNA,CHATMOHAR,HANDIAL,89.28872,24.12333,21456,1
HANDIYAL GIRLS SCHOOL,125395,School,PABNA,CHATMOHAR,HANDIAL,89.33114,24.23836,21457,1
HANSUPUR BaRO BALy HIGH SCHOOL,125400,School,PABNA,CHATMOHAR,HANSPUR,89.33567,24.21672,21458,1
HARIPUR GIRLS HIGH SCHOOL,125396,School,PABNA,CHATMOHAR,HARIPUR,89.314,24.31517,21459,1
SAINT RITAS HIGH SCHOOL,125387,School,PABNA,CHATMOHAR,PASCHIM MATHURAPUR,89.27442,24.25539,21460,1
ATLONKA B.L HIGH SCHOOL,125393,School,PABNA,CHATMOHAR,ATLANKA,89.256,24.25631,21461,1
BAMONGRAM HIGH SCHOOL,125397,School,PABNA,CHATMOHAR,BAMANGAON,89.23439,24.23467,21462,1
HAZI MAHER UDDIN GIRLS HIGH SCHOOL,125403,School,PABNA,CHATMOHAR,CHAK UTHALI,89.31808,24.30372,21463,1
CHIKNAI HIGH SCHOOL,125390,School,PABNA,CHATMOHAR,MULGRAM,89.25069,24.25436,21464,1
DHANKUNIA GIRLS HIGH SCHOOL,125406,School,PABNA,CHATMOHAR,CHINABHATKUR,89.30489,24.16578,21465,1
MIRZAPUR ADORSHA GIRLS HIGH SCHOOL,125405,School,PABNA,CHATMOHAR,MIRZAPUR,89.27108,24.19636,21466,1
ASHRAF ZINDANI HIGH SCHOOL,125374,School,PABNA,CHATMOHAR,SAMAJ,89.27517,24.15272,21467,1
NIMAYCHRA UNION GIRLS HIGH  SCHOOL,125373,School,PABNA,CHATMOHAR,SAMAJ,89.27256,24.19164,21468,1
MOHELA BL LATERAL HIGH SCHOOL,125386,School,PABNA,CHATMOHAR,MAHELA,89.32153,24.28603,21469,1
MOHEL GIRLS  HIGH SCHOOL,125410,School,PABNA,CHATMOHAR,MAHELA,89.33708,24.26961,21470,1
PARSWADANGA UNION HIGH SCHOOL,125379,School,PABNA,CHATMOHAR,PARSHADANGA,89.35267,24.261,21471,1
MAJDIA HIGH SCHOOL,125526,School,PABNA,ISHWARDI,MAZDIA,89.32542,24.20028,21472,1
SARA GOPALPUR  HIGH SCHOOL,125536,School,PABNA,ISHWARDI,SARA GOPALPUR,89.32419,24.20167,21473,1
BANGABANDHU HIGH SCHOOL,125531,School,PABNA,ISHWARDI,MUSHURIA PARA,89.34708,24.16375,21474,1
M. A. GAFUR MEMORIAL HIGH SCHOOL,125525,School,PABNA,ISHWARDI,ARUNKHOLA DAKSHIN,89.05825,24.13344,21475,1
MOONLIT JUNIOR HIGH SCHOOL,125524,School,PABNA,ISHWARDI,DARI NARICHA,89.03164,24.13767,21476,1
NARICHA MOSHURIA HIGH SCHOOL,125523,School,PABNA,ISHWARDI,NARICHA,89.04825,24.11064,21477,1
BANGLADESH RAILWAY GOVT. NAZIMUDIN HIGH SCHOOL,125500,School,PABNA,ISHWARDI,MUSHURIA PARA,89.07408,24.13075,21478,1
PURBO TENGRI GIRLS HIGH SCHOOL,125532,School,PABNA,ISHWARDI,PURBA TENGRI UTTAR,89.07461,24.12886,21479,1
ISWARDI GIRLS HIGH SCHOOL,125497,School,PABNA,ISHWARDI,RAHIMPUR,89.08906,24.12369,21480,1
ISHURDI POURO JUNIOR HIGH SCHOOL,131037,School,PABNA,ISHWARDI,MADHYA ARUNKHOLA (PARAT),89.07236,24.12408,21481,1
ALHAJ TEXTILE MILLS HIGH SCHOOL,125510,School,PABNA,ISHWARDI,MADHYA ARUNKHOLA (PARAT),89.07389,24.11781,21482,1
IKKSHU GABESWANA HIGH SCHOOL,125501,School,PABNA,ISHWARDI,MADHYA ARUNKHOLA (PARAT),89.07931,24.12444,21483,1
PAKURIA HIGH SCHOOL,125502,School,PABNA,ISHWARDI,PAKURIA,89.07439,24.11742,21484,1
DARGA BAZAR HIGH SCHOOL,125533,School,PABNA,ISHWARDI,BARA LUSIA,89.0705,24.12519,21485,1
DADPUR HIGH SCHOOL,125528,School,PABNA,ISHWARDI,DADPUR,89.077,24.11017,21486,1
KALIKAPUR ABDUL J.K.M HIGH SCHOOL,125522,School,PABNA,ISHWARDI,DIGSHAIL DEWAN,89.0795,24.115,21487,1
KAMALPUR T.M HIGH SCHOOL,125493,School,PABNA,ISHWARDI,KAMALPUR,89.13592,24.04806,21488,1
DASURIA M.M HIGH SCHOOL,125507,School,PABNA,ISHWARDI,MURSHIDPUR,89.06964,24.04789,21489,1
CHAR KURULIA HIGH SCHOOL,125511,School,PABNA,ISHWARDI,CHAR KURULIA,89.12692,24.10892,21490,1
DADAPUR HIGH SCHOOL  sesip,131036,School,PABNA,ISHWARDI,DADAPUR,89.12831,24.11272,21491,1
LAXMIKUNDA GIRLS HIGH SCHOOL,125517,School,PABNA,ISHWARDI,LAKSHMIKUNDI,89.15847,24.09089,21492,1
MULADULI HIGH SCHOOL,125521,School,PABNA,ISHWARDI,MULADULI,89.12339,24.11156,21493,1
RUPPUR HIGH SCHOOL,ISHWARDI,125508,School,PABNA,ISHWARDI,CHAR RUPPUR,89.14217,24.16228,21494,1
BANGLADESH RAILWAY GOVT.GIRLS SCHOOL,125504,School,PABNA,ISHWARDI,DIAR BAGHAIL,89.14253,24.16231,21495,1
NORTH BENGAL PAPER MILLS HIGH SCHOOL,125495,School,PABNA,ISHWARDI,DIAR BAGHAIL,89.11214,24.15678,21496,1
BANGLADESH RAILWAY GOVT. CHANDRAPROVA BIDDYAPITH,125498,School,PABNA,ISHWARDI,BAGHAIL,89.13875,24.15581,21497,1
RUPPUR GIRL'S HIGH SCHOOL,125505,School,PABNA,ISHWARDI,CHAR RUPPUR,89.05647,24.08819,21498,1
ABUL HOSSIN HIGH SCHOOL,125496,School,PABNA,ISHWARDI,BAGHAIL,89.05678,24.06572,21499,1
NURJAHAN UCCHA BALIKA VIDDYA NIKETON,125515,School,PABNA,ISHWARDI,AOTA PARA,89.04947,24.06056,21500,1
BABUL CHARA HIGH SCHOOL,125494,School,PABNA,ISHWARDI,BABULCHARA,89.06347,24.10247,21501,1
SK MEHERULLAH SMRITY JUNIOR HIGH SCHOOL,125516,School,PABNA,ISHWARDI,SAHAPUR,89.05381,24.06094,21502,1
SHAHAPUR SHAHEED ABUL KASHEM HIGH SCHOOL,125519,School,PABNA,ISHWARDI,SAHAPUR,89.049,24.07522,21503,1
REAZ UDDIN HIGH SCHOOL,125518,School,PABNA,ISHWARDI,BHARAIMARI,89.11956,24.05203,21504,1
BHASHA SHAHID BIDYANIKETON,125529,School,PABNA,ISHWARDI,CHAR MIRKAMARI,89.13008,24.01558,21505,1
JOYNAGAR BIDYUT UNNAYON BOARD H SCHOOL,125499,School,PABNA,ISHWARDI,JOYNAGAR,89.11683,24.03517,21506,1
MANIK NAGAR GIRLS HIGH SCHOOL,125520,School,PABNA,ISHWARDI,CHAR SILIMPUR,89.06633,24.06506,21507,1
MANIKNAGar high SCHOOL,125527,School,PABNA,ISHWARDI,CHAR SILIMPUR,89.13653,24.04786,21508,1
MIRKAMARY ADARSHA UCCHA VIDDALAYA,125513,School,PABNA,ISHWARDI,JAGANNATHPUR,89.12758,24.08108,21509,1
ARAMBARIA HIGH SCHOOL,125512,School,PABNA,ISHWARDI,ARAMBARIA,89.09208,24.07322,21510,1
AIR PORT ACADEMY . ISHWARDI,125509,School,PABNA,ISHWARDI,ISHWARDI BIMAN BANDAR,89.09944,24.08997,21511,1
SARA JHAUDIA HIGH SCHOOL,125530,School,PABNA,ISHWARDI,JHAUDIA,89.09428,24.11161,21512,1
IMAM HOSSAIN ACADEMY,125691,School,PABNA,SANTHIA,DOULATPUR,89.46753,24.057,21515,1
SANTHIA PILOT GIRLS SCHOOL,125690,School,PABNA,SANTHIA,SHANTIA BAZAR,89.44686,24.02869,21516,1
SANTHIA PILOT HIGH SCHOOL,125689,School,PABNA,SANTHIA,SHANTIA BAZAR,89.54681,24.05928,21517,2
AFRA IDEAL ACADEMY  HIGH SCHOOL,125683,School,PABNA,SANTHIA,MAUKURI (ATIA PARA),89.55058,24.05986,21518,1
MADHPUR SHEIKH HASINA HIGH SCHOOL,125712,School,PABNA,SANTHIA,MADHPURA,89.553,24.05961,21519,1
ATAIKULA HIGH SCHOOL,125688,School,PABNA,SANTHIA,RAGHUNATHPUR,89.54681,24.05983,21520,1
BHUL BARIA HIGH SCHOOL,125705,School,PABNA,SANTHIA,BHULBARIA,89.57294,24.03533,21521,1
POSHCIM KRISHNAPUR JUNIOR  SCHOOL,125710,School,PABNA,SANTHIA,PASCHIM KRISHNAPUR,89.44444,24.03067,21522,1
DHOPADAHA HIGH SCHOOL,125680,School,PABNA,SANTHIA,DHOPADAHA,89.41125,24.03783,21523,1
GOPALPUR GIRLS HIGH SCHOOL,125676,School,PABNA,SANTHIA,GOPALPUR,89.44061,24.07617,21524,1
NARIAGODAI HIGH SCHOOL,125695,School,PABNA,SANTHIA,GOPALPUR,89.4265,24.06372,21525,1
RAMCHANDRA PUR JUNIOR SCHOOL,125711,School,PABNA,SANTHIA,RAMCHANDRAPUR,89.42964,24.07986,21526,1
B. ALOKDIAR HIGH SCHOOL,125675,School,PABNA,SANTHIA,BIL SALANGI,89.49319,24.06814,21527,1
DHULAURI HIGH SCHOOL,125698,School,PABNA,SANTHIA,DHULAURI,89.52381,24.08014,21528,1
DHULAURI GIRLS HIGH SCHOOL,125707,School,PABNA,SANTHIA,DHULAURI,89.54936,24.08508,21529,1
B. H. C. S. HIGH SCHOOL,125709,School,PABNA,SANTHIA,GAURIGRAM,89.46803,24.09078,21530,1
GAURIGRAM UMMAKULSUM GIRLS HIGH SCHOOL,125704,School,PABNA,SANTHIA,GAURIGRAM,89.47767,24.10378,21531,1
GOURI GRAM HIGH SCHOOL,125708,School,PABNA,SANTHIA,GAURIGRAM,89.47731,24.10628,21532,1
BONGRAM GIRLS HIGH SCHOOL,125702,School,PABNA,SANTHIA,BANGAON,89.53967,24.01889,21533,1
KARAMJA MONZUR KADER  GIRLS HIGH SCHOOL,125687,School,PABNA,SANTHIA,KARANJA,89.51614,24.01208,21534,1
MONGAL GRAM HIGH SCHOOL,125686,School,PABNA,SANTHIA,MANGALGRAM,89.51386,24.01281,21535,1
PUNDURIA HIGH SCHOOL,125699,School,PABNA,SANTHIA,PUNDURIA,89.52403,23.99794,21536,1
HUIKHALI BANGLA HIGH SCHOOL,125703,School,PABNA,SANTHIA,HUIKHALI,89.61075,24.07783,21537,1
KASHINATHPUR ABDUL LATIF HIGH SCHOOL,125692,School,PABNA,SANTHIA,KASHINATHPUR,89.58978,24.04831,21538,1
PAIKARHATI SHAHID NAGAR HIGH SCHOOL,125706,School,PABNA,SANTHIA,PAIKARHATI,89.59531,24.03433,21539,1
BISHNOPUR MONIRUL ISLAM HIGH SCHOOL,125677,School,PABNA,SANTHIA,BISHNAPUR,89.60394,23.96439,21540,1
HOYZOR SANTIPUR SOBED ALI MOZIOR UDDEN JUNIOR HIGH SCHOOL,131035,School,PABNA,SANTHIA,HAIJOR,89.60056,24.00039,21541,1
KHETUPARA ABDUS SATTAR HIGH SCHOOL,125694,School,PABNA,SANTHIA,KHETU PARA,89.58572,23.96278,21542,1
MAZGRAM JNIOR GIRLS SCHOOL,125684,School,PABNA,SANTHIA,MAJHGAON,89.55956,23.97428,21543,1
NAGDEMRA HIGH SCHOOL,125700,School,PABNA,SANTHIA,NAGDEMRA,89.50583,23.99189,21544,1
SELONDA HIGH SCHOOL,125696,School,PABNA,SANTHIA,SILANDA,89.50183,24.00956,21545,1
SONATALA HIGH SCHOOL,125693,School,PABNA,SANTHIA,SONATALA,89.47508,23.99775,21546,1
BOAILMARI HIGH SCHOOL,125701,School,PABNA,SANTHIA,HATBARIA,89.54283,24.12522,21547,1
KHAYER BARIA SHAHID AHMED RAFIQUE HIGH SCHOOL,125682,School,PABNA,SANTHIA,KHARIBARIA,89.56425,24.09203,21548,1
MAHAMUDPUR JAYED ALI SARKER HIGH SCHOOL,125685,School,PABNA,SANTHIA,MAMUDPUR,89.55728,24.11953,21549,1
NANDANPUR K.T.S AYSHA KHATUN HIGH SCHOOL,125679,School,PABNA,SANTHIA,NANDANPUR,89.54183,24.12339,21550,1
BHARAMARA UDAYAN ACADEMY,125347,School,PABNA,BHANGURA,BHERAMARA,89.46394,24.04136,21551,1
BHANGOOR ZARINA RAHIM GIRLS HIGH SCHOOL,125337,School,PABNA,BHANGURA,CHOWBARIA(PART),89.48675,24.01336,21554,1
BHANGOORA UNION HIGH SCHOOL,125334,School,PABNA,BHANGURA,DAKSHIN MENDA KUMRADANGA,89.39283,24.18236,21555,1
HASINA MOMIN GIRLS HIGH SCHOOL,125340,School,PABNA,BHANGURA,ASHTA MANISHA,89.37472,24.21936,21556,1
ASTOMONISHA HIGH SCHOOL,125335,School,PABNA,BHANGURA,ASHTA MANISHA,89.38269,24.21689,21557,1
CHHOTO BISHOKOL  HIGH SCHOOL,125345,School,PABNA,BHANGURA,CHHOTA BISAKOL,89.37761,24.21675,21558,2
RUPSHI HIGH SCHOOL,125346,School,PABNA,BHANGURA,RUPSI,89.38131,24.22011,21559,2
CHAR BHANGOORA JUNIOR HIGH SCHOOL,125352,School,PABNA,BHANGURA,BHANGURA (PART),89.37683,24.24414,21560,1
PATULI PARA HIGH SCHOOL,125338,School,PABNA,BHANGURA,PATALI PARA (PART),89.36408,24.25581,21561,1
MONDOTUSH UNION JUNiOR HIGH SCHOOL,125349,School,PABNA,BHANGURA,CHAKMAISAT,89.37978,24.24917,21562,1
ADABARIA HIGH SCHOOL,125343,School,PABNA,BHANGURA,ADABARIA,89.35542,24.21886,21563,1
DILPASHER UNION HIGH SCHOOL,125344,School,PABNA,BHANGURA,DIL PASAR,89.34675,24.22069,21564,1
MADER BARIA HIGH SCHOOL,125341,School,PABNA,BHANGURA,MADARBARIA,89.41969,24.25975,21565,1
PUKUR PER IDEAL HIGH SCHOOL,125350,School,PABNA,BHANGURA,PUKURPAR,89.44742,24.24733,21566,1
SULTANPUR ADORSO JR SCHOOL,125348,School,PABNA,BHANGURA,SULTANPUR,89.42417,24.21256,21567,1
MAIDAN DIGHI HIGH SCHOOL,125339,School,PABNA,BHANGURA,MAIDAN DIGHI,89.43419,24.24586,21568,1
ATGHARIA PILOT HIGH SCHOOL,125253,School,PABNA,ATGHARIA,ATGHARIA (PART),89.40386,24.29028,21569,1
ISHARAT ALI GIRLS HIGH SCHOOL,125271,School,PABNA,ATGHARIA,CHANDBA (PART),89.39694,24.31808,21570,1
DBUTTOR KABI BONDA ALI MIAH HIGH SCHOOL,125263,School,PABNA,ATGHARIA,RAMNAGAR,89.41122,24.29056,21571,1
DEBOTTAR PILOT GIRLS HIGH SCHOOL,125256,School,PABNA,ATGHARIA,RAGHUNATHPUR,89.39503,24.26647,21572,1
RAMCHANDRA PUR HIGH SCHOOL,125270,School,PABNA,ATGHARIA,RAMCHANDRAPUR,89.39633,24.31897,21573,1
RAMESHWOR PUR HIGH SCHOOL,125266,School,PABNA,ATGHARIA,RAMESHWARPUR,89.24369,24.11319,21574,1
BERUAN GIRLS HIGH SCHOOL,125278,School,PABNA,ATGHARIA,BERUAN,89.23931,24.09919,21575,1
LAKSHMIPUR HIGH SCHOOL,125258,School,PABNA,ATGHARIA,LAKSHMIPUR,89.21864,24.08408,21576,1
SARABARIA HIGH SCHOOL,125267,School,PABNA,ATGHARIA,SARABARIA,89.24478,24.11125,21577,1
ZOMAIKHEREE GOBINDA PUR HIGH SCHOOL,125262,School,PABNA,ATGHARIA,GOBINDAPUR,89.39908,24.04839,21578,1
KAIRA BARI BAHU MUKHI HIGH SCHOOL,125260,School,PABNA,ATGHARIA,KAIRABARI,89.20383,24.10208,21579,1
CHANDAI HIGH SCHOOL,125264,School,PABNA,ATGHARIA,CHANDAI,89.19639,24.10711,21580,1
DANGER GRAM HIGH SCHOOL,125272,School,PABNA,ATGHARIA,DENGARGRAM,89.29914,24.09144,21581,1
EKDANTA HIGH SCHOOL,125254,School,PABNA,ATGHARIA,NARJAN,89.27325,24.07919,21582,1
GOPALPUR CHAWKIBARI JR. HIGH SCHOOL,125275,School,PABNA,ATGHARIA,GOPALPUR,89.28381,24.10819,21583,1
HIDASKOL RONI ROHIM MADDHAMIC SCHOOL,125274,School,PABNA,ATGHARIA,HIDASKOL,89.29597,24.09153,21584,1
K. H. A. JUNIOR GIRLS SCHOOL,125276,School,PABNA,ATGHARIA,KENDAR PARA,89.36208,24.08853,21585,1
ASHRAF HIGH SCHOOL,125257,School,PABNA,ATGHARIA,SHIBPUR,89.30056,24.07822,21586,1
B L K HIGH SCHOOL,125265,School,PABNA,ATGHARIA,LAKSHMIPUR,89.36425,24.09417,21587,1
MOTIJHEEL HIGH SCHOOL,125261,School,PABNA,ATGHARIA,SIRAJPUR MATIGACHHA,89.33072,24.07325,21588,1
AZHAR ALI HIGH SCHOOL,125268,School,PABNA,ATGHARIA,DURGAPUR,89.22839,24.14186,21589,1
SHAHEED ABDUL KHALEQE HIGH SCHOOL,125259,School,PABNA,ATGHARIA,DANGA PARA,89.26661,24.09856,21590,1
KOCHUA RAMPUR HIGH SCHOOL,125273,School,PABNA,ATGHARIA,KACHUA RAMPUR,89.36181,24.07822,21591,1
PARKHIDI PUR SECONDARY SCHOOL,125255,School,PABNA,ATGHARIA,PAR KHIDIRPUR,89.39764,24.04942,21592,1
PARKHIDIR PUR ADORSHO GIRLS HIGH SCHOOL,125277,School,PABNA,ATGHARIA,PAR KHIDIRPUR,89.37794,24.05572,21593,1
SARUTIA B. S. HIGH SCHOOL,125269,School,PABNA,ATGHARIA,SARTIA,89.17167,24.19433,21594,1
HAZI WAZEL ALI HIGH SCHOOL,125774,School,PABNA,SUJANAGAR,MADHU PUR,89.17125,24.18297,21595,1
TANTIBOND HIGH SCHOOL,125763,School,PABNA,SUJANAGAR,TANTIBANDA,89.18725,24.17431,21596,1
SHAHID DULAL PILOT GIRLS HIGH SCHOOL,131057,School,PABNA,SUJANAGAR,BHABANIPUR (PART),89.19119,24.12575,21597,1
SUJANAGAR PILOT model HIGH SCHOOL,125754,School,PABNA,SUJANAGAR,SUJANAGAR MASJID PARA,89.19528,24.12633,21598,1
BOALIA HIGH SCHOOL,125751,School,PABNA,SUJANAGAR,BOALIA,89.41097,23.94194,21599,1
DARIAPUR HIGH SCHOOL,125770,School,PABNA,SUJANAGAR,DARIAPUR,89.41097,23.93661,21600,1
DURGAPUR NESARA KHATUN GIRLS HIGH SCHOOL,125766,School,PABNA,SUJANAGAR,GOBINDAPUR,89.40653,23.94031,21601,1
BAMUNDI  HIGH SCHOOL,125778,School,PABNA,SUJANAGAR,BAMANDIHI,89.54422,23.96186,21602,1
BAZLUR RAHMAN HIGH SCHOOL,125752,School,PABNA,SUJANAGAR,DULAI,89.59514,23.84906,21603,1
DULAI HIGH SCHOOL,125753,School,PABNA,SUJANAGAR,DULAI,89.61483,23.92433,21604,1
PORADANGA HAZI AJEM UDDIN HIGH SCHOOL,125767,School,PABNA,SUJANAGAR,KUMAR DULIA,89.54481,23.96311,21605,1
KHALIL PUR HIGH SCHOOL,125756,School,PABNA,SUJANAGAR,KHALILPUR,89.52308,23.92861,21606,1
KAMALPUR HIGH SCHOOL,125768,School,PABNA,SUJANAGAR,KAMALPUR,89.52242,23.95419,21607,1
BONKOLA GIRLS HIGH SCHOOL,125769,School,PABNA,SUJANAGAR,BANKHOLA,89.51831,23.95436,21608,1
MALIFA HABIBAR RAHMAN MULTILATERAL HIGH SCHOOL,125758,School,PABNA,SUJANAGAR,MALIPHA,89.50319,23.96031,21609,1
MANIKHAT HIGH SCHOOL,125775,School,PABNA,SUJANAGAR,MANIKHAT,89.57311,23.83722,21610,1
RAIPUR GIRLS HIGH SCHOOL,125764,School,PABNA,SUJANAGAR,MAJH PARA,89.53994,23.86122,21611,1
UDAYPUR HIGH SCHOOL,125759,School,PABNA,SUJANAGAR,GOARIA,89.47283,23.86683,21612,1
ALHAJ IMAN ALI HIGH SCHOOL,125772,School,PABNA,SUJANAGAR,KADAMTALI,89.50633,23.84756,21613,1
SAGARKANDI REAZ UDDIN HIGH SCHOOL,125762,School,PABNA,SUJANAGAR,GOBINDAPUR,89.484,23.86028,21614,1
KADIM MALONCHI HIGH SCHOOL,125773,School,PABNA,SUJANAGAR,KADIM MALANCHI,89.58614,23.88583,21615,1
SATBARIA HIGH SCHOOL,125757,School,PABNA,SUJANAGAR,PHAKITPUR,89.58614,23.91292,21616,1
SATBARIA GIRLS HIGH SCHOOL,125761,School,PABNA,SUJANAGAR,PHAKITPUR,89.64089,23.89553,21617,1
GOPALPUR AZGOR ALI HIGH SCHOOL,125779,School,PABNA,SUJANAGAR,HEMRAJPUR,89.61294,23.86203,21618,1
MATHURA PUR  HIGH SCHOOL,125777,School,PABNA,SUJANAGAR,MATHURAPUR,89.44161,23.88608,21619,1
JAHANARA KANCHON SMRITY HIGH SCHOOL,125776,School,PABNA,SUJANAGAR,GHORADAHA,89.44047,23.88683,21620,1
BRILAHIRIBARI UNION AL HAJ ABUL HO. H/S,125465,School,PABNA,FARIDPUR,PURANDARPUR,89.46892,23.96161,21622,1
DEMRA HAZI ZATEN ULLAH High SCHOOL,125463,School,PABNA,FARIDPUR,DEMRA,89.45039,24.21092,21623,1
HARODANGA AKOTA HIGH SCHOOL,125460,School,PABNA,FARIDPUR,DAKBARIA,89.46014,24.19522,21624,1
ALLAH ABAD B.L HIGH SCHOOL,125464,School,PABNA,FARIDPUR,FARIDPUR,89.46456,24.21233,21625,1
FARIDPUR UNION HIGH SCHOOL,125468,School,PABNA,FARIDPUR,FARIDPUR,89.49597,24.14222,21626,1
BADAL BINAPANI S.C. HIGH SCHOOL,125462,School,PABNA,FARIDPUR,BADAL,89.41164,24.17664,21627,1
HADAL U. HIGH SCHOOL,125467,School,PABNA,FARIDPUR,PANCHURIA,89.41783,24.18286,21628,1
PUNGALI MODEL HIGH SCHOOL,125466,School,PABNA,FARIDPUR,PANCH PUNGALI,89.40358,24.11206,21629,1
PUNGALI AMINA MOSTAFA GIRL'S HIGH SCHOOL,125469,School,PABNA,FARIDPUR,AGPUNGALI,89.37397,24.12478,21630,1
BANWARI NAGAR PILOT GIRL'S HIGH SCHOOL,125459,School,PABNA,FARIDPUR,KHALISADAHA,89.49339,24.17553,21631,1
BANWARI NAGAR C. B. PILOT HIGH SCHOOL,125461,School,PABNA,FARIDPUR,KHALISADAHA,89.49183,24.17603,21632,1
BERA GIRLS PILOT HIGH SCHOOL,125310,School,PABNA,BERA,DAKSHIN KARMAKAR PARA,89.47639,24.19344,21633,1
BERA  B.B. PILOT HIGH SHOOL,125305,School,PABNA,BERA,UTTAR BANGRAM,89.44525,24.15917,21634,1
BERA HIGH SCHOOL,125307,School,PABNA,BERA,MOYTAR BAIDYA,89.44836,24.15867,21635,2
BHARENGA ACADEMY,125304,School,PABNA,BERA,BAGHJAN,89.61144,24.07644,21636,1
NAKALIA SARASIA BANIK HIGH SCHOOL,125308,School,PABNA,BERA,HATURIA (PART),89.63056,24.07047,21637,1
DHALAR CHAR HIGH SCHOOL,125319,School,PABNA,BERA,KUMARPUR,89.61586,24.07492,21638,1
NAKALIA ANWARA KADER GIRLS HIGH SCHOOL,125317,School,PABNA,BERA,HATURIA (PART),89.63714,23.988,21639,1
AMINPUR AYEN UDDIN HIGH SCHOOL,125313,School,PABNA,BERA,JATSAKHNI,89.64711,24.04667,21640,1
ADARSHA  HIGH SCHOOL, KAITOLA.,125316,School,PABNA,BERA,HARIRAMPUR,89.64828,24.03867,21641,1
FOKIR KANDI  GIRLS HIGH  SCHOOL,125320,School,PABNA,BERA,MASUNDIA,89.62042,23.91606,21642,1
KAZIR HAT HIGH SCHOOL,125311,School,PABNA,BERA,KAZI SHARIFPUR,89.64031,23.95186,21643,1
RATANGONJ MULTILATERAL HIGH SCHOOL,125309,School,PABNA,BERA,SOMASPUR,89.60506,23.95133,21644,1
BANGA BANDHU ADASHA HIGH SCHOOL,125318,School,PABNA,BERA,KALIA KHAKSARA,89.63869,23.87656,21645,1
NATUN BHARNGA HIGH SCHOOL,125315,School,PABNA,BERA,SAPHULLA,89.66242,23.88142,21646,1
MASUNDIA  BHAWANI PUR HIGH SCHOOL,125312,School,PABNA,BERA,BHABANIPUR,89.62064,23.86767,21647,1
KHANPURA HIGH SCHOOL,125314,School,PABNA,BERA,KHANPUR,89.65272,23.88161,21648,1
DHOBAKHOLA CORONATION S. HIGH SCHOOL,131121,School,PABNA,BERA,SANYASI BANDA,89.62836,23.88219,21649,1
SHAMGONJ HIGH SCHOOL,106916,School,PABNA,PABNA SADAR,PAILANPUR (PART) DAKSHIN,90.90217,22.92133,21650,1
YONUS ALI  SCHOOL AND COLLEGE,125571,School and College,PABNA,PABNA SADAR,CHAR ASHUTOSH,89.14747,24.04283,26241,1
KHATIB ABDUL ZAHID SCHOOL & COLLEGE,125672,School and College,PABNA,PABNA SADAR,BOBRAKHALI,89.24928,23.98792,26242,1
SHUDHIR KUMAR HIGH SCHOOL & COLLEGE,125671,School and College,PABNA,PABNA SADAR,SANKHARI PARA,89.25969,24.01081,26244,1
NAZRUL ISLAM HABU SCHOOL AND COLLEGE,125593,School and College,PABNA,PABNA SADAR,NAZIRPUR,89.36497,24.02283,26245,2
DOGACHI HIGH SCHOOL AND COLLEGE,125673,School and College,PABNA,PABNA SADAR,DOGACHHI,89.32186,23.95244,26246,1
KHAYER SUTI HIGH SCHOOL & COLLEGE,125669,School and College,PABNA,PABNA SADAR,KHAYER SUTI,89.38828,23.95572,26247,1
DANTHIA BAMON GRAM UNION  SCHOOL AND COLLEGE,125458,School and College,PABNA,CHATMOHAR,DAKSHIN BAMANGRAM,89.248,24.21236,26248,1
HARIPUR DURGADAS HIGH SCHOOL AND COLLEGE,125456,School and College,PABNA,CHATMOHAR,HARIPUR,89.25019,24.25675,26249,1
MULGRAM UNION high SCHOOL,125457,School and College,PABNA,CHATMOHAR,KUBIRDIAR,89.27356,24.13989,26250,1
SARA MAROWARI SCHOOL AND COLLEGE,125558,School and College,PABNA,ISHWARDI,PASCHIM TENGRI,89.35164,24.26561,26251,1
BAGHAIL SCHOOL AND COLLEGE,125506,School and College,PABNA,ISHWARDI,BAGHAIL,89.08136,24.02933,26252,1
FATEMA KHATUN GIRLS HIGH SCHOOL & COLLEGE,125749,School and College,PABNA,SANTHIA,RAGHUNATHPUR,89.55231,24.05036,26253,1
DEBIPUR TEBARIA HIGH  SCHOOL  AND COLLEGE,125748,School and College,PABNA,SANTHIA,DEBIPUR,89.46719,24.06944,26254,1
MIAPUR HAZI JASIM UDDIN HIGH SCHOOL AND COLLEGE,125750,School and College,PABNA,SANTHIA,MIANPUR,89.47506,23.96411,26255,1
DARAMUDA KHOWAJ UDDIN HIGH SCHOOL AND COLLEGE,125674,School and College,PABNA,SANTHIA,DARAMUDA,89.51772,24.13136,26256,1
SHAHEED ShaRONIKA high SCHOOL & COLLEGE,125765,School and College,PABNA,SUJANAGAR,AHAMMEDPUR,89.40786,23.94186,26257,1
CHINAKHARA HIGH SCHOOL AND COLLEGE,125755,School and College,PABNA,SUJANAGAR,SHIBRAMPUR,89.58403,23.94644,26258,1
SAYEDPUR HIGH SCHOOL & COLLEGE,125798,School and College,PABNA,SUJANAGAR,SAIDPUR,89.43333,23.96653,26259,1
BONKOLA  HIGH  SCHOOL  AND  COLLEGE,125795,School and College,PABNA,SUJANAGAR,BANKHOLA,89.47947,23.85797,26260,1
NAZIRGONJ HIGH SCHOOL AND COLLEGE,125793,School and College,PABNA,SUJANAGAR,BARKHANPUR,89.48928,23.88692,26261,1
RANINAGAR SCHOOL AND COLLEGE BHATIKAYA,125760,School and College,PABNA,SUJANAGAR,BHATIKAYA,89.50283,23.84958,26262,1
RANI NAGAR BIL GAZNA SCHOOL AND COLLEGE,125797,School and College,PABNA,SUJANAGAR,RANINAGAR,89.53028,23.82856,26263,1
TALIMNAGOR SHAHMAHTAB UDDIN HIGH SCHOOL & COLLEGE,125794,School and College,PABNA,SUJANAGAR,SHYAMSUNDARPUR,89.58897,23.91344,26264,1
DIGHALIA A.Z. HIGH SCHOOL AND COLLEGE,125492,School and College,PABNA,FARIDPUR,SEN DIGHALIA,89.47431,24.19169,26265,1
AL HERA ACADEMY (SCHOOL & COLLEGE),125333,School and College,PABNA,BERA,ALHERANOGAR,89.63122,24.07969,26266,1
DHOBAKHOLA CORONATION  SCHOOL AND COLLEGE, NATIABARI,125306,School and College,PABNA,BERA,NATUABARI,89.62642,24.02028,26267,1
