inst name, eiin, inst_type, district, thana, mauza, long, lat, serial,isUnique
MOUKRAN B.L.P. DEGREE COLLEGE,102598,College,PATUAKHALI,PATUAKHALI SADAR,MAUKARAN,90.34343,22.363374,1707,1
KALAGACHIA S. M SAKENDER ALI CHOWDHURY DEGREE COLLEGE,102330,College,PATUAKHALI,GALACHIPA,KALAGACHHIA,90.335007,22.378555,1708,1
AKHTAR HOSSIAN CHOWDHURY MEMORIAL DEGREE COLLAGE,102473,College,PATUAKHALI,MIRZAGANJ UPAZILA,KANTHALTALI,90.334839,22.354296,1709,1
ALI PURA COLLEGE,102165,College,PATUAKHALI,DASHMINA,PURBA ALIPUR,90.52803,22.34392,1710,1
AZIZ AHMED COLLEGE,131891,College,PATUAKHALI,DUMKI UPAZILA,UTTAR MURADIA,90.40383,22.47006,1711,1
NASIMA KARAMOT ALI MAHILA COLLEGE,102217,College,PATUAKHALI,DUMKI UPAZILA,SREERAMPUR,90.41031,22.46394,1712,1
JANATA COLLEGE,102216,College,PATUAKHALI,DUMKI UPAZILA,DUMKI,90.38825,22.43742,1713,1
L.A.M. UNAITED MOHILA COLLEGE,131931,College,PATUAKHALI,DUMKI UPAZILA,LEBUKHALI,90.43542,22.43325,1714,1
MOZAHAR UDDIN BISWAS DEGREE COLLEGE,102402,College,PATUAKHALI,KALA PARA,BADURTALI,90.31086,22.43083,1715,1
MUKTIJHODDHA MEMORIAL COLLEGE,102400,College,PATUAKHALI,KALA PARA,SHIBBARIA,90.15467,21.88361,1716,1
ALHAJ ZALAL UDDIN COLLEGE,102404,College,PATUAKHALI,KALA PARA,DHULASAR,90.15722,21.90467,1717,1
KUAKATA KHANABAD COLLEGE,102399,College,PATUAKHALI,KALA PARA,LATA CHAPLI,90.31781,22.02519,1718,1
KHARIZZAMA COLLEGE,102334,College,PATUAKHALI,GALACHIPA,KHARIJJAMA,90.28433,22.04186,1719,2
DHANKHALI DEGREE COLLEGE,102403,College,PATUAKHALI,KALA PARA,PANCH JAINA,90.30231,22.06794,1720,1
KALAPARA MOHILA COLLEGE,102401,College,PATUAKHALI,KALA PARA,KHEPUPARA OFFICE MAHALLAH,90.17919,21.95144,1721,1
AMKHOLA COLLEGE,102336,College,PATUAKHALI,GALACHIPA,BHANGRA,90.38339,22.25483,1723,1
GALACHIPA DEGREE COLLEGE,102331,College,PATUAKHALI,GALACHIPA,COLLEGE PARA (RATANDI),90.40936,22.16861,1724,1
GALACHIPA WOMEN'S DEGREE COLLEGE,102332,College,PATUAKHALI,GALACHIPA,RATANDI,90.40875,22.16775,1725,1
HAZI KERAMAT ALI COLLEGE,102327,College,PATUAKHALI,GALACHIPA,UTTAR CHAR BISWAS,90.52656,22.03972,1726,1
RANGA BALI  COLLEGE,102335,College,PATUAKHALI,RANGABALI,RANGABALI,90.36297,22.96756,1727,1
SUBIDKHALI MOHILA (DEGREE) COLLEGE,102472,College,PATUAKHALI,MIRZAGANJ UPAZILA,UTTAR SUBIDKHALI,90.42803,22.16611,1728,2
SUBIDKALI DEGREE COLLEGE,102471,College,PATUAKHALI,MIRZAGANJ UPAZILA,MIRZAGANJ,90.43558,21.97467,1729,1
MAJIDBARIA COLLEGE,102470,College,PATUAKHALI,MIRZAGANJ UPAZILA,KHATASAIA,90.18225,22.26944,1730,1
KISMARPUR DELWAR HOSAIN COLLEGE,102474,College,PATUAKHALI,MIRZAGANJ UPAZILA,KISMAT KHATASIA,90.18694,22.23217,1731,1
KACHIPARA MD.ABDUL  RASHID  MIAH  COLLEGE,102113,College,PATUAKHALI,BAUPHAL,KANCHI PARA,90.58128,22.47464,1732,1
KALISHURI DEGREE COLLEGE,102109,College,PATUAKHALI,BAUPHAL,KALISURI,90.57942,22.50133,1733,1
DR. EAKUB  SHARIF  DEDREE   COLLEGE,102110,College,PATUAKHALI,BAUPHAL,BAGA,90.50467,22.47497,1734,1
BAUPHAL   COLLEGE,102107,College,PATUAKHALI,BAUPHAL,BAUPHAL (PART),90.53864,22.40219,1735,1
IDRIS MOLLA DEGREE COLLEGE,102105,College,PATUAKHALI,BAUPHAL,KALALYA,90.53267,22.52128,1736,1
KESHABPUR  MAHAVIDYALAYA,102106,College,PATUAKHALI,BAUPHAL,KESHABPUR,90.46622,22.36864,1737,1
ENGRIEER  FARUK  TALUKDER  MOHLIA  COLLEGE,102108,College,PATUAKHALI,BAUPHAL,NAZIRPUR TATERKATI (PART),90.50414,22.37203,1738,1
NURAINPUR COLLAGE,102111,College,PATUAKHALI,BAUPHAL,NARAYANPUR,90.51761,22.48133,1739,1
ABDUR RASHID KHAN COLLEGE,102112,College,PATUAKHALI,BAUPHAL,NOAMALA,90.53353,23.68167,1740,1
DHARANDI COLLEGE,102591,College,PATUAKHALI,PATUAKHALI SADAR,DAKSHIN DHARANDI,90.42547,22.36239,1741,1
PATUAKLALI GOVT, MAHILA COLLEGE,102593,College,PATUAKHALI,PATUAKHALI SADAR,NUTAN BAZAR (PURBO),90.39117,22.34278,1742,1
HAZI HAMEZUDDIN MIRDHA COLLEGE,132000,College,PATUAKHALI,PATUAKHALI SADAR,TOWN ZAINKATI,90.40442,22.34364,1743,1
MOHAMMED ISHAQUE MODEL DEGREE COLLEGE, PATUAKHALI,102595,College,PATUAKHALI,PATUAKHALI SADAR,TOWN BAHALGACHHIA,90.32311,22.32003,1744,1
ABDUR RASHID TALUKDAR COLLEGE,102164,College,PATUAKHALI,DASHMINA,CHAR HOSNABAD,90.34711,22.43681,1747,1
ABDUL KARIM MIRDHA COLLEGE,102594,College,PATUAKHALI,PATUAKHALI SADAR,CHAR PARA,90.34767,22.43472,1748,1
HAZI MOKTER ALI MRIDHA DEGREE COLLEGE,102600,College,PATUAKHALI,PATUAKHALI SADAR,HARITAKIBARIA,90.34564,22.36481,1749,1
PAXMIA SAYDIA ISLANIA COLLEGE,102592,College,PATUAKHALI,PATUAKHALI SADAR,PAKSHIA,90.25014,22.32847,1750,1
ASMAT ALI KHAN COLLEGE,102601,College,PATUAKHALI,PATUAKHALI SADAR,DHEUKHALI,90.42192,22.34561,1751,1
HAZI AKKEL ALI HOWLADER COLLEGE,102597,College,PATUAKHALI,PATUAKHALI SADAR,UTTAR TOWN KALIKAPUR,90.40586,22.40992,1752,1
PATUAKHALI GOVERNMENT COLLEGE,102596,College,PATUAKHALI,PATUAKHALI SADAR,TOWN SCHOOL,90.27308,22.26086,1753,1
DAKKHIN DASPARA A. GANI GIRLS DAKHIL MADRASAH,102156,Madrasha,PATUAKHALI,DASHMINA,DAKSHIN DASPARA,90.13875,22.56242,8384,1
BASHBARIA RAJJABIA DAKHIL MADRASAH,102147,Madrasha,PATUAKHALI,DASHMINA,BANSHBARIA,90.57486,22.31919,8385,1
ALUTA PUR DAKHIL MADRASAH,102157,Madrasha,PATUAKHALI,DASHMINA,JAUTHA,90.59472,22.32306,8386,1
RONGOPAL DI TALIMUL QURAN DAKHIL MADRASHA,102162,Madrasha,PATUAKHALI,DASHMINA,UTTAR RANGOPALDI,90.57847,22.27461,8387,1
SOUTH AROJBEGI DAKAHIL MADRASAH,102153,Madrasha,PATUAKHALI,DASHMINA,ARAJBEGI,90.53419,22.21506,8388,1
EAST ALIPURA ISLAMIA DHAKIL MADRASHA,102154,Madrasha,PATUAKHALI,DASHMINA,PURBA ALIPUR,90.54442,22.33922,8390,1
ADAMPURA BEGUM ROKEYA GIRLS DAKHIL MADRASAHA,102155,Madrasha,PATUAKHALI,DASHMINA,DAKSHIN ADAMPUR,90.51686,22.22503,8391,1
ADAM PURA ISLAMIA FAZIL MADRASHA,102146,Madrasha,PATUAKHALI,DASHMINA,DAKSHIN ADAMPUR,90.51083,22.25694,8392,1
BARA GOPAIDI AJUFA KHANOM GIRLS DAKHIL MA:,102159,Madrasha,PATUAKHALI,DASHMINA,GOPALDI,90.57722,22.34289,8393,1
MADHYA BETAGI SHARIATIA DAKHIL MADRASHA,102151,Madrasha,PATUAKHALI,DASHMINA,BETAGI,90.57697,22.33658,8394,1
RAMBALLAV  DAKHIL MADRASHA,102148,Madrasha,PATUAKHALI,DASHMINA,BETAGI RAMBALLABH,90.53986,22.32342,8395,1
ANGARIA  SALEHEA DAKHIL MADRASAH,102206,Madrasha,PATUAKHALI,DUMKI UPAZILA,ANGARIA,90.49481,22.33428,8396,1
JALISHA SHAMMIMIA DAKHIL MADRASHA,102204,Madrasha,PATUAKHALI,DUMKI UPAZILA,ANGARIA,90.50439,22.24439,8397,1
DAKHIN MURADIA BAITUL AMIN DAKHIL MADRASHA,102209,Madrasha,PATUAKHALI,DUMKI UPAZILA,DAKSHIN MURADIA,90.50362,22.34964,8398,1
UTTAR MURADIA BASIRIA ALIM MADRASAH,102208,Madrasha,PATUAKHALI,DUMKI UPAZILA,UTTAR MURADIA,90.36069,22.46747,8399,1
CHAR GARABDI ISLAMIA DAKHIL MADRASHA,102201,Madrasha,PATUAKHALI,DUMKI UPAZILA,JOAR GARABDI CHAR,90.36975,22.48489,8400,1
DAKKHIN MURADIA  MAHILA  FAZIL  MADRASAH,102202,Madrasha,PATUAKHALI,DUMKI UPAZILA,DAKSHIN MURADIA,90.39169,22.41922,8401,1
CHARGARABDI A.G.S. GIRLS DAKHIL MADRASAH,102214,Madrasha,PATUAKHALI,DUMKI UPAZILA,JOAR GARABDI CHAR,90.41097,22.45714,8402,1
MURADIA ISLAMIA DAKHIL MADRASAH,102199,Madrasha,PATUAKHALI,DUMKI UPAZILA,DAKSHIN MURADIA,90.441,22.43214,8403,1
JAMLA H. ABDUL GANI DAKHIL MADRASH,102212,Madrasha,PATUAKHALI,DUMKI UPAZILA,SREERAMPUR,90.42689,22.44311,8404,1
DUMKHI ISLAMIA GIRLS DAKHIL MADRASAH,102210,Madrasha,PATUAKHALI,DUMKI UPAZILA,DUMKI,90.40133,22.43433,8405,1
LABUKHALI ANGARIA DAKAHIL MADARASAH,102205,Madrasha,PATUAKHALI,DUMKI UPAZILA,ANGARIA,90.38478,22.44117,8406,1
KARTICK PASHA DAKHIL MADRASAH,102200,Madrasha,PATUAKHALI,DUMKI UPAZILA,KARTIKPASHA,90.38269,22.46975,8407,1
ATHAROGASIA SIRAZIA DAKHIL MADRASH,102207,Madrasha,PATUAKHALI,DUMKI UPAZILA,ATHARAGACHHIA,90.37722,22.46578,8408,1
CHAR BOYRA MODEL BALIKA DAKHIL MADRASHA,102190,Madrasha,PATUAKHALI,DUMKI UPAZILA,RAJAKHALI,90.37978,22.46814,8410,1
JAMIA E- ISLAMIA DKAHIL MADRASAH,102203,Madrasha,PATUAKHALI,DUMKI UPAZILA,DUMKI,90.35292,22.46039,8411,1
ZALISHA HAJI HASMAT BALIKA DAKHIL MADRASAH,102211,Madrasha,PATUAKHALI,DUMKI UPAZILA,JALISHA,90.36872,22.45508,8412,1
NALDOANI  ABDUS SALAM MADRASHA,102196,Madrasha,PATUAKHALI,DUMKI UPAZILA,UTTAR PANGASHIA,90.38511,22.46478,8413,1
PANGASHIA NESARIA KAMIL MADRASA,102191,Madrasha,PATUAKHALI,DUMKI UPAZILA,DAKSHIN PANGASIA,90.39167,22.47761,8414,1
PANGASHI AL-MADINA GIRLS ALIM MADRASHA,102197,Madrasha,PATUAKHALI,DUMKI UPAZILA,DAKSHIN PANGASIA,90.38331,22.47008,8415,1
UTTAR PANGASIA HAZRAT ALI DAKHIL MADRASAH,102193,Madrasha,PATUAKHALI,DUMKI UPAZILA,UTTAR PANGASHIA,90.41633,22.45419,8416,1
BADURTALI ISLAMIA GIRLS DAKHIL MADRASHA,102387,Madrasha,PATUAKHALI,KALA PARA,BADURTALI,90.31456,22.44956,8417,1
KHEPUPARA NESAR UDDIN FAZIL MADRASHA,102370,Madrasha,PATUAKHALI,KALA PARA,MADRASA ROAD,90.36222,22.481,8418,1
SULTAN GONJ ALIM  MADRASHA,102388,Madrasha,PATUAKHALI,KALA PARA,NILGANJ,90.23689,21.97803,8419,1
GAZI PARA DAKHIL MADRASHA,102396,Madrasha,PATUAKHALI,KALA PARA,ANIPARA,90.25892,21.99031,8420,1
LALUA NAYAPARA ISLAMIA DAKHIL MADRASHA,102376,Madrasha,PATUAKHALI,KALA PARA,LALUA,90.26817,22.022,8421,1
NURPUR DAKHIL MADRASHA,102377,Madrasha,PATUAKHALI,KALA PARA,DALBUGANJ,90.22528,21.9865,8422,1
YOUSUF PUR GIRLS DAKHIL MADRASHA,102397,Madrasha,PATUAKHALI,KALA PARA,NIZAMPUR,90.18019,21.99775,8423,1
TARIKATA DAKHIL MADRASHA,102398,Madrasha,PATUAKHALI,KALA PARA,BAULTALI,90.12511,21.85961,8424,1
BANATI PARA ALHAZ ABDUL HALIM KHAN DAKHIL MADRASHA,102389,Madrasha,PATUAKHALI,KALA PARA,BANATI PARA,90.13242,21.875,8425,1
KUAKATA ISLAMPUR DAKHIL MADRASHA,102372,Madrasha,PATUAKHALI,KALA PARA,LATA CHAPLI,90.27647,21.97278,8428,1
MUSULLIaBAD ISLAMIA ALIM MADRASHA,102375,Madrasha,PATUAKHALI,KALA PARA,LATA CHAPLI,90.12194,21.82208,8429,1
LONDA DAKHIL MADRASHA,102382,Madrasha,PATUAKHALI,KALA PARA,LONDA,90.29886,22.01686,8431,2
UTTAR MASUAKHALI HANIFI DHAKIL MADRASHA,102381,Madrasha,PATUAKHALI,KALA PARA,MACHUA KHALI,90.30278,22.07278,8432,1
ARAMGANJ ALIGANJ DARUL ISLAM DAKHIL MADRASHA,102392,Madrasha,PATUAKHALI,KALA PARA,MITHAGANJ,90.34367,22.10861,8433,2
Eakub Ali Talukder ISLaMiA ALIM MADRASaH,102373,Madrasha,PATUAKHALI,KALA PARA,BARA BALIATALI,90.31983,22.06331,8434,2
CHOTO BALIATOLI M.M.A DAKHIL MADRASHA,102390,Madrasha,PATUAKHALI,KALA PARA,CHHOTA BALIATALI,90.24353,21.92853,8435,1
PURBO MODHU KHALI SALAHIA DAKHIL MADRASHA,102385,Madrasha,PATUAKHALI,KALA PARA,MADHUKHALI,90.21947,21.94583,8436,1
ROZOPARA DIN E- ELAHI DAKHIL MADRASAHA,102379,Madrasha,PATUAKHALI,KALA PARA,RAJA PARA,90.14569,21.94094,8440,2
AKKEL PUR NURIA DAKHIL MADRSHA,102380,Madrasha,PATUAKHALI,KALA PARA,HAJIPUR,90.16375,21.93328,8442,1
DAULATPUR SALEHIA ISLAMIA ALIM MADRASHA,102371,Madrasha,PATUAKHALI,KALA PARA,SONATALA,90.23764,22.01444,8443,1
MOSTOFAPUR SAMSUNNAHAR BALIKA DAKHIL MADRASHA,102384,Madrasha,PATUAKHALI,KALA PARA,UMEDPUR,90.22536,21.98439,8444,1
NISAN BARIA S.M.F.K. DAKHIL MADRASHA,102386,Madrasha,PATUAKHALI,KALA PARA,NISHANBARIA,90.13928,21.90797,8446,1
DHANKHALI GIRLS DAKHIL MADRASHA,102394,Madrasha,PATUAKHALI,KALA PARA,DHANKHALI,90.30203,22.06897,8447,2
EAST  NALUABAGI  DAKHIL  MADRASHA,102312,Madrasha,PATUAKHALI,GALACHIPA,NALUABAGI,90.31889,22.0335,8449,1
SOUTH BALAI BUNIA DAKHIL MADRASHA,102279,Madrasha,PATUAKHALI,GALACHIPA,BALAIBUNIA,90.34289,22.09889,8450,2
ALEMABAD SALEHIA DAKHIL MADRASAH,102295,Madrasha,PATUAKHALI,GALACHIPA,BARA GABUA,90.39108,22.20394,8451,1
GOLAKHALI  ISLAMIA  DAKHIL  MADRASHA,102303,Madrasha,PATUAKHALI,GALACHIPA,GOLKHALI,90.35111,22.10736,8452,1
CHOTA GABUA MAHILA DAKHIL MADRASHA,102322,Madrasha,PATUAKHALI,GALACHIPA,CHHOTA GABUA,90.40358,22.17975,8453,1
MODHYA AMKHOLA DAKHIL MADRASHA,102307,Madrasha,PATUAKHALI,GALACHIPA,AMKHOLA,90.39553,22.24117,8454,1
BANSHBUNIA ISLAMIA ALIM MADRASAH,102305,Madrasha,PATUAKHALI,GALACHIPA,BANSHBUNIA,90.39161,22.287,8455,1
RAHAM GONJ HAMIDIA DAKHIL MADRASHA,102290,Madrasha,PATUAKHALI,GALACHIPA,RAMANANDA,90.33719,22.25942,8456,1
BARA NANDH WOMEN DAKHIL MADRASHA,102315,Madrasha,PATUAKHALI,GALACHIPA,MANIKCHAND,90.35794,22.25311,8457,1
MANIK CHAND DAKHIL MADRASHA,102311,Madrasha,PATUAKHALI,GALACHIPA,RATANDI TALTALI,90.36317,22.21844,8458,1
BARO CHATRA DAKHIL MADRASA,102296,Madrasha,PATUAKHALI,GALACHIPA,BARA CHATRA,90.48053,22.13842,8459,1
DAKUA ISLAMIA DAKHIL MADRASHA,102308,Madrasha,PATUAKHALI,GALACHIPA,ATKHALI,90.45011,22.15625,8460,1
MIDDLE PAR DAKUA SALEHIA DARUS SUNNAT DAKHIL MADRASHA,102288,Madrasha,PATUAKHALI,GALACHIPA,DAKUA,90.47336,22.14122,8461,1
BOALIA  SALEHIA  DAKHIL  MADRASHA,102286,Madrasha,PATUAKHALI,GALACHIPA,BOALIA,90.46331,22.21475,8462,1
GALACHIPA NUTAN  JAME MASZID ATTached ALIM MADRASAH,102293,Madrasha,PATUAKHALI,GALACHIPA,RATANDI,90.48289,22.17894,8463,1
KALIKAPUR NUREA FAZILMADRASHA,102278,Madrasha,PATUAKHALI,GALACHIPA,RATANDI KALIKAPUR,90.45994,22.17406,8464,1
MURAD  NAGAR  AHMADIA  DAKHIL  MADRASHA,102304,Madrasha,PATUAKHALI,GALACHIPA,RATANDI,90.49022,22.21389,8465,1
UTTAR CHAR KHALI MOHILA DAKHIL MADRASHA,102316,Madrasha,PATUAKHALI,GALACHIPA,RATANDI,90.41347,22.09475,8466,1
ESADI NESARIA DAKHIL MADRASHA,102281,Madrasha,PATUAKHALI,GALACHIPA,ICHADI JOAR,90.41528,22.16192,8467,1
BAHER  GAZALIA  SALEHIA  DAKHIL MADRASHA,102280,Madrasha,PATUAKHALI,GALACHIPA,GAZALIA,90.40719,22.14414,8468,1
UTTAR PURBA GAZALLA DAKHIL MADRASHA,102292,Madrasha,PATUAKHALI,GALACHIPA,GAZALIA,90.40764,22.12503,8469,1
LAMNA SALEHIA ALIM MADRASHA,102276,Madrasha,PATUAKHALI,GALACHIPA,LAMNA,90.41128,22.169,8470,1
MODDHO  PATABUNIA  GAZIA  DAKHIL  MADRASHA,102310,Madrasha,PATUAKHALI,GALACHIPA,PATABUNIA,90.47394,22.32483,8471,1
SOUTH CHAR BISWAS M.ALIATIFIA DAKHIL MADRASHA,102291,Madrasha,PATUAKHALI,GALACHIPA,DAKSHIN CHAR BISWAS,90.48383,22.28331,8472,1
DAKHIN CHAR AGUSTI DAKHIL MADRASHA,102320,Madrasha,PATUAKHALI,GALACHIPA,CHAR AGASTI,90.47175,22.33294,8473,1
UTTAR CHAR BISWAS SALEHA KHATUN DAKHIL MADRASA,102318,Madrasha,PATUAKHALI,GALACHIPA,UTTAR CHAR BISWAS,90.48458,22.29853,8474,1
CHAR MONTAZ SIDDIKIA DAKHIL MADRASAH,102287,Madrasha,PATUAKHALI,RANGABALI,CHAR MOMTAJ,90.52611,22.02964,8475,1
CHAR KAJAL ISLAMIA DAKHIL MADRASHA,102317,Madrasha,PATUAKHALI,GALACHIPA,BARA CHAR KAJAL,90.52028,22.01556,8476,1
CHOTO KAZAL HOSSAINIA DAKHIL MADRASAH,102297,Madrasha,PATUAKHALI,GALACHIPA,CHHOTA CHAR KAJAL,90.53639,22.92431,8477,1
CHOTO SHIBA SALEHIA DAKHIL MADRASHA,102302,Madrasha,PATUAKHALI,GALACHIPA,CHHOTA SHIBAR CHAR,90.51936,22.07864,8478,1
PASCHIM GABBUNIA DAKHIL MADRASAH,102301,Madrasha,PATUAKHALI,RANGABALI,GABBUNIA,90.53158,22.06042,8479,1
RANGABALI HAMIDIA MOHILA DAKHIL MADRASHA,102313,Madrasha,PATUAKHALI,RANGABALI,RANGABALI,90.55025,22.09906,8480,1
NORTH KAZIR HOWLA MOHSENIA DAKHIL MADRASHA,102289,Madrasha,PATUAKHALI,RANGABALI,KAZIR HAOLA,90.34839,22.94192,8481,1
RANGABALI NESARIA DAKHIL MADRASHA,102284,Madrasha,PATUAKHALI,RANGABALI,RANGABALI,90.42036,22.96169,8483,1
JAMEYA -E-OMAR  FARUK(R)  DAKHIL MADRASHA,102309,Madrasha,PATUAKHALI,GALACHIPA,KALAGACHHIA,90.42069,22.93086,8484,1
SHAZIR HAULA AKBARIA DHAKHIL MADRASHA,102294,Madrasha,PATUAKHALI,RANGABALI,TILLA,90.40581,22.29192,8485,1
CHOTO BAISDIA ISLAMIA DAKHIL MADRASHA,102283,Madrasha,PATUAKHALI,RANGABALI,CHATLAKHALI,90.45222,22.24775,8486,1
KOAT KHALI SENIOR MADRASHA,102275,Madrasha,PATUAKHALI,GALACHIPA,KOTKHALI,90.45547,22.29431,8487,1
UTTAR PANKHALI M DAKHIL MADRASHA,102299,Madrasha,PATUAKHALI,GALACHIPA,PANKHALI,90.42972,21.99981,8488,1
CHINIKANDI SALIHIA DAKHIL MADRASH,102306,Madrasha,PATUAKHALI,GALACHIPA,CHIKNIKANDI,90.46233,22.24903,8489,1
KALARAZAHAT HOSSAINIA ALIM MADRASHA,102285,Madrasha,PATUAKHALI,GALACHIPA,KALARAJA,90.43464,22.24981,8490,1
MADDHYA PAN PATTY ISLAMIA ALIM MADRASHA,102300,Madrasha,PATUAKHALI,GALACHIPA,UTTAR PANPATTY,90.46628,22.22558,8491,1
CHALITABUNIA NESARIA  ISLAMIA FAZIL MADRASHA,102277,Madrasha,PATUAKHALI,RANGABALI,BIBIR HAOLA,90.43853,22.24133,8492,1
CHAR HOSNABAD ALIM MADRASAH,102144,Madrasha,PATUAKHALI,DASHMINA,CHAR HOSNABAD,90.43886,22.26119,8493,1
UTTAR GHATAKER ANDUA SALEHIA FAZIL MADRASHA,102445,Madrasha,PATUAKHALI,MIRZAGANJ UPAZILA,GHATAKER ANDUA,90.36458,22.01964,8494,1
ISALMABAD MOHAMMADIA DAKHIL MADRASAH,102465,Madrasha,PATUAKHALI,MIRZAGANJ UPAZILA,PIPRAKHALI,90.21936,22.36797,8495,1
MOIDA SALEHIA  DAKHIL MADRASAH,102464,Madrasha,PATUAKHALI,MIRZAGANJ UPAZILA,MAIDA,90.18475,22.33628,8497,1
BAZITA SALAHIA DAKHIL MADRASHA,102469,Madrasha,PATUAKHALI,MIRZAGANJ UPAZILA,BAJITA 2ND PART,90.25633,22.46033,8498,1
CHOYTA NESARIA FAZIL MADRASAH,102439,Madrasha,PATUAKHALI,MIRZAGANJ UPAZILA,CHAITA,90.22672,22.42411,8499,1
RAMPUR SIDDIQUA FAZIL MADRASHA,102447,Madrasha,PATUAKHALI,MIRZAGANJ UPAZILA,RAMPUR,90.24267,22.43883,8500,2
KANKI RAMPUR MASUMIA DAKHIL MADRASHA,102463,Madrasha,PATUAKHALI,MIRZAGANJ UPAZILA,RAMPUR,90.24267,22.43883,8502,2
UTTAR CHALITA  BUNIA SARAFATIA DAKHIL MADRASAH,102455,Madrasha,PATUAKHALI,MIRZAGANJ UPAZILA,CHALITABUNIA,90.19631,22.40525,8503,1
SULTANABAD DAKHIL MADRASAH,102458,Madrasha,PATUAKHALI,MIRZAGANJ UPAZILA,KHATASAIA,90.24156,22.40397,8504,1
SOUTH MAZID BARIA SALAEHEA DAKHIL MADRASAH,102450,Madrasha,PATUAKHALI,MIRZAGANJ UPAZILA,MAZIDBARIA,90.18147,22.24783,8505,1
MASZID BARIA HOSSIANIA DKAHIL MADRASAH,102451,Madrasha,PATUAKHALI,MIRZAGANJ UPAZILA,MAZIDBARIA,90.19789,22.28017,8506,1
GAZIPURA  GIRLS DAKHIL MADRASAH,102441,Madrasha,PATUAKHALI,MIRZAGANJ UPAZILA,GAZIPURA,90.17942,22.27006,8507,1
UTTAR CHOITA AHMADIA DAKHIL MADRASHA,102449,Madrasha,PATUAKHALI,MIRZAGANJ UPAZILA,UTTAR CHAITA,90.171,22.28408,8508,1
KAPAL VERA DARUS SUNNAT MOHILA ALIM MADRASAH,102461,Madrasha,PATUAKHALI,MIRZAGANJ UPAZILA,KAPALBERA,90.25933,22.39644,8511,1
AMRA GACHSIA ISLAMIA DKHIL MADRASAH,102454,Madrasha,PATUAKHALI,MIRZAGANJ UPAZILA,DAKSHIN AMRAGACHHIA,90.23042,22.36106,8512,1
PACHIM KALIKAPUR HOSSIAN DAKHIL MADRASAH,102457,Madrasha,PATUAKHALI,MIRZAGANJ UPAZILA,KALIKAPUR,90.25136,22.36819,8513,1
MIRAZGONJ YARIA ALIM MADRASAHA,102440,Madrasha,PATUAKHALI,MIRZAGANJ UPAZILA,MIRZAGANJ,90.25183,22.40453,8514,1
BHIKAKHALI NURU MIA DAKHIL MADRASHA,102466,Madrasha,PATUAKHALI,MIRZAGANJ UPAZILA,BHIKAKHALI,90.28225,22.43072,8515,1
BAZEMAHAL OBAIDIA FAZIL MADRASHA,102040,Madrasha,PATUAKHALI,BAUPHAL,BAZEMAHAL,90.56981,22.55147,8518,1
BHARIPASHA GIRL'S DAKHIL MADRASH0,102049,Madrasha,PATUAKHALI,BAUPHAL,BHARIPASHA,90.55636,22.53008,8519,1
TALTOLI BHARIPASHA I. DAKHIL MADRASHA,102056,Madrasha,PATUAKHALI,BAUPHAL,BHARIPASHA,90.57583,22.48092,8520,1
KESHABPUR FOZLUL HAQUE ALIM MADRASHA,102091,Madrasha,PATUAKHALI,BAUPHAL,KESHABPUR,90.55056,22.49994,8521,1
BHARIPASHA SYED MURTUZZA DAKHIL MADRASHA,102093,Madrasha,PATUAKHALI,BAUPHAL,BHARIPASHA,90.54503,22.51017,8522,1
MOMINPUR RAZZABIA DAKHIL MADRASHA,102094,Madrasha,PATUAKHALI,BAUPHAL,MOMINPUR,90.56547,22.50533,8523,1
MADABPUR DAKHIL MADRASHA,102101,Madrasha,PATUAKHALI,BAUPHAL,MADHABPUR (PART),90.57181,22.48317,8524,1
MOHSEN UDDIN NURIA FAZIL MADRASHA,102046,Madrasha,PATUAKHALI,BAUPHAL,MAHASRADHI,90.55214,22.52283,8525,1
NURAIN PASA DAKHIL MADRASHA,102050,Madrasha,PATUAKHALI,BAUPHAL,NARAYANPASHA,90.51889,22.53308,8526,1
UTTAR KANAKDIA ALIM MADRASAH,102043,Madrasha,PATUAKHALI,BAUPHAL,KANAKDIA,90.46814,22.45556,8527,1
ZAKERABAD SUFI NUR MUHAMMAD SIDDIKI DAKHIL MADRASHA,102076,Madrasha,PATUAKHALI,BAUPHAL,BIHPASHA,90.48247,22.47525,8528,1
BAGA UNION DARUSSUNNAT DAKHIL MADRASHA,102086,Madrasha,PATUAKHALI,BAUPHAL,RAJNAGAR,90.50881,22.45864,8529,1
BASHARABAD(CHABUA) SALEHIA ALIM MADRASA,102051,Madrasha,PATUAKHALI,BAUPHAL,CHABUA,90.47708,22.45719,8530,1
BAUfal SALEHIA FAZIL MADRASHA,102038,Madrasha,PATUAKHALI,BAUPHAL,BAUPHAL (PART),90.43733,22.41011,8531,1
SOUTH HOSNABAD GIRLS DAKHIL MADRASHA,102072,Madrasha,PATUAKHALI,BAUPHAL,DAKSHIN HOSNABAD,90.46397,22.42658,8532,1
BILBILASH NESARIA FAZIL MADRASHA,102039,Madrasha,PATUAKHALI,BAUPHAL,BIL BILAS (PART),90.43564,22.38494,8533,1
UTTAR DASPARA DAKHIL MADRASHA,102087,Madrasha,PATUAKHALI,BAUPHAL,DASPARA (PART),90.55631,22.41464,8534,1
BILBILASH WALIPURA SALEHIA DAKHIL MADRASHA,102064,Madrasha,PATUAKHALI,BAUPHAL,BAUPHAL (PART),90.55578,22.419,8535,1
GOSINGA SALEHIA MAHILA DAKHIL MADRASHA,102071,Madrasha,PATUAKHALI,BAUPHAL,GOSINGA,90.56161,22.45258,8536,1
GOSINGA RASHIDIA DAKHIL MADRASHA,102062,Madrasha,PATUAKHALI,BAUPHAL,GOSINGA,90.54992,22.41986,8537,1
SOUTH JAUTA GIRLS DAKHIL MADRASHA,102100,Madrasha,PATUAKHALI,BAUPHAL,JAUTA,90.56025,22.37708,8538,1
CHAR ALGI RASHIDIA GIRLS DAKHIL MADRASHA,102096,Madrasha,PATUAKHALI,BAUPHAL,CHAR ALGI,90.52669,22.3985,8539,1
CHAR AL GI DKHIL MADRASHA,102045,Madrasha,PATUAKHALI,BAUPHAL,CHAR ALGI,90.51492,22.418,8540,1
KARKHANA DARUL ISLAM ALIM MADRASHA,102048,Madrasha,PATUAKHALI,BAUPHAL,KARKHANA,90.52194,22.375,8541,1
PURBA KACHIPARA D.S.DAKHIL MADRASHA,102059,Madrasha,PATUAKHALI,BAUPHAL,KANCHI PARA,90.44864,22.47583,8542,1
PASCHIM KACHIPARA DAKHIL MADRASHA,102082,Madrasha,PATUAKHALI,BAUPHAL,KANCHI PARA,90.36669,22.49436,8543,1
K.S.b RABEA BASRI DAKHIL MADRASHA,102090,Madrasha,PATUAKHALI,BAUPHAL,BAZE SANDWIP,90.5865,22.39267,8544,1
KALAIYA  RABBANIA  FAZIL MADRASHA,102041,Madrasha,PATUAKHALI,BAUPHAL,KALALYA,90.44956,22.46614,8545,1
KOTPAR salehia DAKHIL MADRASHA,102063,Madrasha,PATUAKHALI,BAUPHAL,KALALYA,90.47683,22.49867,8546,1
KARPURKATI  MANSURIA  DAKHIL  MADRASHA,102060,Madrasha,PATUAKHALI,BAUPHAL,KARPURKATI,90.45083,22.49453,8547,1
CHANDKATI J.N. ISLAMIA DHAKIL MADRASHA,102078,Madrasha,PATUAKHALI,BAUPHAL,CHANDKATI,90.60556,22.33125,8548,1
DHULIA ABDUR RAHMAN SARDER GIRL'S DHAKIL MADRASHA,102083,Madrasha,PATUAKHALI,BAUPHAL,GHURCHAKATI,90.54094,22.54989,8549,1
DHULIA DHAKIL MADRASHA,102088,Madrasha,PATUAKHALI,BAUPHAL,DHULIA,90.46558,22.53711,8550,1
purba CHADKATI D.S. DAKHIL MADRASAH,102089,Madrasha,PATUAKHALI,BAUPHAL,CHANDKATI,90.48122,22.49894,8551,1
PURBO DASPARA NESARIA DAKHIL MADRASHA,102067,Madrasha,PATUAKHALI,BAUPHAL,DASPARA (PART),90.44708,22.48203,8552,1
PURBA KHAZUR BARIA DAKHIL MADRASHA,102097,Madrasha,PATUAKHALI,BAUPHAL,KHAJURBARIA,90.54753,22.54678,8553,1
UTTAR KARPURKATI IDRISIA DAKHIL MADRASHA,102068,Madrasha,PATUAKHALI,BAUPHAL,KARPURKATI,90.56317,22.52914,8554,1
PATILAPARA GIRLS DAKHIL MADRASAH,102065,Madrasha,PATUAKHALI,BAUPHAL,PATILA PARA,90,22.54767,8555,1
WEST KALISURI GIRLS DAKHIL MADRASAH,102074,Madrasha,PATUAKHALI,BAUPHAL,KALISURI,90.58475,22.36061,8556,1
PONAHURA ISLAMIA NESARIA SENIOR MADRASHA,102047,Madrasha,PATUAKHALI,BAUPHAL,PONAHURA,90.51814,22.52278,8557,1
RAJAPUR SALEHIA DAKHIL MADRASHA,102058,Madrasha,PATUAKHALI,BAUPHAL,RAJAPUR,90.58717,22.38786,8558,1
SHINGHRAKATI GIRLS DAKHIL MADRASHA,102075,Madrasha,PATUAKHALI,BAUPHAL,SINGRAKATI,90.52111,22.52508,8559,1
RAZAPUR GIRLS DAKHIL MADRASHA,102085,Madrasha,PATUAKHALI,BAUPHAL,RAJAPUR,90.47842,22.50383,8560,1
SHINGHERAKATI QURAN SUNNAH DAKHIL MADRASHA,102070,Madrasha,PATUAKHALI,BAUPHAL,CHHATRAKANDA,90.50864,22.51594,8561,1
DWIPASHA ISLAMIA DAKHIL MADRASHA,102055,Madrasha,PATUAKHALI,BAUPHAL,DWIPASHA,90.50261,22.52536,8562,1
UTTAR MADANPURA ISLAMIA DAKHIL MADRASHA,102069,Madrasha,PATUAKHALI,BAUPHAL,MEDANPURA,90.49117,22.53147,8563,1
PURBO ADABARIA D.S. ALIM MADRASHA,102079,Madrasha,PATUAKHALI,BAUPHAL,MADHABPUR (PART),90.48225,22.52719,8564,1
ADABARIA FATEMA ZAHURA GIRL'S DAKHIL MADRASHA,102095,Madrasha,PATUAKHALI,BAUPHAL,ADABARIA,90.50636,22.37392,8565,1
EAST NOWMALA SALEHIA DAKHIL MADRASAH,102080,Madrasha,PATUAKHALI,BAUPHAL,NOAMALA,90.45525,22.37797,8566,1
WEST NOWMALA NESARIA ALIM MADRASHA,102052,Madrasha,PATUAKHALI,BAUPHAL,NOAMALA,90.45531,22.34728,8567,1
CHANDPARA DHALI ACIA KHATUN ALIM  MADRASAH,102098,Madrasha,PATUAKHALI,BAUPHAL,CHANDAPARA (PART),90.53489,22.37606,8568,1
GULBAG ALIM MADRASAH,102044,Madrasha,PATUAKHALI,BAUPHAL,GOALIABAGHA,90.55914,22.41819,8569,1
PURBO SANESSWOR SAHAVANO BALIKA DAKHIL MADRASHA,102057,Madrasha,PATUAKHALI,BAUPHAL,SANESHWAR,90.54608,22.48461,8570,1
INDRAKUL AKBARIA ALIM MADRASAH,102077,Madrasha,PATUAKHALI,BAUPHAL,INDRAKUL,90.55772,22.47244,8571,1
PURBA INDRAKUL CHOWMUHANI GIRLS DAKHIL MADRASHA,102103,Madrasha,PATUAKHALI,BAUPHAL,INDRAKUL,90.55219,22.45333,8572,1
INDRAKUL BALIKA DAKHIL MADRASHA,102084,Madrasha,PATUAKHALI,BAUPHAL,INDRAKUL,90.53611,22.49847,8573,1
PURBA INDRAKUL FIROZA KAMAL GIRLS DAKHIL MADRASHA,102104,Madrasha,PATUAKHALI,BAUPHAL,INDRAKUL,90.54031,22.46253,8574,1
NURAINPUR NESARIA FAZIL MADRASHA,102042,Madrasha,PATUAKHALI,BAUPHAL,NARAYANPUR,90.5375,22.49689,8575,1
RAHMAT NAGAR ISLAMIA DAKHIL MADRASHA,102081,Madrasha,PATUAKHALI,BAUPHAL,RAMNAGAR,90.53281,22.47106,8576,1
NURAINPUR BALIKA DAKHIL MADRASHA,102102,Madrasha,PATUAKHALI,BAUPHAL,NARAYANPUR,90.53956,22.47644,8577,1
MAYDHYA NOWMALA SALEHIA DAKHIL MADRASHA,102092,Madrasha,PATUAKHALI,BAUPHAL,NOAMALA,90.53794,22.47128,8578,1
DHANDI fazilMADRASHA,102054,Madrasha,PATUAKHALI,BAUPHAL,DHANDI,90.56189,22.46819,8579,1
RAMNAGAR  TATERKATI  SALEHIA  DAKHIL  MADRASHA,102061,Madrasha,PATUAKHALI,BAUPHAL,RAMNAGAR TATERKATI,90.51633,22.35686,8580,1
NAZIRPUR IBRAHIM SELIM SMRITI WOMENdakhil MADRASA,102099,Madrasha,PATUAKHALI,BAUPHAL,NAZIRPUR TATERKATI (PART),90.57747,22.45761,8581,1
SULTANABAD ISLAMIA DAKHIL MADRASHA,102053,Madrasha,PATUAKHALI,BAUPHAL,SULTANABAD TATERKATI,90.51067,22.37161,8582,1
BARADALIMA DAKHIL MADRASAH,102066,Madrasha,PATUAKHALI,BAUPHAL,BARA DALIMA,90.58119,22.43458,8583,1
CHAY HISSA GIRLS DAKHIL MADRASHA,102073,Madrasha,PATUAKHALI,BAUPHAL,CHHAYHISYA TATERKATI,90.56189,22.41886,8584,1
ISLAMPUR BAITUSSUNNAT DAKHIL MADRASAH,102555,Madrasha,PATUAKHALI,PATUAKHALI SADAR,CHAR MAISHADI,89.92711,22.48986,8586,2
SHOULA  ANSARIA DAKHIL MADRASHA,102590,Madrasha,PATUAKHALI,PATUAKHALI SADAR,SAULA,89.97694,22.50333,8587,2
KAMLAPUR  AFSAR  UDDIN  GIRLS  DAKHIL  MADRASHA,102575,Madrasha,PATUAKHALI,PATUAKHALI SADAR,KAMALAPUR,90.40233,22.31692,8588,1
JAINKATHI A.K.M ISLAMIA DAKHIL MADRASHA,102550,Madrasha,PATUAKHALI,PATUAKHALI SADAR,PURBA JAINKATI,90.34689,22.34719,8589,1
ITBARIA  GILABUNIA  DAKHIL MADRASHA,102565,Madrasha,PATUAKHALI,PATUAKHALI SADAR,GILABANIA,90.29083,22.41475,8590,1
GHOPKHALI HOSSAINIA ALIM MADRASHA,102577,Madrasha,PATUAKHALI,PATUAKHALI SADAR,GHOPKHALI,90.28944,22.38108,8591,1
PUKURJANA D.U.S.A ALIM MADRASHA,102548,Madrasha,PATUAKHALI,PATUAKHALI SADAR,PUKURJANA,90.28347,22.40672,8592,1
JAINKATHI AHAMADIA GIRLS DAKHIL MADRASHA,102570,Madrasha,PATUAKHALI,PATUAKHALI SADAR,CHAR JAINKATI,90.37464,22.34642,8594,1
KESABPR ALAMIN DAKHIL MADRASHA,102585,Madrasha,PATUAKHALI,PATUAKHALI SADAR,KESHABPUR (PART),90.36403,22.32331,8595,1
PATUAKHALI WAIZIA KAMIL MADRASHA,102541,Madrasha,PATUAKHALI,PATUAKHALI SADAR,CHAR PARA,90.34567,22.36158,8596,1
PURBA BADURA ALIM MADRASHA,102551,Madrasha,PATUAKHALI,PATUAKHALI SADAR,UTTAR BADURA,90.34094,22.35944,8597,1
D.BalLOVPUR HOSSINIA ISLAMIA DAKHIL MADRASAH,102581,Madrasha,PATUAKHALI,PATUAKHALI SADAR,BALLABHPUR,90.32028,22.28628,8598,1
TUSKHALI HOSAINIA DAKHIL MADRASHA,102580,Madrasha,PATUAKHALI,PATUAKHALI SADAR,TUSHKHALI,90.34658,22.36047,8600,1
ABDUL HAY GIRLS DAKHIL MADRASAH,102589,Madrasha,PATUAKHALI,PATUAKHALI SADAR,HAJIKHALI,90.24289,22.31067,8602,1
HAZI KHLI MUAMMADIA ALIM MADRASAH,102536,Madrasha,PATUAKHALI,PATUAKHALI SADAR,HAJIKHALI ABAD,90.31389,22.31167,8603,1
BADARPUR  K.M.  GIRLS  DAKHIL MADRASHA,102582,Madrasha,PATUAKHALI,PATUAKHALI SADAR,BADARPUR,90.28739,22.34769,8604,1
WAIZABAD MUSTAFAVIA FAZIL MADRASHA,102538,Madrasha,PATUAKHALI,PATUAKHALI SADAR,TENGRAKHALI,90.33264,22.37292,8605,1
CHHOTA BIGHAI ABIDINA DAKHIL MADRASHA,102564,Madrasha,PATUAKHALI,PATUAKHALI SADAR,CHHOTA BIGHAI,90.31489,22.3845,8606,1
PACHIM MATIVANGA HATAMIA DAKHIL MADRASAH,102574,Madrasha,PATUAKHALI,PATUAKHALI SADAR,MATIBHANGA,90.33986,22.43936,8607,1
KUMAR KHALI AMINIA ALIM MADRASAH,102573,Madrasha,PATUAKHALI,PATUAKHALI SADAR,CHHOTA BIGHAI,90.24372,22.31386,8608,1
MATIVANGA SALMA GIRLS DAKHIL MADRASHA,102583,Madrasha,PATUAKHALI,PATUAKHALI SADAR,CHHOTA BIGHAI,90.30503,22.37558,8609,1
SOUTH CHOTO BIGHAI ISHAKIA DAKHIL MADRASHA,102569,Madrasha,PATUAKHALI,PATUAKHALI SADAR,CHHOTA BIGHAI,90.23072,22.32428,8610,1
TITKATA DARUS  SUNNAT ALIM MADRASHA,102556,Madrasha,PATUAKHALI,PATUAKHALI SADAR,TITKATA,90.21731,22.29292,8611,1
DAKKHIN KEWA BUNIA DAKHIL MADRASHA,102534,Madrasha,PATUAKHALI,PATUAKHALI SADAR,BARA BIGHAI,90.25014,22.26294,8612,1
PURBA JAINKATHI SHALEHIA DAKHIL MADRASAH,102554,Madrasha,PATUAKHALI,PATUAKHALI SADAR,PURBA JAINKATI,90.23611,22.247,8613,1
SHEHAKATI HOSSAINIA DAKHIL MADRASHA,102539,Madrasha,PATUAKHALI,PATUAKHALI SADAR,SEHAKATI,90.23175,22.24667,8614,1
TELIKHALI DARUL ULUM ISLAMIA DAKHIL MADRASAH,102562,Madrasha,PATUAKHALI,PATUAKHALI SADAR,TELIKHALI,90.41683,22.30039,8616,1
DAKKIN SAMAPUR AL-FATIMA GIRLS DAKHIL MADRASAH,102576,Madrasha,PATUAKHALI,PATUAKHALI SADAR,KALIKAPUR,90.41364,22.26553,8617,1
JAMURA  AL  AMIN  DAKHIL  MADRASHA,102563,Madrasha,PATUAKHALI,PATUAKHALI SADAR,JAMURA,90.36036,22.43369,8618,1
KALIKAPUR SALEHIA DAKHIL MADRASAH,102543,Madrasha,PATUAKHALI,PATUAKHALI SADAR,PASCHIM TOWN KALIKAPUR,90.33922,22.39286,8619,1
UTTAR MOUKARAN DAKHIL MADRASAH,102567,Madrasha,PATUAKHALI,PATUAKHALI SADAR,MAUKARAN,90.37594,22.42483,8620,1
WEST BHAIAL ALHAJJ A.M.D.S. DAKHIL MADRASH A,102559,Madrasha,PATUAKHALI,PATUAKHALI SADAR,BHAYLA,90.34528,22.43783,8621,1
CHODDO BURIA ADARSHA BALIKA DAKHIL MADRASAH,102587,Madrasha,PATUAKHALI,PATUAKHALI SADAR,UTTAR CHAUDDABURIA,90.34703,22.43531,8622,1
PURBO BHALLA ISLAMIA DAKHIL MADRASHA,102588,Madrasha,PATUAKHALI,PATUAKHALI SADAR,BHAYLA,90.34494,22.42894,8623,1
CHOWDHYA BURIA MASUMIA ALIM MADRASHA,102546,Madrasha,PATUAKHALI,PATUAKHALI SADAR,UTTAR CHAUDDABURIA,90.34597,22.43633,8624,1
MEDYO KURI P.A.DAKHIL MADRASAH,102557,Madrasha,PATUAKHALI,PATUAKHALI SADAR,KURIPAIKA,90.40117,22.37231,8625,1
IDRAKPUR AMENIA DAKHIL MADRASHA,102579,Madrasha,PATUAKHALI,PATUAKHALI SADAR,IDRAKPUR,90.45211,22.32208,8626,1
KURIPAIKA PAZAKHALI ABTAB UDDIN MOLLA DAKHIL MADRASAH,102578,Madrasha,PATUAKHALI,PATUAKHALI SADAR,KURIPAIKA,90.42433,22.37456,8627,1
LOHALIA ISLAMIA FAZIL MADRASHA,102553,Madrasha,PATUAKHALI,PATUAKHALI SADAR,LOHALIA,90.44869,22.32989,8628,1
LOHALIA NAZIRPUR AL -HERA DAKHIL MADRASHA,102537,Madrasha,PATUAKHALI,PATUAKHALI SADAR,LOHALIA,90.37556,22.37097,8629,1
LOHALIA K.M.H.GIRLS DAKHIL MADRASHA,102571,Madrasha,PATUAKHALI,PATUAKHALI SADAR,LOHALIA,90.42064,22.39053,8630,1
NAZIRPUR AL AMIN DAKHIL MADRASHA,102586,Madrasha,PATUAKHALI,PATUAKHALI SADAR,LOHALIA,90.35658,22.35336,8631,1
BAZAR GHONA AMENIA FAZIL MADRASHA,102549,Madrasha,PATUAKHALI,PATUAKHALI SADAR,BAZARGHONA,90.34739,22.37089,8632,1
MARICHBUNIA ISLAMIA NASARIA ALIM MADRASAH,102552,Madrasha,PATUAKHALI,PATUAKHALI SADAR,MARICHBUNIA,90.34389,22.36183,8633,1
MARICH BUNIA SALAHIA DAKHIL MADRASHA,102547,Madrasha,PATUAKHALI,PATUAKHALI SADAR,MARICHBUNIA,90.27164,22.27283,8634,1
EAST MARICHABUNIA DARUS SUNNAT DAKHIL MADRASHA,102561,Madrasha,PATUAKHALI,PATUAKHALI SADAR,MARICHBUNIA,90.28872,22.24264,8635,1
TOWN KALIKAPUR GIRLS DAKHIL MADRASHA,102544,Madrasha,PATUAKHALI,PATUAKHALI SADAR,PASCHIM TOWN KALIKAPUR,90.30714,22.25031,8636,1
PATUAKHALI NESARIA FAZIL MADRASAH,102542,Madrasha,PATUAKHALI,PATUAKHALI SADAR,THANA PARA,90.27242,22.27825,8637,1
BETAGI ShIKDARIA HIGH SCHOOL,102129,School,PATUAKHALI,DASHMINA,BETAGI,90.18694,22.50561,21934,1
BANGLABAZAR SECONDARY GIRLS SCHOOL,102133,School,PATUAKHALI,DASHMINA,DAKSHIN DASPARA,90.53386,22.32008,21937,1
RONGOPALDI HIGH SCHOOL,102126,School,PATUAKHALI,DASHMINA,UTTAR RANGOPALDI,90.57403,22.30497,21939,1
MADHYA HARIDEBPUR  SECONDARY SCHOOL,102248,School,PATUAKHALI,GALACHIPA,HARIDEBPUR,90.52411,22.20925,21940,1
DASHMINA model secondary school,102117,School,PATUAKHALI,DASHMINA,DASHMINA,90.56244,22.27683,21941,1
S A SECONDARY SCHOOL AROJBEGI,102118,School,PATUAKHALI,DASHMINA,ARAJBEGI,90.50331,22.21542,21942,1
EAST ALIPUR JUNIOR HIGH SCHOOL,102138,School,PATUAKHALI,DASHMINA,PURBA ALIPUR,90.52406,22.31111,21944,1
CHANDPURA A B C HIGH SCHOOL,102121,School,PATUAKHALI,DASHMINA,CHANDPUR,90.56058,22.28364,21945,1
KHARIZA BETAGI SECONDARY SCHOOL,102120,School,PATUAKHALI,DASHMINA,KHARIJA BETAGI,90.54808,22.24447,21947,1
WEST BARA GOPALDI J/R GIRLS HIGH SCHOOL,102134,School,PATUAKHALI,DASHMINA,GOPALDI,90.50825,22.26186,21948,1
SHANKIPUR secondary SCHOOL,102132,School,PATUAKHALI,DASHMINA,BETAGI SANKIPURA,90.52192,22.25217,21949,1
DHAKIN ADAMPUR HIGH SCHOOL,102116,School,PATUAKHALI,DASHMINA,DAKSHIN ADAMPUR,90.48625,22.25811,21950,1
NEHAL GONG SECONDARY SCHOOL,102124,School,PATUAKHALI,DASHMINA,DAKSHIN ADAMPUR,90.65972,22.33444,21951,1
UTTER ADAMPUR JUNIOR GIRLS SCHOOL,102131,School,PATUAKHALI,DASHMINA,UTTAR ADAMPUR,90.5125,22.31267,21952,1
BAHARAMPUR  UNION  HIGH SCHOOL,102125,School,PATUAKHALI,DASHMINA,BAGURA,90.56803,22.32022,21953,1
BIBI AYESHA JUNIOR HIGH SCHOOL,102137,School,PATUAKHALI,DASHMINA,BETAGI SANKIPURA,90.55114,22.30292,21958,1
MOKIMJAN ADARSA JONO'R GIRL'S SCHOOL,102179,School,PATUAKHALI,DUMKI UPAZILA,ANGARIA,90.50719,22.34525,21959,1
JALISHA HIGH SCHOOL,102175,School,PATUAKHALI,DUMKI UPAZILA,JALISHA,90.49764,22.28061,21960,1
SABERA AZIZ GIRLS HIGH SCHOOL,102184,School,PATUAKHALI,DUMKI UPAZILA,UTTAR MURADIA,90.39881,22.47156,21961,1
LEBUKHALI HABIBULLAH SECONDARY SCHOOL,102166,School,PATUAKHALI,DUMKI UPAZILA,LEBUKHALI,90.33883,22.44133,21962,1
LATIF MOHSENA PUBLIC HIGH SCHOOL,102185,School,PATUAKHALI,DUMKI UPAZILA,SREERAMPUR,90.35714,22.45003,21963,1
UTTAR SREERAMPUR SECONDRY SCHOOL,102180,School,PATUAKHALI,DUMKI UPAZILA,SREERAMPUR,90.37936,22.47469,21964,1
SRIJANEE BIDYANIKETAN,102187,School,PATUAKHALI,DUMKI UPAZILA,JALISHA,90.40386,22.44567,21965,1
CHAR BOYRA HIGH SCHOOL,102167,School,PATUAKHALI,DUMKI UPAZILA,RAJAKHALI,90.38306,22.43125,21967,1
DUMKI NASIMA KERAMAT ALI GIRLS HIGH SCHOOL,102178,School,PATUAKHALI,DUMKI UPAZILA,DUMKI,90.38944,22.45581,21968,1
PANGASIA NOLDOANI HIGH SCHOOL,102169,School,PATUAKHALI,DUMKI UPAZILA,UTTAR PANGASHIA,90.38289,22.46969,21969,1
PANGASIA SECONDARY GIRLS SCHOOL,102182,School,PATUAKHALI,DUMKI UPAZILA,UTTAR PANGASHIA,90.31531,22.45464,21970,1
MomoTAZ UDDIN HIGH SCHOOL,102171,School,PATUAKHALI,DUMKI UPAZILA,UTTAR PANGASHIA,90.32289,22.42528,21971,1
ANGARIA UNION GIRLS HIGH SCHOOL,102177,School,PATUAKHALI,DUMKI UPAZILA,ANGARIA,90.31392,22.42642,21972,1
JALISHA  SECODARY  GIRLS HIGH SCHOOL,102183,School,PATUAKHALI,DUMKI UPAZILA,JALISHA,90.31742,22.44239,21973,1
BASHBUNIA BEGUM MEHERUNNESA GIRLS HIGH SCHOOL,102188,School,PATUAKHALI,DUMKI UPAZILA,BANSHBUNIA,90.32483,22.44553,21974,1
A. B. N JUNIOR SECONDARY,102186,School,PATUAKHALI,DUMKI UPAZILA,NALDOANI,90.38517,22.43147,21976,1
SATANI AMIR UDDIN SHRITY HIGH SCHOOL,102176,School,PATUAKHALI,DUMKI UPAZILA,DUMKI SATANI,90.36439,22.48208,21977,1
ANGARIA MADHYAMIK BIDDALAY,102173,School,PATUAKHALI,DUMKI UPAZILA,ANGARIA,90.39886,22.47261,21978,1
HAJI ABDUS SOBHAN SIKDER MODEL ACADEMY,131352,School,PATUAKHALI,KALA PARA,BADURTALI,90.31522,22.45528,21979,1
MAIDDAH TAIKHALI A.K.H.M SECONDARY SCHOOL,102359,School,PATUAKHALI,KALA PARA,ITBARIA,90.36064,22.46783,21980,1
TIAKHALI K.I.ISLAM JUNIOR SECONDARY SCHOOL,102369,School,PATUAKHALI,KALA PARA,TIAKHALI,90.23978,21.99483,21981,1
KHEPUPARA GIRLS SECONDARY SCHOOL,102339,School,PATUAKHALI,KALA PARA,ETIMKHANA,90.23358,21.97858,21982,1
DALBUGONJ HIGH SCHOOL,102356,School,PATUAKHALI,KALA PARA,DALBUGANJ,90.23128,21.98344,21983,1
MOHIPUR CO OPaReTIVE HIGH SCHOOL,102344,School,PATUAKHALI,KALA PARA,SHIBBARIA,90.22706,21.95703,21984,1
DHULASAR SECONDARY SCHOOL,102341,School,PATUAKHALI,KALA PARA,DHULASAR,90.17506,21.89283,21985,1
LALUA JANATA SECONDARY SCHOOL,102358,School,PATUAKHALI,KALA PARA,BANATI PARA,90.23697,21.85842,21986,1
KUAKATA BANGOBANDHU HIGH SCHOOL,102363,School,PATUAKHALI,KALA PARA,LATA CHAPLI,90.23681,21.85769,21987,1
ALL HAJ ABU HANIF KHAN  JUNIOR HIGH SCHOOL,102368,School,PATUAKHALI,KALA PARA,LATA CHAPLI,90.28489,21.95186,21988,1
MUSULLIABAD A.K.HIGH SCHOOL,102353,School,PATUAKHALI,KALA PARA,LATA CHAPLI,90.2785,21.94614,21989,1
LONDA HAFIZ UDDIN SECONDARY SCHOOL,102351,School,PATUAKHALI,KALA PARA,LONDA,90.14389,21.82975,21991,1
UTTOR LALUA U. C. SECONDARY HIGH SCHOOL,102352,School,PATUAKHALI,KALA PARA,GOLBUNIA,90.114,21.81839,21992,1
PANCH JuNIA DHANKHALI SECONDARY SCHOOl,102354,School,PATUAKHALI,KALA PARA,PANCH JAINA,90.15111,21.81728,21994,1
SHISHU PALLI ACADAMY,102364,School,PATUAKHALI,KALA PARA,CHHOTA BALIATALI,90.34289,22.09889,21996,2
PURBO MODHUKHALI SECONDARY SCHOOL,102348,School,PATUAKHALI,KALA PARA,MADHUKHALI,90.30136,22.03553,21997,1
TEGACHIA HIGH SCHOOL,102343,School,PATUAKHALI,KALA PARA,LALUA,90.30203,22.06897,21998,2
LALUA S.K.J.B SECONDARY SCHOOL,102345,School,PATUAKHALI,KALA PARA,CHANDU PARA,90.23469,21.87272,22001,1
DHANKHALI GAZI A MANNAN AND HAFIZA JR. SECONDARY SCHOOL,131383,School,PATUAKHALI,KALA PARA,LONDA,90.14925,21.94394,22002,2
HAZIPUR SECONDARY SCHOOL,102342,School,PATUAKHALI,KALA PARA,HAJIPUR,90.28433,22.04186,22003,2
MENHAZPUR HAKKANI JUNOIR HIGH SCHOOL,102366,School,PATUAKHALI,KALA PARA,UMEDPUR,90.29886,22.01686,22004,2
DHANKHALI M.U.SECONDARY SCHOOL,102340,School,PATUAKHALI,KALA PARA,CHALITABUNIA,90.14569,21.94094,22005,2
DHANKHALI S.H.ASHRAF ACADEMY,102346,School,PATUAKHALI,KALA PARA,PANCH JAINA,90.34367,22.10861,22006,2
PATUA AL AMIN HIGH SCHOOL,102347,School,PATUAKHALI,KALA PARA,MACHUA KHALI,90.31983,22.06331,22007,2
HARIDEBPUR SECONDARY SCHOOL,102226,School,PATUAKHALI,GALACHIPA,KISMAT HARIDEVPUR,90.30136,22.03536,22010,1
GOLKHALI HIGH SCHOOL,102249,School,PATUAKHALI,GALACHIPA,GOLKHALI,90.38633,22.14817,22011,1
NALUABAGI SECONDARY SCHOOL,102231,School,PATUAKHALI,GALACHIPA,NALUABAGI,90.37581,22.13061,22012,1
AMKHOLA HAT HIGH SCHOOL,102230,School,PATUAKHALI,GALACHIPA,BHANGRA,90.36239,22.13222,22013,1
CHAR CHANDRAIL AMZAD HOSSEN HIGH SCHOOL,102245,School,PATUAKHALI,GALACHIPA,CHAR CHANDRAILER,90.38639,22.17792,22014,1
CHAR AMKHOLA JR GIRL'S HIGH SCHOLL,102268,School,PATUAKHALI,GALACHIPA,CHAR AMKHOLA,90.35478,22.17383,22015,1
BADURA HAT HIGH SCHOOL,102234,School,PATUAKHALI,GALACHIPA,CHHAILABUNIA,90.39575,22.18953,22016,1
DHAKkIN BAURIA high SCHOOL,102261,School,PATUAKHALI,GALACHIPA,BAURIA KISMAT,90.43086,22.16494,22017,2
WEST TAFAL BARIA HIGH SCHOOL,102233,School,PATUAKHALI,GALACHIPA,ALGI TAFALBARIA,90.40747,22.22117,22018,1
UTTAR AMKHOLA HIGH SCHOOL,102246,School,PATUAKHALI,GALACHIPA,AMKHOLA,90.37131,22.19897,22019,1
RATANDI TALTALI HIGH SCHOOL,102250,School,PATUAKHALI,GALACHIPA,RATANDI TALTALI,90.37253,22.22103,22020,1
PARDAKUA SECONDARY SCHOOL,102257,School,PATUAKHALI,GALACHIPA,PARDAKUA,90.39492,22.24119,22021,1
GOLACHIPA HIGH SCHOOL,102220,School,PATUAKHALI,GALACHIPA,SADAR ROAD (RATANDI),90.61083,22.19275,22022,1
UDAYAN SECONDARY SCHOOL,102258,School,PATUAKHALI,GALACHIPA,RATANDI,90.43783,22.15947,22023,1
UTTAR  CHARKHALI  HIGH  SCHOOL,102240,School,PATUAKHALI,GALACHIPA,DAKSHIN CHARKHALI,90.42514,22.14086,22024,1
B.P.C SECONDARY SCHOOL,102251,School,PATUAKHALI,GALACHIPA,BOALIA,90.42414,22.16767,22025,1
GALAHCIPA GIRLS SECONDARY SCHOOL,102223,School,PATUAKHALI,GALACHIPA,RATANDI,90.408,22.14428,22026,1
GABBUNIA JUNIOR GIRL'S HIGH SCHOOL,102267,School,PATUAKHALI,RANGABALI,GABBUNIA,90.43086,22.16494,22027,2
PATABUNIA HIGH  SCHOOL,102237,School,PATUAKHALI,GALACHIPA,PATABUNIA,90.42022,22.21256,22028,1
CHAR GONGA IDEAL JUNIOR SCHOOL,102218,School,PATUAKHALI,RANGABALI,CHAR GANGA,90.43131,22.23119,22029,1
GUABARIA AB GIRLS HIGH SCHOOL,102264,School,PATUAKHALI,GALACHIPA,GUABARIA,90.48486,22.3005,22030,1
CHHONKHOLA PATABUNIA (S. P) JR. HIGH SCHOOL,102269,School,PATUAKHALI,GALACHIPA,PATABUNIA,90.47358,22.32669,22031,1
LAMNA JUNIOR HIGH SCHOOL,102260,School,PATUAKHALI,GALACHIPA,LAMNA,90.37617,22.89731,22032,1
CHAR MONTAZ A. SATTAR HIGH SCHOOL,102256,School,PATUAKHALI,RANGABALI,CHAR MOMTAJ,90.47392,22.33217,22034,1
CHAR AGASTI HIGH SCHOOL,102221,School,PATUAKHALI,GALACHIPA,CHAR AGASTI,90.50836,22.01939,22035,1
CHAR BISWAS JANATA HIGH SCHOOL,102241,School,PATUAKHALI,GALACHIPA,UTTAR CHAR BISWAS,90.50472,22.00086,22036,1
CHARKAZAL SECONDARY SCHOOL,102229,School,PATUAKHALI,GALACHIPA,BARA CHAR KAJAL,90.54703,22.06033,22037,1
CHAR KAPAL BERA ADARSHA SECONDARY SCHOOL,102259,School,PATUAKHALI,GALACHIPA,CHAR KAPALBERA,90.52394,22.90153,22038,1
TUNGIBARIA SECONDARY SCHOOL,102263,School,PATUAKHALI,RANGABALI,TUNGIBARIA,90.50186,22.07592,22040,1
MOUDUBI HIGH SCHOOL,102227,School,PATUAKHALI,RANGABALI,MUKHARBANDA,90.5095,22.06131,22041,1
RANGABALI SALEHA HIGH SCHOOL,102255,School,PATUAKHALI,RANGABALI,JOGIR HAOLA,90.36947,22.98214,22043,1
KACHIA BUNIA HIGH SCHOOL,102232,School,PATUAKHALI,RANGABALI,RANGABALI,90.525,22.94714,22044,1
KALAGACHIA HIGH SCHOOL,102243,School,PATUAKHALI,GALACHIPA,KALAGACHHIA,90.42803,22.16611,22045,2
KALYAN KALASH SECONDARY SCHOOL,102265,School,PATUAKHALI,GALACHIPA,KALYANKALAS,90.44689,22.93772,22046,1
KALYN KALAS BEGUM ROKAEYA GIRLS HIGH SCHOOL,102254,School,PATUAKHALI,GALACHIPA,KALYANKALAS,90.453,22.96044,22047,1
CHHOTO BAISHDIA FAZLUL KARIM HIGH SCHOOL,102236,School,PATUAKHALI,RANGABALI,NAYA BHANGUNI,90.44989,22.93686,22048,1
ATKHALI SECONDARY SCHOOL,102253,School,PATUAKHALI,GALACHIPA,ATKHALI,90.42483,22.27022,22049,1
DAKUA SECONDARY  SCHOOL,102239,School,PATUAKHALI,GALACHIPA,ATKHALI,90.43681,22.01308,22050,1
KOTKHALI JR. GIRL'S HIGH SCHOOL,102266,School,PATUAKHALI,GALACHIPA,KOTKHALI,90.43356,21.97639,22051,1
PANKHALI PANZATIA HIGH SCHOOL,102244,School,PATUAKHALI,GALACHIPA,PANKHALI,90.43897,22.19967,22052,1
GALACHIPA IDEAL SECONDARY SCHOOL,102274,School,PATUAKHALI,GALACHIPA,COLLEGE PARA (RATANDI),90.45508,22.17256,22053,1
RANGABALI HIGH SCHOOL,102224,School,PATUAKHALI,RANGABALI,BHAR CHAR,90.46361,22.25519,22054,1
SAMABAYA SECONDARY SCHOOL,102421,School,PATUAKHALI,MIRZAGANJ UPAZILA,BASUR CHARKHALI,90.43883,22.11925,22055,1
KISMAT CHHAILABUNIA SECONDARY SCHOOL,102413,School,PATUAKHALI,MIRZAGANJ UPAZILA,UTTAR SUBIDKHALI,90.21992,22.37061,22056,1
BAZITA HIGH SCHOOL,102417,School,PATUAKHALI,MIRZAGANJ UPAZILA,BAJITA 2ND PART,90.24047,22.39192,22057,1
MD ABU YUSUF ALI MOLLA SECONDARY GIRLS SCHOOL CHAITA,102437,School,PATUAKHALI,MIRZAGANJ UPAZILA,CHAITA,90.21569,22.37081,22058,1
CHOYTA SECONDARY SCHOOL,102406,School,PATUAKHALI,MIRZAGANJ UPAZILA,CHAITA,90.18772,22.38481,22059,1
KATHALTALI SECONDARY SCHOOL,102407,School,PATUAKHALI,MIRZAGANJ UPAZILA,MADHABKHALI,90.21089,22.37961,22060,1
KISMAT SREENAGAR ADARSHA HIGH SCHOOL,102427,School,PATUAKHALI,MIRZAGANJ UPAZILA,KISMAT SREENAGAR,90.22081,22.40794,22061,1
RAMPUR HIGH SCHOOL,102416,School,PATUAKHALI,MIRZAGANJ UPAZILA,RAMPUR,90.27828,22.46494,22064,1
SULTANABAD HIGH SCHOOL,102422,School,PATUAKHALI,MIRZAGANJ UPAZILA,KHATASAIA,90.27689,22.45208,22065,1
KUDBERCHZR ADARSAH GIRLS HIGH SCHOOL,102436,School,PATUAKHALI,MIRZAGANJ UPAZILA,KOTBAR CHAR,90.25683,22.45725,22066,1
JHATIBUNIA JR. GIRLS HIGH SCHOOL,102431,School,PATUAKHALI,MIRZAGANJ UPAZILA,UTTAR JHATIBUNIA,90.29675,22.45864,22067,1
MOSJID BARIA HIGH SCHOOL,102429,School,PATUAKHALI,MIRZAGANJ UPAZILA,MAZIDBARIA,90.27233,22.46942,22068,1
BARO GOPALDI ML HIGH SCHOOL,102122,School,PATUAKHALI,DASHMINA,GOPALDI,90.29906,22.47556,22069,1
BHAYONG SHARAFATIA HIGH SCHOOL,102425,School,PATUAKHALI,MIRZAGANJ UPAZILA,BHAYANG,90.19931,22.22761,22070,1
BHIKAKHALI UNITED HIGH SCHOOL,102415,School,PATUAKHALI,MIRZAGANJ UPAZILA,BHIKAKHALI,90.20469,22.27114,22071,1
ISMAIL MEMORIAL HIGH SCHOOL,102423,School,PATUAKHALI,MIRZAGANJ UPAZILA,GAZIPURA,90.17867,22.26897,22072,1
PASCHIM KAKRABUNIA SECONDARY GIRLS SCHOOL,102433,School,PATUAKHALI,MIRZAGANJ UPAZILA,KAKRABUNIA,90.1875,22.24922,22073,1
KAKRABUNIA ADARSHA HIGH SCHOOL,102420,School,PATUAKHALI,MIRZAGANJ UPAZILA,KAKRABUNIA,90.27583,22.42336,22074,1
KISMATPUR GIRLS HIGH SCHOOL,102435,School,PATUAKHALI,MIRZAGANJ UPAZILA,KISMAT KHATASIA,90.15117,22.30194,22075,1
GHATAKER ANDUA HAZI ASHRAF ALI HIGH SCHOOL,102430,School,PATUAKHALI,MIRZAGANJ UPAZILA,GHATAKER ANDUA,90.17089,22.28497,22076,1
KALIKAPUR SALEHA KHATUN GIRLS HIGH SCHOOL,102424,School,PATUAKHALI,MIRZAGANJ UPAZILA,KALIKAPUR,90.16319,22.29733,22077,1
SUNDRA KALIKAPUR SECONDARY SCHOOL,102414,School,PATUAKHALI,MIRZAGANJ UPAZILA,KALAGACHHIA,90.18644,22.30656,22078,1
MIRZA GONJ UNION DARGHA SHARIF HIGH SCHOOL,102419,School,PATUAKHALI,MIRZAGANJ UPAZILA,MIRZAGANJ,90.19667,22.30081,22079,1
BAZEMAHAL HIGH SCHOOL,102002,School,PATUAKHALI,BAUPHAL,BAZEMAHAL,90.25853,22.39192,22082,1
KESHABPUR N.S. HIGH SCHOOL,101994,School,PATUAKHALI,BAUPHAL,KESHABPUR,90.57339,22.41244,22083,2
BHARIPASHA HIGH SCHOOL,101977,School,PATUAKHALI,BAUPHAL,BHARIPASHA,90.58758,22.41292,22084,2
KESHABPUR JUNIOR GIRLS  SCHOOL,102023,School,PATUAKHALI,BAUPHAL,KESHABPUR,90.58275,22.43536,22085,2
KESHABPUR SECONDARY SCHOOL,101999,School,PATUAKHALI,BAUPHAL,KESHABPUR,90.57961,22.45022,22086,2
AYLA SECONDARY SCHOOL,102014,School,PATUAKHALI,BAUPHAL,AYLA,90.44444,22.38061,22087,1
 BIRPASHA SECONDARY SCHOOL,101983,School,PATUAKHALI,BAUPHAL,BIHPASHA,90.46425,22.5045,22088,1
KANAKDIA GIRLS SECONDARY SCHOOL,102012,School,PATUAKHALI,BAUPHAL,KANAKDIA,90.45458,22.37689,22089,1
SHABUPURA ADARSHA SECONDARY SCHOOL,102017,School,PATUAKHALI,BAUPHAL,SABUPUR,90.51178,22.46011,22090,1
BAMNIkaTI K.C.K. secondary   SCHOOL,102027,School,PATUAKHALI,BAUPHAL,BAMNIKATI,90.48631,22.47908,22091,1
BOGA UNION JUNIOR GIRLS SCHOOL,102036,School,PATUAKHALI,BAUPHAL,RAJNAGAR,90.493,22.4005,22092,1
BOGA UNION secondary  SCHOOL,101987,School,PATUAKHALI,BAUPHAL,BAGA,90.4655,22.42619,22093,1
DAKHIN HOWKHALI  JU HIGH SCHOOL,102033,School,PATUAKHALI,BAUPHAL,KAUKHALI,90.44736,22.41017,22094,1
BILBILASH HIGH SCHOOL,102000,School,PATUAKHALI,BAUPHAL,BIL BILAS (PART),90.45939,22.42786,22095,1
ABDUR RASHID SARDER HIGH SCHOOL,102008,School,PATUAKHALI,BAUPHAL,BIL BILAS (PART),90.46547,22.42689,22096,1
BAUPHAL ADARSHA GIRLS HIGH SCOOL,101981,School,PATUAKHALI,BAUPHAL,BAUPHAL (PART),90.52578,22.41478,22097,1
BAUPHAL  model SECONDARY SCHOOL,101982,School,PATUAKHALI,BAUPHAL,BAUPHAL (PART),90.52967,22.42628,22098,2
MODONPURA HIGH SCHOOL,101996,School,PATUAKHALI,BAUPHAL,CHANDAPARA (PART),90.53031,22.42639,22099,1
DASPARA UNION HIGH SCHOOL,101980,School,PATUAKHALI,BAUPHAL,DASPARA (PART),90.52967,22.42628,22100,2
CHAR ALGI HIGH SCHOOL,102021,School,PATUAKHALI,BAUPHAL,CHAR ALGI,90.56728,22.40742,22101,1
DASPARA KML HIGH SCHOOL,102018,School,PATUAKHALI,BAUPHAL,KHAJURBARIA,90.52372,22.42447,22102,1
A .S. M FEROZE  HIGH SCHOOL,102030,School,PATUAKHALI,BAUPHAL,DHULIA,90.55675,22.35042,22103,1
KALAIYA HIGH SCHOOL,101991,School,PATUAKHALI,BAUPHAL,KALALYA,90.56117,22.38572,22104,1
KARKHANA SUFIA KHATUN GIRLS HIGH SCHOOL,102024,School,PATUAKHALI,BAUPHAL,KARKHANA,90.56217,22.36039,22105,1
PAKDAL JUNIOR SCHOOL,102031,School,PATUAKHALI,BAUPHAL,PAKDAL,90.62864,22.40611,22106,1
KALAIYA HAYATUNNESA GIRLS HIGH SCHOOL,101988,School,PATUAKHALI,BAUPHAL,KALALYA,90.45006,22.51106,22107,1
KARPUR KATI A, K , NIGHT JUNIOR SCHOOL,102022,School,PATUAKHALI,BAUPHAL,KARPURKATI,90.60719,22.33064,22108,1
SHOULA KAPURKATI DURGACHaRAN HIGH SCHOOL,102010,School,PATUAKHALI,BAUPHAL,KARPURKATI,90.58569,22.39386,22109,1
KARPURKATI ISLAMIA HIGH SCHOOL,102011,School,PATUAKHALI,BAUPHAL,KARPURKATI,90.60025,22.39064,22110,1
KACHIPARA SECONDARY  SCHOOL,101985,School,PATUAKHALI,BAUPHAL,KANCHI PARA,90.58092,22.39769,22111,1
ANARKALI SECONDARY SCHOOL,102032,School,PATUAKHALI,BAUPHAL,ANARASIA,90,22.33111,22112,1
KARKHANA HIGH SCHOOL,101993,School,PATUAKHALI,BAUPHAL,KARKHANA,90.60356,22.34311,22113,1
CHANDKATI SECONDAY SCHOOL,102006,School,PATUAKHALI,BAUPHAL,CHANDKATI,90.53856,22.53439,22114,1
MATHBARIA A. G. T. JUNIOR HIGH SCHOOL,102005,School,PATUAKHALI,BAUPHAL,MATHBARIA,90.54361,22.55767,22115,1
HAZERA TALUKDER SECONDARY GIRLS SCHOOL,102029,School,PATUAKHALI,BAUPHAL,KALISURI,90.57439,22.39908,22116,1
KALISURI S.A. INSTITUTION,101979,School,PATUAKHALI,BAUPHAL,KALISURI,90.57769,22.38125,22117,1
NOWMALA HIGH SCHOOL,102001,School,PATUAKHALI,BAUPHAL,BATKAJAL,90.50167,22.48642,22118,1
MDDHABPUR NISHI KANTA HIGH SCHOOL,101992,School,PATUAKHALI,BAUPHAL,MADHABPUR (PART),90.50889,22.47978,22119,1
ATOSHKHALI MAHASRADDI  SECONDARY HIGH SCHOOL,102016,School,PATUAKHALI,BAUPHAL,MAHASRADHI,90.50369,22.43575,22120,1
BAZLUr RAHMAN FOUnDATION GIRLS SEMINARy,101976,School,PATUAKHALI,BAUPHAL,NOAMALA,90.53847,22.45203,22121,1
 V.D.C.SECONDARY SCHOOL,102020,School,PATUAKHALI,BAUPHAL,NOAMALA,90.46972,22.36492,22122,1
MADHYA MADONPURA HIGH SCHOOL,102009,School,PATUAKHALI,BAUPHAL,RAM LAKSHMAN HAWLA,90.52425,22.37258,22123,1
SONAMADDIN MRIDHA SECONDARY SCHOOL,102015,School,PATUAKHALI,BAUPHAL,MAJPARA,90.54133,22.36475,22124,1
INDRAKUL secondary SCHOOL,101990,School,PATUAKHALI,BAUPHAL,INDRAKUL,90.54117,22.50694,22125,1
GAZI MAJHI HIGH SCHOOL,101998,School,PATUAKHALI,BAUPHAL,GAZIMAJHI,90.53167,22.44761,22126,1
AGRANI  BIDyAPITH nurainpur,102013,School,PATUAKHALI,BAUPHAL,NARAYANPUR,90.51056,22.43461,22127,1
SURJAMONI NEW MODEAL HIGH SCHOOL,101995,School,PATUAKHALI,BAUPHAL,SURJYAMANI,90.54992,22.43303,22128,1
RAMNAGAR SAFURA KHTUN SECONDARY  SCHOOL,102003,School,PATUAKHALI,BAUPHAL,RAMNAGAR,90.52094,22.48528,22129,1
TATERKATI  SECONDARY HIGH SCHOOL,102025,School,PATUAKHALI,BAUPHAL,BAKLA TATERKATI,90.55997,22.47019,22130,1
NAZIRPUR CHOTO DALIMA HIGH SCHOOL,101984,School,PATUAKHALI,BAUPHAL,NAZIRPUR TATERKATI (PART),90.56031,22.46939,22131,1
CHOTO DALIMA ABDUS SALAM MRIDHA  SECONDARY GIRLS SCHOOL,102034,School,PATUAKHALI,BAUPHAL,CHHOTA DALIMA,90.57228,22.42422,22132,1
DHANIDI ADARSHA HIGH SCHOOL,102007,School,PATUAKHALI,BAUPHAL,DHANDI,90.56822,22.45383,22133,1
FAZLUL KARIM MOLLA  HIGH SCHOOL,102529,School,PATUAKHALI,PATUAKHALI SADAR,BHAYLA,89.89008,22.49881,22134,1
DONAVAN HIGH SCHOOL,102491,School,PATUAKHALI,PATUAKHALI SADAR,TOWN ZAINKATI,89.91392,22.41436,22135,1
ITBRIA U.C.K HIGH SCHOOL,102492,School,PATUAKHALI,PATUAKHALI SADAR,PUKURJANA,90.40242,22.31692,22136,1
GHOPKHALI LALMIA  HIGH SCHOOL,102509,School,PATUAKHALI,PATUAKHALI SADAR,GHOPKHALI,90.40167,22.36025,22137,1
ABDUL AZIZ MOLLA  HIGH SCHOOL,102517,School,PATUAKHALI,PATUAKHALI SADAR,PUKURJANA,90.43617,22.33914,22138,1
ITBARIA SHARIKKHALI  HIGH SCHOOL,102533,School,PATUAKHALI,PATUAKHALI SADAR,ITABARIA,90.41478,22.31511,22139,1
ANNADA SUKUL GIRL'S JR. SCHOOL,102516,School,PATUAKHALI,PATUAKHALI SADAR,PURBA JAINKATI,90.29694,22.40633,22140,1
SHEKKHATI  HIGH SCHOOL,102481,School,PATUAKHALI,PATUAKHALI SADAR,SEHAKATI,90.29775,22.35978,22141,1
LATIF MUNICIPAL SEMINARY,102480,School,PATUAKHALI,PATUAKHALI SADAR,GOVT. UNIVERSITY COLLEGE,90.37386,22.30414,22144,1
AULIAPUR SABINA AKTER HIGH SCHOOL,102518,School,PATUAKHALI,PATUAKHALI SADAR,PACHA KORALIA,90.35458,22.306,22145,1
UTTAR BADURA HIGH SCHOOL,102487,School,PATUAKHALI,PATUAKHALI SADAR,UTTAR BADURA,90.34411,22.35831,22146,1
SOUTH BADURA HIGH SCHOOL,102497,School,PATUAKHALI,PATUAKHALI SADAR,BARA AULIAPUR,90.35658,22.34425,22147,1
AULIAPUR ADARSHA HIGH SCHOOL,102503,School,PATUAKHALI,PATUAKHALI SADAR,PACHA KORALIA,90.343,22.28789,22148,1
BADORPUR HIGH SCHOOL,102532,School,PATUAKHALI,PATUAKHALI SADAR,BADARPUR,90.34444,22.36489,22149,1
DIBUAPUR HIGH SCHOOL,102499,School,PATUAKHALI,PATUAKHALI SADAR,DIBUAPURA,90.36642,22.28761,22150,1
SHARIK KHALI JUNIOR SECONDARY SCHOOL,102528,School,PATUAKHALI,PATUAKHALI SADAR,PURBA SARIKKHALI,90.34822,22.26403,22151,1
HETALIA HIGH SCHOOL,102525,School,PATUAKHALI,PATUAKHALI SADAR,PURBA HETALIA,90.37308,22.27206,22152,1
JAINKATI HIGH SCHOOL,102493,School,PATUAKHALI,PATUAKHALI SADAR,SEHAKATI,90.32858,22.34764,22153,1
LOHALIA UNION HIGH SCHOOL,102502,School,PATUAKHALI,PATUAKHALI SADAR,IDRAKPUR,90.32558,22.31022,22154,1
MIABARI MODEL HIGH SCHOOL,102530,School,PATUAKHALI,PATUAKHALI SADAR,LOHALIA,90.31869,22.33617,22155,1
MIDDLE CHARMAISHADI JANATA HIGH SCHOOL,102523,School,PATUAKHALI,PATUAKHALI SADAR,CHAR MAISHADI,90.38403,22.36892,22156,1
SHERE  BANGLA  GIRLS  HIGH SCHOOL,102494,School,PATUAKHALI,PATUAKHALI SADAR,CIRCUITE HOUSE,90.34381,22.33386,22158,1
ABDUL HAYE BIDDANIKETAN,102520,School,PATUAKHALI,PATUAKHALI SADAR,PASCHIM TOWN KALIKAPUR,90.39567,22.30636,22159,1
CHALITABUNIA  JUNIOR HIGH SCHOOL,102515,School,PATUAKHALI,PATUAKHALI SADAR,CHALITABUNIA,90.33903,22.36078,22160,1
HAZI KHALI HIGH SCHOOL,102504,School,PATUAKHALI,PATUAKHALI SADAR,HAJIKHALI,90.2195,22.29478,22161,1
GHABUA JANATA HIGH SCHOOL,102514,School,PATUAKHALI,PATUAKHALI SADAR,GABUA,90.28886,22.31472,22162,1
KHALISHKHALI HIGH SCHOOL,102496,School,PATUAKHALI,PATUAKHALI SADAR,KHALISAKHALI,90.28672,22.31328,22163,1
PURBO HOKTULLAH HIGHSCHOOL,102524,School,PATUAKHALI,PATUAKHALI SADAR,KHALISAKHALI,90.31994,22.31439,22164,1
BADARPUR SHAHEED SMRITI HIGH SCHOOL,102500,School,PATUAKHALI,PATUAKHALI SADAR,BADARPUR,90.28089,22.30433,22165,1
ChhOTO  BEGhAI  OFFICER hat  SECONDARY  SCHOOL,102476,School,PATUAKHALI,PATUAKHALI SADAR,HARITAKIBARIA,90.32803,22.41164,22166,1
TUSHKHALI HIGH SCHOOL,102482,School,PATUAKHALI,PATUAKHALI SADAR,TUSHKHALI,90.32947,22.39017,22167,1
BEGHAI HAT HIGH SCHOOL,102485,School,PATUAKHALI,PATUAKHALI SADAR,DAKSHIN BIGHAI,90.25936,22.33378,22168,1
SOUTH KEWABUNIA SWESHA SEBAK HIGH SCHOOL,102501,School,PATUAKHALI,PATUAKHALI SADAR,BARA BIGHAI,90.21789,22.31853,22169,1
TITKATA  PULERHAT  HIGH SCHOOL,102527,School,PATUAKHALI,PATUAKHALI SADAR,DAKSHIN BIGHAI,90.22236,22.33125,22170,1
TITKATA JUNIOR GIRLS HIGH SCHOOL,102511,School,PATUAKHALI,PATUAKHALI SADAR,TITKATA,90.22961,22.31333,22171,1
PURBA BARA BIGHAI JANATA HIGH SCHOOL,102475,School,PATUAKHALI,PATUAKHALI SADAR,BARA BIGHAI,90.24533,22.29328,22172,1
DAKHKIN DHARANDI JR. HIGH SCHOOL,102526,School,PATUAKHALI,PATUAKHALI SADAR,DAKSHIN DHARANDI,90.25081,22.26586,22173,1
MADHYA DHARANDI HIGH  SCHOOL,102484,School,PATUAKHALI,PATUAKHALI SADAR,DAKSHIN DHARANDI,90.25014,22.26436,22174,1
BS  SECONDARY  SCHOOL,102488,School,PATUAKHALI,PATUAKHALI SADAR,BHURIA,90.38794,22.32094,22175,1
DHARANDI KAMALAPUR HIGH SCHOOL,102521,School,PATUAKHALI,PATUAKHALI SADAR,UTTAR DHARANDI,90.25756,22.28361,22176,1
SREERAMPUR  secondary SCHOOL,102479,School,PATUAKHALI,PATUAKHALI SADAR,KALIKAPUR,90.43033,22.33864,22177,1
MOUKORN  AJM  SEDONDARY GIRLS SCHOOL,102506,School,PATUAKHALI,PATUAKHALI SADAR,MAUKARAN,90.35117,22.37619,22178,1
MOUKARAN HIGH SCHOOL,102486,School,PATUAKHALI,PATUAKHALI SADAR,MAUKARAN,90.36817,22.42147,22179,1
MOUKORON  ABDUL  MALEK  HIGH SCHOOL,102508,School,PATUAKHALI,PATUAKHALI SADAR,MAUKARAN,90.37308,22.39111,22180,1
UTTAR MOUKARAN A.H.HIGH SCHOOL,102512,School,PATUAKHALI,PATUAKHALI SADAR,MAUKARAN,90.31836,22.35353,22181,1
LOHALIA NAZIRPUR HIGH SCHOOL,102498,School,PATUAKHALI,PATUAKHALI SADAR,LOHALIA,90.34542,22.43833,22182,1
GOLBUNIA GIRLS HIGH SCHOOL,102519,School,PATUAKHALI,PATUAKHALI SADAR,DHEUKHALI,90.37639,22.37578,22183,1
DARITALUK MODEL SCHOOL,102513,School,PATUAKHALI,PATUAKHALI SADAR,DARI TALUK MAUKARAN,90.38525,22.38153,22184,1
SHAHID SMRITY BIDHYA NIKETON,102495,School,PATUAKHALI,PATUAKHALI SADAR,LAUKATI KISMAT,90.37728,22.37228,22185,1
PATUAKHALI GOVT.JUBILEE HIGH SCHOOL,102477,School,PATUAKHALI,PATUAKHALI SADAR,NUTAN BAZAR (PASCHIM),90.39222,22.39328,22186,1
KHASIR HAT HIGH SCHOOL,102505,School,PATUAKHALI,PATUAKHALI SADAR,MARICHBUNIA,90.39381,22.39678,22187,1
SOUTH BAZARGHONA H. A. ALI JUNIOR SCHOOL,102507,School,PATUAKHALI,PATUAKHALI SADAR,BAZARGHONA,90.34342,22.3925,22188,1
TOWN HIGH SCHOOL,102490,School,PATUAKHALI,PATUAKHALI SADAR,TOWN SCHOOL,90.35239,22.40789,22189,1
GULI AULIAPUR MODEL SCHOOL AND COLLEGE,102127,School and College,PATUAKHALI,DASHMINA,GULI,90.60878,22.32081,26274,1
BEGUM AREFATUNNESSA GIRLS SCHOOL AND COLLEGE,102130,School and College,PATUAKHALI,DASHMINA,DASHMINA,90.59139,22.30933,26275,1
ULANIA HAT HIGH SCHOLL AND COLLEGE,102337,School and College,PATUAKHALI,GALACHIPA,ULANIA,90.39006,22.28236,26276,1
KANAKDIA SIR SALIMULLAH SCHOOL AND COLLEGE,101986,School and College,PATUAKHALI,BAUPHAL,KANAKDIA,90.44356,22.35244,26277,1
DHULIA HIGHER SECONDARY SCHOOL,101989,School and College,PATUAKHALI,BAUPHAL,GHURCHAKATI,90.58964,22.35478,26278,1
BOTOL BUNIA SCHOOL & COLLEGE,102602,School and College,PATUAKHALI,PATUAKHALI SADAR,DAKSHIN BOTALBANIA,90.30344,22.33503,26279,1
