inst name, eiin, inst_type, district, thana, mauza, long, lat, serial,isUnique
RAJBARI GOVT COLLEGE,113488,College,RAJBARI,RAJBARI SADAR,UTTAR BINODPUR (PART),89.63691,23.75731,1787,1
DR. ABUL HOSSAIN DEGREE COLLEGE,113489,College,RAJBARI,RAJBARI SADAR,MADHYA SAJJANKANDA (PART-3),89.6377,23.75325,1788,1
GOVT. ADARSHA MOHILA COLLEGE rajbari,113490,College,RAJBARI,RAJBARI SADAR,MADHYA SAJJANKANDA (PART-3),89.54635,23.77251,1789,1
DR. KAZI MOTAHER HOSSIAN COLLAGE,113414,College,RAJBARI,PANGSHA,HABASPUR,89.37786,23.87351,1790,1
MACHPARA COLLEGE,113418,College,RAJBARI,PANGSHA,NOAPARA,89.38539,23.83082,1791,1
MRIGI SHAHEED DIANOT DEGREE COLEGE,113422,College,RAJBARI,KALUKHALI,PABAN PANCHBARIA,89.45947,23.75463,1792,1
ALHAZ AMZAD HOSSAIN Degree  COLLEGE,113413,College,RAJBARI,PANGSHA,DEMNAMARA,89.39332,23.70865,1793,1
PANGSA COLLEGE,113416,College,RAJBARI,PANGSHA,NARAYANPUR (PART),89.38495,23.7594,1794,1
IDEAL GIRLS COLLEGE,113417,College,RAJBARI,PANGSHA,GUDHIBARI,89.39055,23.77392,1795,1
PANGSHA MOHILA COLLEGE,113421,College,RAJBARI,PANGSHA,MUGURADANGI (PART),89.41598,23.78672,1796,1
KOLIMOHAR MAHABIDDALAYA,113423,College,RAJBARI,PANGSHA,KALIMAHAR,89.39977,23.78113,1797,1
BANGABANDHU COLLEGE,113420,College,RAJBARI,PANGSHA,SARISHA,89.47024,23.6848,1798,1
MAJHBARI JAHANARA BEGuM COLLEGE,113415,College,RAJBARI,KALUKHALI,PURBA PHULKAUNNAIR,89.41898,23.80203,1799,1
KALUKHALI COLLEGE,113419,College,RAJBARI,KALUKHALI,RATANDIA,89.37095,23.74549,1800,1
rabeya idris mohila degre college,113319,College,RAJBARI,GOALANDA,NASARUDDIN SARDER PARA,89.75929,23.72301,1801,1
GOALUNDO KAMRUL ISLAM COLLEGE,113318,College,RAJBARI,GOALANDA,JURAN MOLLAR PARA(SOUTH PART),89.76344,23.72242,1802,1
MIR MOSHARRAF HOSSAIN COLLEGE SONAPUR,113298,College,RAJBARI,BALIAKANDI,SONAPUR,89.76439,23.75422,1803,1
MUNSUR ALI  COLLEGE,113282,College,RAJBARI,BALIAKANDI,BAKSADANGI,89.51311,23.70276,1804,1
JAMALPUR COLLEGE,113296,College,RAJBARI,BALIAKANDI,DANGA HATIMOHAN,89.52662,23.60075,1805,1
BALIAKANDI COLLEGE,113297,College,RAJBARI,BALIAKANDI,ILISHKHOL,89.61533,23.59863,1806,1
BAHARPUR  COLLEGE,113299,College,RAJBARI,BALIAKANDI,KHALKULA,89.52888,23.62078,1807,1
AFRA ISLAMIA SIDDIKIA ALIM MADRASAH,113478,Madrasha,RAJBARI,RAJBARI SADAR,AFRA,90.35792,24.57581,8789,1
CHAR SHAM NAGAR DAKHIL MADRASHA,113479,Madrasha,RAJBARI,RAJBARI SADAR,CHAR SHYAMNAGAR,89.53905,23.77782,8790,1
KHANKHANAPUR FAIJUNNESA MOHILA DAKHIL MADRASHA,113472,Madrasha,RAJBARI,RAJBARI SADAR,KHANKHANAPUR,89.71033,23.62722,8791,1
AHLADIPUR DAKHIL MADRASHA,113484,Madrasha,RAJBARI,RAJBARI SADAR,AHLADIPUR,89.69967,23.63628,8792,1
BHOGIRATHPUR ISLAMIA FAZIL MADRASAH,113470,Madrasha,RAJBARI,RAJBARI SADAR,BHAGIRATHPUR,89.71521,23.70359,8793,1
BRICHATRA DARUSSUNNAH FAZIL MADRASHA,113468,Madrasha,RAJBARI,RAJBARI SADAR,BRI-CHATRA,89.69137,23.68633,8794,1
BETHULIA BARLAHURIA SIDDIQUEYA FAZIL MADRASHA,113474,Madrasha,RAJBARI,RAJBARI SADAR,BARA LAHARIA,89.6574,23.67562,8795,1
SHADIPUR AMINA FAZIL MADRASHA,113480,Madrasha,RAJBARI,RAJBARI SADAR,SADIPUR,89.61126,23.69832,8796,1
BHANDARIA SIDDIQUIA S R FAZIL MADRASHA,113473,Madrasha,RAJBARI,RAJBARI SADAR,BHANDARIA,89.61988,23.72237,8797,1
MORDANGA SEKAN DARIA FAZIL MADRASHA,113475,Madrasha,RAJBARI,RAJBARI SADAR,GUPTA MANIK,89.61764,23.73109,8798,1
RAJBARI SREEPUR lazzatun nesa KAMIL MADRASHA,113471,Madrasha,RAJBARI,RAJBARI SADAR,SREEPUR (PART),89.66022,23.6865,8799,1
BARAT AKIRON NESSA ISLAMIA ALIM MADRASHA,113476,Madrasha,RAJBARI,RAJBARI SADAR,KACHRANDA BARAT,89.71273,23.70657,8800,1
KALLYANPUR siddikia hakimia DAKHIL MADRASAH,113477,Madrasha,RAJBARI,RAJBARI SADAR,KALYANPUR,89.63856,23.76855,8801,1
SHOhid ABDUL HAKIM CADET MOHILA DAKHIL MADRASHA,113483,Madrasha,RAJBARI,RAJBARI SADAR,KALYANPUR,89.64781,23.76045,8802,1
MADANI COMPLeX MOHILA DAKHIL MADRASAH,113469,Madrasha,RAJBARI,RAJBARI SADAR,UTTAR RAMKANTAPUR(PART),89.67926,23.70064,8803,1
ARENDA DAKHIL MADRASHA,113482,Madrasha,RAJBARI,RAJBARI SADAR,ERENDA,89.63463,23.75356,8804,1
BARAIJURI GARIB SHAH DAKHIL MADRASHA,113485,Madrasha,RAJBARI,RAJBARI SADAR,BARAIJURI,89.61953,23.72463,8805,1
GABLA DAKHIL MADRASHA,113487,Madrasha,RAJBARI,RAJBARI SADAR,GABLA,89.68582,23.68755,8806,1
BELGACHHI DAWATUL ISLAM DAKHIL MADRASHA,113467,Madrasha,RAJBARI,RAJBARI SADAR,BASUDEBPUR,89.65256,23.65934,8807,1
SENGRAM FAZIL degree  MADRASHA,113396,Madrasha,RAJBARI,PANGSHA,SENGRAM,89.70353,23.59915,8808,1
TARAPUR DAKHIL MADRASHA,113405,Madrasha,RAJBARI,PANGSHA,TARAPUR,89.68794,23.63876,8809,1
GANGANANDADIA DAKHIL MADRASHA,113395,Madrasha,RAJBARI,PANGSHA,GANGANANDADIA,89.55721,23.75755,8810,1
CHARJHIKARI M.H. DAKHIL MADRASAH,113397,Madrasha,RAJBARI,PANGSHA,CHAR JHIKIRI,89.37966,23.87232,8811,1
PERVALLABRIA DAKHIL MADRASHA,113404,Madrasha,RAJBARI,PANGSHA,PAR BHELLABARIA,89.44991,23.82197,8812,1
NOWPARA DARUSSUNNAH MOHAMMADIA DAKHIL MADRASAH,113402,Madrasha,RAJBARI,PANGSHA,NOAPARA,89.40167,23.82446,8813,1
HALUD BARIA DAKHIL MADRASHA,113399,Madrasha,RAJBARI,PANGSHA,HALUDBARIA,89.38798,23.83322,8814,1
RAYNAGAR D.U.I. ALIM MADRASAH,113393,Madrasha,RAJBARI,KALUKHALI,ROYNAGAR,89.34932,23.80421,8815,1
KALUKHALI DAKHIL MADRASHA,113407,Madrasha,RAJBARI,KALUKHALI,MALIAT,89.46521,23.77766,8816,1
SURJADIA DAKIL MADRASHA,113386,Madrasha,RAJBARI,KALUKHALI,SURJYADIA,89.50341,23.76614,8817,1
SANGRAM PUR DAKHIL MADRASAH,113410,Madrasha,RAJBARI,KALUKHALI,SANGRAMPUR,89.50261,23.76315,8818,1
CHARKULTIA SIDDIKIA DAKHIL MADRASHA,113398,Madrasha,RAJBARI,KALUKHALI,PANCHA KULTIA,89.52234,23.74051,8819,1
MAJBARI SIDDIQUIEA AHAMMADIA SERATUL HAQUE ALIM MADRASHA,113403,Madrasha,RAJBARI,KALUKHALI,MAJHBARI,89.55888,23.73435,8820,1
BANGLADESH HAT NESARIA DAKHIL MADRASHA,113383,Madrasha,RAJBARI,KALUKHALI,KALINAGAR,89.50795,23.72657,8821,1
HOGLADANGI MOHAMMADIA ISLAMIA KAMIL MADRASAH,113392,Madrasha,RAJBARI,KALUKHALI,BARA KALKALIA,89.51334,23.71972,8822,1
MUCHIDAH BANGRAM SIDDIQIA ALIM MADRASAH,113401,Madrasha,RAJBARI,PANGSHA,MUCHIDAHA,89.40559,23.68749,8823,1
BOYRAT MAJAIL FAZIL MADRASHA,113388,Madrasha,RAJBARI,PANGSHA,BAYRAT,89.4116,23.68721,8824,1
NADURIA SIDDIKIA BALIKA DAKHIL MADRASAH,113384,Madrasha,RAJBARI,PANGSHA,NADURIA,89.37159,23.70527,8825,1
KALIMAHAR KHALIL UDDIN MIA DAKHIL MADRASHA,113400,Madrasha,RAJBARI,PANGSHA,KALIMAHAR,89.3759,23.78252,8826,1
PARANPUR DURSUNDIA SIDDIKIA DAKHIL  MADRASah,113385,Madrasha,RAJBARI,PANGSHA,DURSUNDIA,89.34595,23.76745,8827,1
RUPIAT YEASINIA DAKHIL MADRASHA,113389,Madrasha,RAJBARI,PANGSHA,RUPIAT,89.32946,23.75452,8828,1
PANGSHA PROPER DARUL ISLAM DAKHIL MADRASHA,113394,Madrasha,RAJBARI,PANGSHA,PANGSHA,89.3743,23.74711,8829,1
PANGSHA SHAHAJUI FAZIL MADRSHA,113387,Madrasha,RAJBARI,PANGSHA,CHAR DURLABHDIA (PART),89.41923,23.78614,8830,1
MYSHALA DARUL ULUM MOHAMMDIA DAKHIL MADRASHA,113391,Madrasha,RAJBARI,PANGSHA,MAGURADANGI (DAKSHIN PART),89.40506,23.7943,8831,1
JOYKRISHNAPUR GIRLS FAZIL MADRASHA,113412,Madrasha,RAJBARI,PANGSHA,JOY KRISHNAPUR,89.41428,23.76894,8832,1
SAMOSPUR DAKIL MADRASHA,113406,Madrasha,RAJBARI,PANGSHA,SAMASPUR,89.42957,23.81722,8833,1
BASTOPUR MOHAMMADIA DAKHIL MADRASHA,113408,Madrasha,RAJBARI,KALUKHALI,SAORAIL,89.33348,23.74863,8834,1
ARKANDI SHOHID MUKTIJODDAH DAKHIL MADRASHA,113409,Madrasha,RAJBARI,KALUKHALI,ARKANDI,89.33609,23.75679,8835,1
DR.ABDUL KADER BALIKA DAKHIL MADRASHA,113411,Madrasha,RAJBARI,PANGSHA,KURAPARA,89.37201,23.74753,8836,1
PUIJORE SIDDIQIA FAZIL MADRASHA,113390,Madrasha,RAJBARI,PANGSHA,PATTA,89.41487,23.74401,8837,1
PANGSHA SIDDIQUIA FAZIL MADRASHA,113382,Madrasha,RAJBARI,PANGSHA,NARAYANPUR (PART),89.32141,23.74776,8838,1
GOALONDO IDDRISIA ISLAMIA DAKHIL MADRASAH,113314,Madrasha,RAJBARI,GOALANDA,DAKSHIN UJAN CHAR,89.72067,23.75078,8839,1
GOALUNDO DAKHIL MADRASHA,113313,Madrasha,RAJBARI,GOALANDA,DEWANPARA,89.76481,23.75194,8840,1
SOUTH UJANCHAR ISLAMIA ALIM MADRASHA,113315,Madrasha,RAJBARI,GOALANDA,DAKSHIN UJAN CHAR,89.76079,23.75157,8841,1
DOKHIN DOULOTDIA ISLAMIA DAKHIL MADRASHA,113316,Madrasha,RAJBARI,GOALANDA,DAKSHIN DAULATDIA,89.76072,23.72182,8842,1
JAMTALA DAKHIL MADRASAH,113317,Madrasha,RAJBARI,GOALANDA,DAKSHIN UJAN CHAR,89.76424,23.71334,8843,1
BORAHUIZLI JULFIKAr SIDdIKIA WAjEDIA ALIM MADRASAH,113285,Madrasha,RAJBARI,BALIAKANDI,BARA HIJLI,89.75577,23.72707,8844,1
PATKIABARI    DHAKIL  MADRASHA,113288,Madrasha,RAJBARI,BALIAKANDI,BARA GHIKAMAL,89.50821,23.66127,8845,1
BANDHULI KHALKULA DAKHIL MDRASAH,113293,Madrasha,RAJBARI,BALIAKANDI,BADULI KHALKULA,89.49747,23.59264,8846,1
TENTULIA DARUS SALAM ISLAMIA DAKHIL MADRASHA,113287,Madrasha,RAJBARI,BALIAKANDI,TENTULIA,89.63386,23.60214,8847,1
BALIAKANDI  DAKHIL  MADRASHA,113289,Madrasha,RAJBARI,BALIAKANDI,BALIAKANDI,89.55902,23.64136,8848,1
SHALMARA BAITUL AMAN DAKHIL MADRASA,113290,Madrasha,RAJBARI,BALIAKANDI,DAKSHIN SALMARA,89.54919,23.63237,8849,1
BORO GHEE KAMELA MOHILA DAKHIL MADRASAH,113292,Madrasha,RAJBARI,BALIAKANDI,BARA GHIKAMAL,89.53132,23.62079,8850,1
SODASHIPUR GHORAMARA DAKHIL MADRASHA,113286,Madrasha,RAJBARI,BALIAKANDI,SADASHIBPUR,89.57696,23.63529,8851,1
NATAPARA ABU ZAFAR SIDDIkIA DAKHIL MADRASAH,113291,Madrasha,RAJBARI,BALIAKANDI,GUPTA LAKSHMANDIA,89.47534,23.66899,8852,1
SHAHID NAGAR ISLAMIA MOHILA DAKHIL MADRASAH,113294,Madrasha,RAJBARI,BALIAKANDI,KHALKULA,89.54665,23.61787,8853,1
BELGACHI GIRLS HIGH SCHOOL,113425,School,RAJBARI,RAJBARI SADAR,BELGACHHI RAGHUNATHPUR,90.39897,24.56358,22444,1
BABUPUR KASIM UDDIN BIDYAPITH,113452,School,RAJBARI,RAJBARI SADAR,BABUPUR,90.40061,24.54464,22445,1
CHANDPUR HIGH SCHOOL,113447,School,RAJBARI,RAJBARI SADAR,BELGACHHI CHANDPUR,90.35825,24.57625,22446,1
SULTANPUR HIGH SCHOOL,113450,School,RAJBARI,RAJBARI SADAR,SULTANPUR,90.37586,24.55878,22447,1
RAJAPUR YASIN INSTITUTION,113437,School,RAJBARI,RAJBARI SADAR,RAJAPUR,89.56243,23.77742,22448,1
BASANTAPUR CO- OPERATIVE HIGH SCHOOL,113439,School,RAJBARI,RAJBARI SADAR,BARA BHABANIPUR,89.56991,23.75509,22449,1
KOLA SADAR UDDIN HIGH SCHOOL,113443,School,RAJBARI,RAJBARI SADAR,KOLA,89.55888,23.75422,22450,1
SURAJ MOHINI INSTITUTE,113432,School,RAJBARI,RAJBARI SADAR,KHANKHANAPUR,89.72904,23.61315,22451,1
KHAN KHANAPUR TAMIZ UDDIN KHAN GIRLS HIGH SCHOOL,113438,School,RAJBARI,RAJBARI SADAR,KHANKHANAPUR,89.72023,23.6062,22452,1
AL-HAJ NIZAM UDDIN AHMED HIGH SCHOOL,113455,School,RAJBARI,RAJBARI SADAR,MADHUPUR,89.67033,23.64625,22453,1
MULGHAR HIGH SCHOOL,113446,School,RAJBARI,RAJBARI SADAR,PASCHIM MULGHAR,89.73494,23.70028,22454,1
ATDAPUNIA HIGH SCHOOL,113436,School,RAJBARI,RAJBARI SADAR,ATDAPUNIA,89.72641,23.68688,22455,1
BARTHA HIGH SCHOOL,113428,School,RAJBARI,RAJBARI SADAR,BARTHA,89.69775,23.6787,22456,1
MATIPARA KAZI SAMIR UDDIN HIGH SCHOOL,113444,School,RAJBARI,RAJBARI SADAR,MATI PARA,89.65716,23.6688,22457,1
ARABARIA HIGH SCHOOL,113445,School,RAJBARI,RAJBARI SADAR,ARABARIA,89.60896,23.68684,22458,1
MUKUNDIA HIGH .SCHOOL,113449,School,RAJBARI,RAJBARI SADAR,PURBA MULGHAR,89.63574,23.71476,22459,1
BRAHMONDIA JUNIOR HIGH SCHOOL,113453,School,RAJBARI,RAJBARI SADAR,BRAHMANDIA,89.59833,23.72159,22460,1
BARAT GIRLS HIGH SCHOOL,113448,School,RAJBARI,RAJBARI SADAR,ELAIL,89.70515,23.72735,22461,1
AL-HAJ ABDUL KARIM HIGH SCHOOL,113440,School,RAJBARI,RAJBARI SADAR,BHABADIA,89.71044,23.74051,22462,1
CHAR JOUKURI HIGH SCHOOL,113460,School,RAJBARI,RAJBARI SADAR,CHAR JAUKURI,89.71507,23.70729,22463,1
MORJATKOL HIGH SCHOL,113458,School,RAJBARI,RAJBARI SADAR,MARJATKUL,89.65488,23.73991,22464,1
SURJA NAGAR DIMUKHI HIGH SCHOOL,113441,School,RAJBARI,RAJBARI SADAR,DURGAPUR,89.70808,23.75186,22465,1
SHER -E-BANGLA GIRLS HIGH SCHOOL,113434,School,RAJBARI,RAJBARI SADAR,UTTAR BHABANIPUR (PART),89.71094,23.75139,22466,1
RAJBARI GOVT. GIRLS HIGH SCHOOL,113430,School,RAJBARI,RAJBARI SADAR,PURBA SAJJANKANDA (PART-2),89.68738,23.77213,22467,1
R.S.K INSTIUTION,113431,School,RAJBARI,RAJBARI SADAR,UTTAR BINODPUR (PART),89.60094,23.79653,22468,1
KAZI HADAYET HOSSAIN GIRLS HIGH SCHOOL,113435,School,RAJBARI,RAJBARI SADAR,PURBA BINODPUR (PART-1),89.60151,23.74359,22469,1
ALLA NEWAJ KHAIRU HIGH SCHOOL,113454,School,RAJBARI,RAJBARI SADAR,DAKSHIN LAKSHMIKUL (PART),89.6027,23.77467,22470,1
YEASIN HIGH SCHOOL,113433,School,RAJBARI,RAJBARI SADAR,PURBA SAJJANKANDA (PART-2),89.63302,23.75515,22471,1
AL-GAZZALI HIGH SCHOOL,113451,School,RAJBARI,RAJBARI SADAR,DAKSHIN SAJJANKANDA (PART-4),89.63353,23.75766,22472,1
RAJBARI GOVT. HIGH SCHOOL,113429,School,RAJBARI,RAJBARI SADAR,PURBA SAJJANKANDA (PART-2),89.63601,23.75516,22473,1
ALADIPUR HIGH SCHOOL,113442,School,RAJBARI,RAJBARI SADAR,ALADIPUR,89.63914,23.74991,22474,1
RAJBARI ADARSHA  HIGH SCHOOL,113456,School,RAJBARI,RAJBARI SADAR,UTTAR BHABANIPUR (PART),89.64404,23.7596,22475,1
BETHULIA GIRLS HIGH SCHOOL,113459,School,RAJBARI,RAJBARI SADAR,BETHULIA,89.66185,23.70921,22476,1
DHULDI JOYPUR  GIRLS high SCHOOL,113461,School,RAJBARI,RAJBARI SADAR,DHULDI JOYPUR,89.66874,23.70277,22477,1
JALDIA JUNIOR HIGH SCHOOL,113457,School,RAJBARI,RAJBARI SADAR,JALDIA,89.6386,23.75834,22478,1
UDAYPUR GIRLS IDEAL ACADEMY,113463,School,RAJBARI,RAJBARI SADAR,UDAYPUR,89.64534,23.75779,22479,1
RAJIA BEGUM JUNIOR HIGH SCHOOL,113466,School,RAJBARI,RAJBARI SADAR,CHANDANI,89.66945,23.76536,22480,1
PATIKABARI MoHAMMAD ALI KHAN HIGH SCHOOL,113365,School,RAJBARI,PANGSHA,PATIKABARI,89.7053,23.76237,22481,1
SHAHID KHABIRUZZAMAN HIGH SCHOOL,113337,School,RAJBARI,PANGSHA,BAHADURPUR,89.70307,23.69596,22482,1
CHARAFRA HIGH SCHOOL,113363,School,RAJBARI,PANGSHA,CHAR AFRA,89.37591,23.8747,22483,1
HABASHPUR K.RAJ HIGH SCHOOL,113323,School,RAJBARI,PANGSHA,HABASPUR,89.37086,23.87632,22484,1
KACHARI PARA HIGH SCHOOL,113334,School,RAJBARI,PANGSHA,CHAR JHIKIRI,89.42092,23.83858,22485,1
UDAY PUR HIGH SCHOOL,113320,School,RAJBARI,PANGSHA,UDAYPUR,89.42272,23.83725,22486,1
JASHAI HIGH SCHOOL,131458,School,RAJBARI,PANGSHA,GURUCHANDI,89.42751,23.82098,22487,1
MEGHNA HIGH SCHOOL,113344,School,RAJBARI,PANGSHA,MEGHNA KHAMAR PARA,89.40766,23.86064,22488,1
MACHPARA ML HIGH SCHOOL,113326,School,RAJBARI,PANGSHA,MACHH PARA,89.42719,23.81904,22489,1
MAUKURI HIGH SCHOOL,113353,School,RAJBARI,KALUKHALI,MAUKURI (PART),89.35176,23.80348,22490,1
A. Z.M. SAKEN UDDIN  HIGH SCHOOL,113366,School,RAJBARI,KALUKHALI,SATATA,89.34771,23.80196,22491,1
JHAUGRAM KALIKAPUR HIGH SCHOOL,113368,School,RAJBARI,KALUKHALI,KALIKAPUR,89.35226,23.80049,22492,1
KALUKHALI ADARSHA HIGH SCHOOL,113360,School,RAJBARI,KALUKHALI,KALUKHALI,89.35518,23.8008,22493,1
KALUKHALI GIRL'S HIGH SCHOOL,113332,School,RAJBARI,KALUKHALI,MALIAT,89.47508,23.78531,22494,1
RATANDIA RAJANI KANTA HIGH SCHOOL,113325,School,RAJBARI,KALUKHALI,RATANDIA,89.44881,23.77924,22495,1
SURJYADIA MADAPUR HIGHY SCHOOL,113375,School,RAJBARI,KALUKHALI,SURJYADIA,89.45738,23.78569,22496,1
DAMUKDIA DURGAPUR ABDUL AZIZ HIGH SCHOOL,113346,School,RAJBARI,KALUKHALI,DAMUKDIA,89.47796,23.79458,22497,1
GOPALPUR MADHAMIK BIDHYALAY,113335,School,RAJBARI,KALUKHALI,BRI-GOPALPUR,89.49704,23.77643,22498,1
RAIPUR K S M ACADEMI,113364,School,RAJBARI,KALUKHALI,ROYPUR,89.52055,23.7423,22499,1
HARIBHANGA HIGH SCHOOL,113336,School,RAJBARI,KALUKHALI,HANRIBHANGA,89.52282,23.74245,22500,1
MAJHBARI HARUNESSA SRITI  HIGH SCHOOL,113345,School,RAJBARI,KALUKHALI,PURBA PHULKAUNNAIR,89.51877,23.7402,22501,1
DHAM CHANDRAPUR HIGH SCHOOL,113371,School,RAJBARI,KALUKHALI,DHAM CHANDRAPUR,89.51335,23.71688,22502,1
ALHAJ AMENA KHATUN BIDYAPITH,113356,School,RAJBARI,KALUKHALI,BARA BANGLAT,89.51186,23.72434,22503,1
KHAGJANA HIGH SCHOOL,113331,School,RAJBARI,KALUKHALI,KAMARPUR,89.51087,23.72777,22504,1
MRIGI M.L.HIGH SCHOOL,113327,School,RAJBARI,KALUKHALI,CHAND MRIGI,89.4593,23.75702,22505,1
AKHARJANI HIGH SCHOOL,113343,School,RAJBARI,KALUKHALI,AKHARJANI,89.46126,23.75508,22506,1
D.B.P HIGH SCHOOL,113367,School,RAJBARI,KALUKHALI,DEWALI,89.4559,23.75551,22507,1
BE KAYA HIGH SCHOOL,113329,School,RAJBARI,KALUKHALI,BAJEAPTA KAYA,89.45427,23.72114,22508,1
MOHAMMAD ALI ACADEMY,113354,School,RAJBARI,KALUKHALI,BISAI SAORAIL,89.45561,23.67544,22509,1
PATURIA ADARSHA HIGH SCHOOL,113357,School,RAJBARI,KALUKHALI,PATURIA,89.45042,23.71142,22510,1
LARIBARI ADORSHA HIGH SCHOOL,113355,School,RAJBARI,KALUKHALI,LARIBARI,89.48912,23.69214,22511,1
LARI BARI HIGH SCHOOL,113370,School,RAJBARI,KALUKHALI,LARIBARI,89.45333,23.67752,22512,1
PATTA JONA HIGH SCHOOL,113342,School,RAJBARI,PANGSHA,PATTA,89.43926,23.6685,22513,1
B M D HIGH SCHOOL,113347,School,RAJBARI,PANGSHA,DHEPA,89.42847,23.68549,22514,1
PUIJORE A.G.M. HIGH SCHOOL,113348,School,RAJBARI,PANGSHA,PUIJOR,89.43075,23.68505,22515,1
NADURIA HIGH SCHOOL,113341,School,RAJBARI,PANGSHA,LOHABARIA,89.40478,23.71975,22516,1
KASHBA MAJAIL A H HIGH SCHOOL,113328,School,RAJBARI,PANGSHA,DEMNAMARA,89.37471,23.6996,22517,1
NADIR HOSSAIN GIRLS HIGH SCHOOL,113330,School,RAJBARI,PANGSHA,KASBA MAJHAIL,89.43045,23.71358,22518,1
NISCHINTA PUR HIGH SCHOOL,113358,School,RAJBARI,PANGSHA,NISCHINTA PUR,89.33614,23.71989,22519,1
SAJURIA JEHRA ZARIN HIGH SCHOOL,113352,School,RAJBARI,PANGSHA,HOSSAINDANGA,89.34006,23.71543,22520,1
HOSSAN DANGA NILUFAR RAFIQUE HIGH SCHOOL,113338,School,RAJBARI,PANGSHA,HOSSAINDANGA,89.34788,23.71054,22521,1
HAT BONGRAM HIGH SCHOOL,113351,School,RAJBARI,PANGSHA,BONOGRAM,89.35519,23.70938,22522,1
GOPALPUR COLLEGIATE HIGH SCHOOL,113359,School,RAJBARI,PANGSHA,GOPALPUR,89.35715,23.70699,22523,1
SARISA PREMTIA HIGH SCHOOL,113349,School,RAJBARI,PANGSHA,SARISHA,89.34821,23.77,22524,1
KOLANAGAR ACADEMY,113361,School,RAJBARI,PANGSHA,KOLANAGAR,89.33891,23.74784,22525,1
BAGDULI HIGH SCHOOL,113339,School,RAJBARI,PANGSHA,MAURAT,89.34181,23.78177,22526,1
SUZANAGAR  HIGH SCHOOL,113362,School,RAJBARI,PANGSHA,SUJANAGAR,89.35484,23.77361,22527,1
PANGSHA GEORGE PILOT HIGH SCHOOL,113322,School,RAJBARI,PANGSHA,NARAYANPUR (PART),89.41624,23.7325,22528,1
PANGSA PILOT GIRLS HIGH SCHOOL,113333,School,RAJBARI,PANGSHA,NARAYANPUR (UTTAR PASCHIM),89.3938,23.74137,22529,1
YAKUB ALI CHOWDHURY BIDDYAPITH,113350,School,RAJBARI,PANGSHA,MRIGIDANGA,89.38451,23.78136,22530,1
KAZI ABDUL MAJED ACADEMY,113321,School,RAJBARI,PANGSHA,MUGURADANGI (PART),89.42005,23.7839,22531,1
CHARJHIKARI JUNIOR SECONDARY GIRLS SCHOOL,113374,School,RAJBARI,PANGSHA,HABASPUR,89.40962,23.79327,22532,1
BONGRAM ATARUNNESA JUNIOR GIRLS HIGH SCHOOL,113376,School,RAJBARI,PANGSHA,BONOGRAM,89.40444,23.78936,22533,1
BAHALADANGA HIGH SCHOOL,113340,School,RAJBARI,PANGSHA,SARISHA,89.40367,23.7798,22534,1
DHENKI PARA JUNIOR HIGH SCHOOL,113377,School,RAJBARI,PANGSHA,DHANKI PARA (PART),89.39777,23.87086,22535,1
SAKJAN NIAMOTPUR JUNIOR HIGH SCHOOL,113369,School,RAJBARI,KALUKHALI,NIAMATPUR,89.37467,23.82451,22536,1
CHAR HARINADANGA  HIGH SCHOOL,113373,School,RAJBARI,PANGSHA,UTTAR HARINADANGA,89.41135,23.68362,22537,1
BABUPARA JUNIOR HIGH SCHOOL,113378,School,RAJBARI,PANGSHA,PANGSHA,89.46356,23.69503,22538,1
GOALUNDO PROPER HIGH SCHOOL,113304,School,RAJBARI,GOALANDA,UPAZILA COMPLEX(PART),89.38506,23.79073,22540,1
CHOWDHURY ABDUL HAMID ACADEMY,113306,School,RAJBARI,GOALANDA,CHAR KACHRANDA,89.4285,23.71582,22541,1
DAULATDIA MODEL HIGH SCHOOL,113309,School,RAJBARI,GOALANDA,UTTAR DAULATDIA,89.4958,23.76272,22542,1
DAULATDIA AKKAS ALI JUNIOR HIGH SCHOOL,113303,School,RAJBARI,GOALANDA,UTTAR DAULATDIA,89.4148,23.78626,22543,1
GOALUNDO SHAHID SMRITY GOVT GIRLS SCHOOL,113305,School,RAJBARI,GOALANDA,JURAN MOLLAR PARA(SOUTH PART),89.74392,23.74724,22544,1
GOALUNDO IDEAL HIGH SCHOOL,113301,School,RAJBARI,GOALANDA,UTTAR UJAN CHAR,89.7182,23.74958,22545,1
JAMTALA HIGH SCHOOL,113307,School,RAJBARI,GOALANDA,PURBA UJAN CHAR,89.75124,23.72407,22546,1
SHAHAJ   UDDIN   MONDOL INSTITUTE,113310,School,RAJBARI,GOALANDA,PURBA UJAN CHAR,89.75863,23.72635,22547,1
GOALANDA NAZIR UDDIN PILOT GOVT. HIGH SCHOOL,113302,School,RAJBARI,GOALANDA,BIPIN RAYER PARA,89.75903,23.72002,22548,1
NAWABPUR HIGH SCHOOL,113272,School,RAJBARI,BALIAKANDI,BERULI,89.75643,23.72504,22549,1
KURSHI MADHAYAMIK BIDAYALAYA,113270,School,RAJBARI,BALIAKANDI,KURSI,89.75699,23.71892,22550,1
MAJBARI HIGH SCHOOL,113261,School,RAJBARI,BALIAKANDI,SONAPUR,89.76649,23.71097,22551,1
INDURDI HIGH SCHOOL,113265,School,RAJBARI,BALIAKANDI,INDURDI,89.49958,23.6775,22552,1
GHEEKamAla Madhyamik bidyalaya,113269,School,RAJBARI,BALIAKANDI,BARA GHIKAMAL,89.52048,23.67661,22553,1
MUNSI EARUDDIN AHMED GIRLS HIGH SCHOOL,113274,School,RAJBARI,BALIAKANDI,NARUA,89.55702,23.65438,22554,1
JANGAL SAMMILANI ADARSHA HIGH SCHOOL,113271,School,RAJBARI,BALIAKANDI,JANJAL,89.46574,23.67116,22555,1
DHARMATALA ADARSHA HIGH SCHOOL,113278,School,RAJBARI,BALIAKANDI,SUKNA,89.45967,23.66564,22556,1
POTORA ADARSHA HIGH SCHOOL,113277,School,RAJBARI,BALIAKANDI,POTRA,89.47829,23.65089,22557,1
SAMADHI NAGAR A S B M MADHYAMIK BIDYALAY,113258,School,RAJBARI,BALIAKANDI,PUSH AMLA,89.47636,23.64646,22558,1
ALONGKERPUR IDEAL HIGH SCHOOL,113276,School,RAJBARI,BALIAKANDI,JANJAL,89.47364,23.64573,22559,1
NATAPARA HIGH SCHOOL,113268,School,RAJBARI,BALIAKANDI,GUPTA LAKSHMANDIA,89.5159,23.62007,22560,1
NALIA SHYAMAMOHAN INSTITUTION,113264,School,RAJBARI,BALIAKANDI,NALIA,89.49224,23.60278,22561,1
JAMALPUR SECONDARY GIRLS SCHOOL,113273,School,RAJBARI,BALIAKANDI,ALOKDIA,89.51142,23.60572,22562,1
BARUGRAM HIGH SCHOOL,113266,School,RAJBARI,BALIAKANDI,BARUGRAM,89.63502,23.6031,22563,1
ARKANDI HIGH SCHOOL,113256,School,RAJBARI,BALIAKANDI,ARKANDI,89.624,23.60379,22564,1
BAHARPUR HIGH SCHOOL,113263,School,RAJBARI,BALIAKANDI,BAHARPUR,89.61011,23.60805,22565,1
BAONARA HIGH SCHOOL,113281,School,RAJBARI,BALIAKANDI,FAZIL TENAI,89.57917,23.62924,22566,1
RAJDHARPUR MADHYAMIK BIDYALAY,113253,School,RAJBARI,BALIAKANDI,RAJDHARPUR,89.57335,23.65921,22567,1
RAMDIA B M BC HIGH SCHOOL,113262,School,RAJBARI,BALIAKANDI,KAUNNAIR,89.60478,23.65202,22568,1
BAKCHAR IDEAL HIGH SCHOOL,113275,School,RAJBARI,BALIAKANDI,BACK CHAR,89.57513,23.63448,22569,1
BALIAKANDI PILOT GIRLS HIGH SCHOOL,113259,School,RAJBARI,BALIAKANDI,BALIAKANDI,89.58368,23.71362,22570,1
BALIAKANDI PILOT HIGH SCHOOL,113260,School,RAJBARI,BALIAKANDI,BALIAKANDI,89.57017,23.71466,22571,1
SHALMARA NISCHINTOPUR HIGH SCHOOL,113267,School,RAJBARI,BALIAKANDI,DAKSHIN SALMARA,89.5284,23.70795,22572,1
BAHARPUR GIRLS HIGH SCHOOL,113257,School,RAJBARI,BALIAKANDI,BAHARPUR,89.53044,23.61809,22573,1
TALTOLA SHOPTOPOLLI HIGH SCHOOL,113255,School,RAJBARI,BALIAKANDI,CHAMTA,89.54671,23.63583,22574,1
BASHABARI HIGH SCHOOL,113254,School,RAJBARI,BALIAKANDI,BERULI,89.54673,23.63272,22575,1
SHAHID ZIA IDEAL ACADEMY,113284,School,RAJBARI,BALIAKANDI,PURBA MAUKURI,89.54842,23.63594,22576,1
CHAPRI HIGH SCHOOL,113280,School,RAJBARI,BALIAKANDI,CHAPRI,89.50964,23.66163,22577,1
CHAMTA IDEAL JUNIOR HIGH SCHOOL,113283,School,RAJBARI,BALIAKANDI,CHAMTA,89.5504,23.68831,22578,1
ANKUR COLLEGIATE HIGHER SECONDARY SCHOOL,113492,School and College,RAJBARI,RAJBARI SADAR,PURBA SAJJANKANDA (PART-2),89.63587,23.75886,26288,1
BELGACHHI  ALIMUZZAMAN  SCHOOL  & COLLEGE,113493,School and College,RAJBARI,RAJBARI SADAR,HARIHARPUR,89.64833,23.75818,26289,1
KALIMOHAR JOHURUNNESA HIGHER SECONDARY SCHOOL,113424,School and College,RAJBARI,PANGSHA,KALIMAHAR,89.43242,23.7785,26290,1
LIAQUAT ALI SMIRITI SCHOOL and COLLEGE,113300,School and College,RAJBARI,BALIAKANDI,BIL DHAMU,89.51415,23.70157,26291,1
