inst name, eiin, inst_type, district, thana, mauza, long, lat, serial,isUnique
ALHAJ ERSHD ALI WOMENS COLLEGE,126261,College,RAJSHAHI,BAGHA,JOTRAGHU (PART) UTTAR,88.599991,24.366661,1808,1
MOHABBAT PUR KHANPUR DEGREE COLLEGE,126842,College,RAJSHAHI,MOHANPUR,KHANPUR,88.10606,24.69178,1809,1
TALANDA  LALIT  MOHON  DEGREE  COLLEGE,127144,College,RAJSHAHI,TANORE,TALONDA,88.50331,24.60369,1810,1
TANORE MOHILA DEGREE COLLEGE,127136,College,RAJSHAHI,TANORE,CHAPRA,88.58869,24.61636,1811,1
ABDUL KARIM SARKER DRGREE COLLEGE,127146,College,RAJSHAHI,TANORE,PASCHIM TANORE,88.57633,24.59028,1812,1
KALIGONJ HAT DEGREE COLLEGE,127138,College,RAJSHAHI,TANORE,PASCHIM RAYTAN BARSHOW,88.574,24.57542,1813,1
FAZAR ALI MOLLA DEGREE COLLEGE,127140,College,RAJSHAHI,TANORE,PACHANDAR,88.48925,24.58303,1814,1
MONDUMALA  WOMENS  DEGREE  COLLEGE,127143,College,RAJSHAHI,TANORE,SADIPUR,88.56981,24.54106,1815,1
KRISHNAPUR ADARSHA WOMEN S COLLEGE,127145,College,RAJSHAHI,TANORE,KRISHNAPUR,88.53711,24.55672,1816,1
CENTRAL COLLEGE,127137,College,RAJSHAHI,TANORE,MAHADEBPUR,88.61578,24.64033,1817,1
MADARIPUR IDEAL COLLEGE,127139,College,RAJSHAHI,TANORE,MADARIPUR,88.53558,24.61064,1818,1
KOYEL ADRASAHA COLLAGE,127147,College,RAJSHAHI,TANORE,KOIL,88.53811,24.64517,1819,1
SARANJI DEGREE COLLAGE,127141,College,RAJSHAHI,TANORE,SARANJAI,88.48894,24.57392,1820,1
MAHANAGAR MAHABIDDYALAYA,126491,College,RAJSHAHI,BOALIA,ASSAM COLONY,88.54603,24.54414,1821,1
RAJSHAHI GOVT. COMMERCIAL INSTITUTE,133460,College,RAJSHAHI,SHAH MAKHDUM,ROAD NAODA PARA,88.60839,24.41086,1822,1
METROPOLITAN  COLLEGE,126486,College,RAJSHAHI,SHAH MAKHDUM,PABA NATUN PARA,88.62569,24.40514,1823,1
RAJSHAHI COURT COLLEGE,127039,College,RAJSHAHI,RAJPARA,HAROGRAM PURBA PARA,88.60683,24.40425,1824,1
EVER GREEN MODEL COLLEGE,RAJSHAHI,131994,College,RAJSHAHI,SHAH MAKHDUM,SEKH PARA,88.55894,24.38075,1825,1
HAJI JAMIRUDDIN SHAFINA MOHILA COLLEGE,127037,College,RAJSHAHI,RAJPARA,BHATA PARA(HELENABID COLONU),88.57578,24.37094,1826,1
NEW GOVT. DEGREE COLLEGE,127038,College,RAJSHAHI,RAJPARA,KAZIHATA,88.57956,24.36381,1827,1
PUTHIA MOHILA DEGREE COLLEGE,127016,College,RAJSHAHI,PUTHIA,KANTHALBARIA (UTTAR),88.82939,24.38439,1828,1
PUTHIA ISLAMIA MOHILA COLLEGE,127015,College,RAJSHAHI,PUTHIA,KRISHNAPUR,88.81733,24.38783,1829,1
LASKHERPUR DEGREE MAHAVIDYA NIKETAN,127014,College,RAJSHAHI,PUTHIA,PUTHIA,88.83206,24.37267,1830,1
BANESWAR COLLEGE,127013,College,RAJSHAHI,PUTHIA,BANESHWAR,88.79519,24.38314,1831,1
BIRALDAH COLLEGE,127012,College,RAJSHAHI,PUTHIA,MAIPARA,88.77211,24.38417,1832,1
JAMIRA COLLEGE,127019,College,RAJSHAHI,PUTHIA,JAMIRA,88.73656,24.37825,1833,1
BELPUKURIA WOMENS COLLEGE,127011,College,RAJSHAHI,PUTHIA,BELPUKURIA,88.72608,24.34669,1834,1
IDEAL DEGREE COLLEGE,127010,College,RAJSHAHI,PUTHIA,BELPUKURIA,88.72736,24.34553,1835,1
DHOPA PARA MEMORIAL DEGREE COLLEGE,127021,College,RAJSHAHI,PUTHIA,DHOPA PARA,88.87919,24.37408,1836,1
POCHAMARIA DEGREE COLLEGE,127017,College,RAJSHAHI,PUTHIA,PACHAMARIA,88.89942,24.51108,1837,1
PANGU SHISHU NIKETON S A   DEGREE COLLEGE,127020,College,RAJSHAHI,PUTHIA,BIDIRPUR,88.80592,24.34922,1838,1
SHYAMPUR COLLEGE,126931,College,RAJSHAHI,PABA,SHYAMPUR MAULAVIPARA,88.67714,24.36575,1839,1
NAOHATA DEGREE COLLEGE,126933,College,RAJSHAHI,PABA,NOAHATA,88.66008,24.35606,1840,1
NOWHATA WOMEN'S DEGREE COLLEGE,126932,College,RAJSHAHI,PABA,MAHANANDAKHALI,88.65956,24.35586,1841,1
VERAPORA ADARSHA COLLEGE,126937,College,RAJSHAHI,PABA,HAIDARHAT,88.64867,24.48439,1842,1
DAMKURAHAT COLLEGE,126929,College,RAJSHAHI,PABA,MADHUPUR,88.66908,24.50281,1843,1
DARSHANPARA SHAHEED KAMRUZZAMAN COLLEGE,126936,College,RAJSHAHI,PABA,DARSHAN PARA,88.54733,24.48442,1844,1
KASHIA DANGA COLLEGE,126934,College,RAJSHAHI,PABA,KASHIADANGA (PART-B),88.54486,24.38472,1845,1
ADARSHA DEGREE COLLGE,126930,College,RAJSHAHI,PABA,HARIAN,88.67969,24.37906,1846,1
DANGER HAT  WOMENS  COLLEGE,131948,College,RAJSHAHI,PABA,SAHAPUR,88.55328,24.44478,1847,1
DARUSHA COLLEGE,126927,College,RAJSHAHI,PABA,SARISHAKURI,88.53575,24.44006,1848,1
HAT RAMCHANDRAPUR DEGREE COLLEGE,126935,College,RAJSHAHI,PABA,RAMCHANDRAPUR,88.68736,24.43781,1849,1
KABI KAZI NAZRUL ISLAM COLLEGE,126926,College,RAJSHAHI,PABA,KHARKHARIA,88.69711,24.40667,1850,1
MOTIHAR COLLEGE,131972,College,RAJSHAHI,MATIHAR,BAZE KAZLA PURBA,88.67014,24.42286,1852,1
ISLAMIA  COLLEGE,126482,College,RAJSHAHI,MATIHAR,BINODPUR,88.64181,24.36161,1853,1
KAMELA HAQUE DEGREE COLLEGE,126772,College,RAJSHAHI,MATIHAR,MIRZAPUR,88.64667,24.36089,1854,1
KHAL GRAM BISHNOPUR COLLAGE,126436,College,RAJSHAHI,BAGHMARA,KHALGRAM,88.64514,24.36778,1855,1
KESHAR HAT DEGREE COLLEGE,126840,College,RAJSHAHI,MOHANPUR,ROYGHATI,88.63175,24.36511,1856,1
DHAMIN NAOGAON IDEAL COLLEGE,126851,College,RAJSHAHI,MOHANPUR,DHAMIN NAOGAON,88.65936,24.37697,1857,1
KESHOR HAT WOMENS COLLEGE,126849,College,RAJSHAHI,MOHANPUR,ROYGHATI,88.67928,24.63075,1858,1
DHOPAGHATA DEGREE COLLEGE,126850,College,RAJSHAHI,MOHANPUR,GOBINDAPUR,88.64594,24.54678,1859,1
MOHANPUR GIRLS DEGREE COLLEGE,126847,College,RAJSHAHI,MOHANPUR,BAKSHIMAIL,88.651,24.561,1860,1
MOHON PUR DEGREE COLLEGE,126841,College,RAJSHAHI,MOHANPUR,BAKSHIMAIL,88.62581,24.51661,1861,1
MOHAN PUR MAHILA COLLEGE,126846,College,RAJSHAHI,MOHANPUR,SAIPARA,88.65397,24.56722,1862,1
ATRAI AGRANI DEGREE COLLEGE,126843,College,RAJSHAHI,MOHANPUR,ATRAI,88.67722,24.51414,1863,1
SHYAMPUR HAT  DEGREE  COLLEGE,126845,College,RAJSHAHI,MOHANPUR,SHYAMPUR,88.62806,24.60528,1864,1
PAKURIA  COLLEGE,126848,College,RAJSHAHI,MOHANPUR,TAHIRPUR,88.67722,24.55519,1865,1
DURGA PUR ADARSHA  WOMENS COLLEGE,131979,College,RAJSHAHI,MOHANPUR,DURGAPUR,88.70578,24.53764,1866,1
BASANTA KEDAR COLLEGE,126844,College,RAJSHAHI,MOHANPUR,BASANTA KEDAR,88.66067,24.51869,1867,1
MOUGACHHI  COLLEGE,126852,College,RAJSHAHI,MOHANPUR,BATU PARA,88.6305,24.51056,1868,1
GODARARI MAHILA DEGREE COLLEGE,126759,College,RAJSHAHI,GODAGARI,MAHISHALBARI,88.601,24.54528,1869,1
KAKAN HAT COLLEGE,126757,College,RAJSHAHI,GODAGARI,PANCH GACHHIA,88.31225,24.49131,1870,1
PALPUR DARAMPUR COLLEGE,126764,College,RAJSHAHI,GODAGARI,PALPUR,88.45578,24.39253,1871,1
RAJABARI MAHABIDDALAYA,126763,College,RAJSHAHI,GODAGARI,BIJOYNAGAR,88.518,24.45558,1873,1
GODAGARI  COLLEGE,126762,College,RAJSHAHI,GODAGARI,JOT GOSAIDAS,88.37858,24.46097,1874,1
PREMTALI DEGREE COLLEGE,126761,College,RAJSHAHI,GODAGARI,KANTHALBARIA,88.37108,24.41661,1875,1
MATIKATA ADARSHA DEGREE COLLEGE,126760,College,RAJSHAHI,GODAGARI,UJAN PARA,88.40072,24.42972,1876,1
PAKRI COLLEGE,126758,College,RAJSHAHI,GODAGARI,PAKRI,88.43844,24.50892,1877,1
DHOKRAKUL DEGREE COLLEGE,127018,College,RAJSHAHI,PUTHIA,DHOKRAKUL,88.44572,24.55778,1878,1
DURGAPURdigree COLLEGE,126659,College,RAJSHAHI,DURGAPUR,SINGA,88.75983,24.525,1879,1
DURGAPUR WOMANS COLLEGE,126664,College,RAJSHAHI,DURGAPUR,DURGAPUR KALIDAH,88.76014,24.44231,1880,1
DHARAMPUR COLLEGE,126665,College,RAJSHAHI,DURGAPUR,DHARMAPUR (PART),88.76758,24.44731,1881,1
BAKHTIARPUR DEGREE COLLEGE,126662,College,RAJSHAHI,DURGAPUR,LAKSHMAN KHALSI,88.71786,24.47347,1882,1
JHALUKA COLLEGE,126663,College,RAJSHAHI,DURGAPUR,JHALUKA,88.71981,24.43817,1883,1
HAT KANPARA ZOBEDA DEGREE COLLEGE,126661,College,RAJSHAHI,DURGAPUR,KHIDRA KHALSI,88.78119,24.42128,1884,1
DAOKANDI DEGREE COLLEGE,126660,College,RAJSHAHI,DURGAPUR,DAOKANDI,88.764,24.44394,1885,1
ALIPUR MODEL COLLEGE,126658,College,RAJSHAHI,DURGAPUR,ALIPUR,88.74117,24.50233,1886,1
NAOPARA COLLEGE,126666,College,RAJSHAHI,DURGAPUR,NOAPARA,88.79242,24.48636,1887,1
CHARGHAT WOMEN'S DEGREE COLLEGE,126587,College,RAJSHAHI,CHARGHAT,ARAZI SADIPUR,88.83719,24.31997,1888,1
SArDAH WOMEN'S COLLEGE,126588,College,RAJSHAHI,CHARGHAT,MOKTARPUR (EAST),88.75039,24.28553,1889,1
SARDAH MOHAVIDYALOYA,126582,College,RAJSHAHI,CHARGHAT,SARDAHA (WITH POLICE T.C),88.71731,24.31047,1890,1
CHARGHAT ALHAJJ M.A. HADI COLLEGE,126583,College,RAJSHAHI,CHARGHAT,CHARGHAT (SOUTH),88.74289,24.29308,1892,1
DAKRA DEGREE COLLEGE,126579,College,RAJSHAHI,CHARGHAT,DAKRA,88.82086,24.24581,1893,1
BHAYA LAXMIPUR BUDHIRHAT COLLEGE,126591,College,RAJSHAHI,CHARGHAT,BHAYA LAKSHMIPUR,88.80731,24.30047,1894,1
RAWTHA COLLEGE,126590,College,RAJSHAHI,CHARGHAT,RAOTA,88.76825,24.25386,1895,1
YOUSUFPUR COLLEGE,126580,College,RAJSHAHI,CHARGHAT,FUDKI PARA,88.72928,24.335,1896,1
SHAHID ZIAUR RAHMAN COLLEGE,126586,College,RAJSHAHI,CHARGHAT,GUABASNIA,88.69494,24.34322,1897,1
NANDANGA CHI DEGREE COLLEGE,126584,College,RAJSHAHI,CHARGHAT,BARKATPUR,88.83717,24.31942,1898,1
BORAL ADARSHO WOMEN COLLEGE,126589,College,RAJSHAHI,CHARGHAT,BARKATPUR,88.82819,24.33356,1899,1
SHOLUA DEGREE COLLEGE,126585,College,RAJSHAHI,CHARGHAT,DAULATPUR,88.78211,24.36225,1900,1
ARANI  DEGREE COLLEGE,126256,College,RAJSHAHI,BAGHA,JOTRAGHU (PART) UTTAR,88.79483,24.29611,1901,1
UPASHAHAR WOMANS COLLEGE,131993,College,RAJSHAHI,BOALIA,UPASHAHAR SECTION 2,88.8605,24.29111,1902,1
RAJSHAHI COLLEGE, RAJSHAHI,126490,College,RAJSHAHI,BOALIA,JOTE MAHESH,88.84303,24.25472,1903,1
MADAR BuX HOME ECONOMICS COLLEGE,127040,College,RAJSHAHI,BOALIA,NAMA BHADRA,88.62814,24.36203,1904,1
RAJSHAHI GOVT. CITY COLLEGE, RAJSHAHI,126489,College,RAJSHAHI,BOALIA,RAJAR HAT,88.59692,24.37964,1905,1
RAJSHAHI GOVT WOMEN'S COLLEGE, RAJSHAHI,126487,College,RAJSHAHI,BOALIA,KADERGANJ DARI KHARBONA,88.59519,24.36975,1906,1
SHAHID A.H.M. KAMARUZZAMAN DEGREE COLLEGE,126484,College,RAJSHAHI,BOALIA,UPASHAHAR SECTION 1,88.59981,24.36394,1907,1
ALHAJ SUJAUDDULA COLLEGE,126493,College,RAJSHAHI,BOALIA,CANTONMENT AREA,88.59836,24.38247,1908,1
BANGABANDHU DEGREE COLLEGE, RAJSHAHI,126485,College,RAJSHAHI,BOALIA,NAMA BHADRA,88.60153,24.37947,1909,1
SHAH MOKHDUM COLLEGE,126481,College,RAJSHAHI,BOALIA,PASCHIM RAMCHANDRAPUR,88.60222,24.36558,1910,1
BARENDRA COLLEGE,126488,College,RAJSHAHI,BOALIA,GHORAMARA,88.60578,24.3635,1911,1
BHABANIGONJ WOMENS DEGREE COLLEGE,126425,College,RAJSHAHI,BAGHMARA,DOGACHI,88.62569,24.3645,1912,1
BHABANIGANJ COLLEGE,126422,College,RAJSHAHI,BAGHMARA,BHAWABANI GONJ,88.60453,24.39267,1913,1
TAHERPUR DEGREE COLLEGE,126424,College,RAJSHAHI,BAGHMARA,TAHERPUR DAKSHIN,88.83569,24.58461,1915,2
DWIPNAGAR COLLEGE,126432,College,RAJSHAHI,BAGHMARA,DIPNAGAR,88.81658,24.55978,1916,1
HATGANGOPARA DEGREE COLLEGE,126426,College,RAJSHAHI,BAGHMARA,GANGA PARA,88.68781,24.63697,1917,1
M G (MOJOPARA HAT GANGOPARA) MOHILA COLLEGE,126435,College,RAJSHAHI,BAGHMARA,MAJH PARA,88.70581,24.58947,1918,1
SREEPUR RAMNAGAR DEGREE COLLEGE,126430,College,RAJSHAHI,BAGHMARA,SREEPUR RAMNAGAR,88.78714,24.56711,1919,1
DAMNASH COLLEGE,126434,College,RAJSHAHI,BAGHMARA,DAMNAS,88.73086,24.65583,1920,1
MARIA COLLEGE,126428,College,RAJSHAHI,BAGHMARA,MARIA,88.74139,24.677,1921,1
bagmra college,126423,College,RAJSHAHI,BAGHMARA,BAGHMARA,88.77653,24.54436,1922,1
MOHONGANJ DEGREE COLLEGE,126427,College,RAJSHAHI,BAGHMARA,MOHANGANJA,88.78731,24.54731,1923,1
SALEHA-IMARAT DEGREE COLLEGE,126419,College,RAJSHAHI,BAGHMARA,SANKOA,88.8605,24.58497,1924,1
PANIA NARDASH DEGREE COLLEGE,126420,College,RAJSHAHI,BAGHMARA,NARDAS,88.77683,24.62764,1925,1
GORSAR TECHNICALAND B.M.COLLEGEG,132031,College,RAJSHAHI,BAGHMARA,GORSAR,88.8085,24.65786,1926,1
NASIRGONJ COLLEGE,126431,College,RAJSHAHI,BAGHMARA,SHIMLA,88.76225,24.64625,1927,1
MACHMAIL DEGREE COLLEGE,126421,College,RAJSHAHI,BAGHMARA,MACHMAIL,88.75717,24.59733,1928,1
SAYEDPUR MOCHMOIL WOMENS COLLEGE,126433,College,RAJSHAHI,BAGHMARA,SAIADPUR,88.73356,24.62306,1929,1
ADARSHA TECHNICAL AND B. M. COLLEGE,132007,College,RAJSHAHI,BAGHMARA,CHANDPARA,88.73517,24.60647,1930,1
MOZAHAR HOSSAIN MOHILA DEGREE COLLEGE,126257,College,RAJSHAHI,BAGHA,UTTAR MILLIK BAGHA PURBA,88.84444,24.21817,1931,2
SHAHDOWLA DEGREE COLLEGE,126255,College,RAJSHAHI,BAGHA,MILLIK BAGHA PURBA,88.81803,24.20325,1932,1
BAUSHA  MOHABIDALAYA,126259,College,RAJSHAHI,BAGHA,BAUSA,88.88442,24.24175,1933,1
ShARIFABAD COLLEGE,126260,College,RAJSHAHI,BAGHA,SARIFABAD,88.84225,24.24506,1934,1
ABDUL  GANI COLLEGE,126258,College,RAJSHAHI,BAGHA,SARERHAT,88.88311,24.1555,1935,1
MIRGONZ COLLEGE,126262,College,RAJSHAHI,BAGHA,BHANUKAR,88.749,24.22856,1936,1
MONIGRAM ADARSHA COLLEGE,126263,College,RAJSHAHI,BAGHA,MANIGRAM,88.80969,24.21103,1937,1
AMRITAPUR DAKHIL MADRASA,127111,Madrasha,RAJSHAHI,TANORE,AZIZPUR,88.13539,24.6935,8855,1
CHINaSHO SENIOR ALIM MADRaSHA,127107,Madrasha,RAJSHAHI,TANORE,PACHANDAR,88.10589,24.68086,8856,1
MOYENPUR ALITOLA DAKHIL MADRASAh,127120,Madrasha,RAJSHAHI,TANORE,SHAMSPUR,88.12753,24.66392,8857,1
MuNDOMALa  balika DAKhIL MADRASAh,127125,Madrasha,RAJSHAHI,TANORE,SHAMSPUR,88.09608,24.67489,8858,1
SARAN JAI DAKHIL MADRASHA,127114,Madrasha,RAJSHAHI,TANORE,SARANJAI,88.58803,24.54633,8859,1
GOKUL MOTHURA DAKHIL MADRASHA,127121,Madrasha,RAJSHAHI,TANORE,GOKUL,88.55517,24.66964,8860,1
CHANDPUR DAKHIL MADRASHA,127113,Madrasha,RAJSHAHI,TANORE,CHANDPUR,88.46261,24.58611,8861,1
CHAPRA SHISHU SADON DAKHIL MADRASAH,127127,Madrasha,RAJSHAHI,TANORE,CHAPRA,88.54789,24.54486,8862,1
AL-MADRASAHTUL ISLAHIA MADRASHA,127112,Madrasha,RAJSHAHI,TANORE,PASCHIM TANORE,88.58108,24.61286,8863,1
TANORE POROSHOVA DAKHIL MADRASHA,127122,Madrasha,RAJSHAHI,TANORE,MATHURAPUR,88.57497,24.59,8864,1
JIOL DARUS SUNNAH DAKHIL MADRASHA,127118,Madrasha,RAJSHAHI,TANORE,ZIOL,88.57681,24.57667,8865,1
PACHANDAR MOHILA DAKHIL MADRASHA,127132,Madrasha,RAJSHAHI,TANORE,PACHANDAR,88.57556,24.55036,8866,1
MUNDUMALA KAMIL MADRASAH,127106,Madrasha,RAJSHAHI,TANORE,PACHANDAR,88.56872,24.54153,8867,1
BODDOPUR DARUS SALAM DAKHIL MADRASHA,127119,Madrasha,RAJSHAHI,TANORE,BAIDYAPUR,88.46883,24.57889,8868,1
DIBBOSTHOLI DAKHIL MADRA ASH,127126,Madrasha,RAJSHAHI,TANORE,DIBYASTHALI,88.50722,24.66786,8869,1
KALMA ISLAMIA ALIM MADRASHA,127110,Madrasha,RAJSHAHI,TANORE,KALMA,88.53261,24.6665,8870,1
NORIAL DARUL HADIS ISLAMIA ALIM  MADRASAH,127116,Madrasha,RAJSHAHI,TANORE,PIPRA,88.51642,24.68781,8871,1
KADIRPUR DAKHIL MADRASAH,127131,Madrasha,RAJSHAHI,TANORE,KADIRPUR,88.56839,24.65794,8872,1
KRISNAPUR BAITUL NUR GIRLS DAKHIL MADRASAH,127129,Madrasha,RAJSHAHI,TANORE,KRISHNAPUR,88.52622,24.587,8873,1
HAPANIA DOGACHI JANNATUL ULUL ALIM MADRASHA,127109,Madrasha,RAJSHAHI,TANORE,HAPANIA,88.61058,24.63544,8874,1
DEWLA DAKHILL MADRASHA,127128,Madrasha,RAJSHAHI,TANORE,DEULA,88.60769,24.64256,8875,1
RAJSHAHI DARUS SALAM KAMIL MADRASHA,127036,Madrasha,RAJSHAHI,RAJPARA,MOHISH BATHAN,88.56678,24.3825,8876,1
MOSZID-E-NOOR DAKHIL MADRASA,126479,Madrasha,RAJSHAHI,RAJPARA,BIL SIMLA (OLD),88.57397,24.36881,8877,1
DIGHAL KANDI DAKHIL MADRASHA,126994,Madrasha,RAJSHAHI,PUTHIA,DIGHALKANDI,88.75439,24.36658,8878,1
BIRALDAH S.K.A.D.S FAZIL MADRASHA,126996,Madrasha,RAJSHAHI,PUTHIA,MAIPARA,88.79908,24.36683,8879,1
MONGOL PARA DAKHIL MADRASHA,126998,Madrasha,RAJSHAHI,PUTHIA,MANGAL PARA,88.78833,24.38033,8880,1
JAMIRA JAMIA ISLAMIA ALIM MADRASHA,127002,Madrasha,RAJSHAHI,PUTHIA,JAMIRA,88.74883,24.39767,8881,1
BHALUCK GACHI PACHANI PARA DAKHIL MADRASHA,126995,Madrasha,RAJSHAHI,PUTHIA,TARAF BHALUKGACHHI,88.72489,24.36703,8882,1
CHAKDOMADI AYNUL ULUM ALIM MADRASAH,127001,Madrasha,RAJSHAHI,PUTHIA,CHAK DAMADI,88.83292,24.39922,8883,1
DHOPAPARA MOHONPUR ALIM MADRASAH,126997,Madrasha,RAJSHAHI,PUTHIA,DHOPA PARA,88.8885,24.42575,8884,1
KANDRA DAKHIL MADRASHA,127003,Madrasha,RAJSHAHI,PUTHIA,KANDRA,88.85211,24.41042,8885,1
SATBARIA DAKHIL MADRASAH,127006,Madrasha,RAJSHAHI,PUTHIA,SATBARIA,88.86878,24.39806,8886,1
AMRITA PARA DAKHIL MADRASAH,127000,Madrasha,RAJSHAHI,PUTHIA,AMRITA PARA,88.87942,24.48019,8887,1
KAPASIA DAKHIL MADRASA,126925,Madrasha,RAJSHAHI,PABA,KAPASIA,88.84678,24.46503,8888,1
SHYMPUR DAKHIL MADRASHA,126923,Madrasha,RAJSHAHI,PABA,SHYAMPUR MAULAVIPARA,88.87775,24.48197,8889,1
NAOHATA SALEHIA DARUSSUNNAT FAZIL MADRASAH,126905,Madrasha,RAJSHAHI,PABA,NOAHATA,88.68381,24.35742,8890,1
NAWHATTA ANJUMANE TAWHEED DAKHIL MADRASHA,126903,Madrasha,RAJSHAHI,PABA,NOAHATA,88.67344,24.36836,8891,1
TEGHOR DAKHIL MADRASHA,126921,Madrasha,RAJSHAHI,PABA,TEGHAR,88.61539,24.45542,8892,1
THALTA DAKHIL MADRASHA,126920,Madrasha,RAJSHAHI,PABA,THALTA,88.61125,24.46453,8893,1
SINDUR KUSUMBI NAMOPARA DAKHIL MADRASHA,126912,Madrasha,RAJSHAHI,PABA,SONA PARA,88.5895,24.47447,8894,1
DADPUR Dakhil  MADRASHA,126907,Madrasha,RAJSHAHI,PABA,DADPUR,88.70042,24.50256,8895,1
SHANTINAGAR DAKHIL MADRASHA,126924,Madrasha,RAJSHAHI,PABA,HARISAR DAING,88.678,24.50492,8896,1
SITLAI RAFATULLAH ALIM MADRASAH,126904,Madrasha,RAJSHAHI,PABA,SITLAI,88.66411,24.47372,8897,1
BAGSOIL DAKHIL MADRASAH,126916,Madrasha,RAJSHAHI,PABA,BAGHSAIL,88.55353,24.41703,8898,1
TALUK DHARMOPUR DAKHIL MADRASA,126918,Madrasha,RAJSHAHI,PABA,TALUK DHARMAPUR,88.55342,24.41706,8899,1
ALIGANJ DARUS SUNNAT ALIM MADRASAH,126910,Madrasha,RAJSHAHI,PABA,ALIGANJ,88.58342,24.38633,8900,1
DEWAN MOHAMMADIA ALIM MADRASHA,126913,Madrasha,RAJSHAHI,PABA,BALIA,88.54697,24.38436,8901,1
DARUL ISLAM DAKHIL MADRASHA,126919,Madrasha,RAJSHAHI,PABA,KUKHANDI,88.53792,24.38089,8902,1
ZAGIR PARA DARUL ULUM DAKHIL MADRASHA,126909,Madrasha,RAJSHAHI,PABA,JAGIR,88.54558,24.38408,8903,1
KHOLABONA ALIM MADRASHA,126911,Madrasha,RAJSHAHI,PABA,KASBA,88.70544,24.39347,8904,1
DARUSHA KENDRIO DAKHIL MADRASHA,126906,Madrasha,RAJSHAHI,PABA,HUZURI PARA,88.49581,24.37072,8905,1
DARUSHA ISLAMIA DAKHIL MADRASAH,126917,Madrasha,RAJSHAHI,PABA,HUZURI PARA,88.57761,24.44156,8906,1
TENTULIA DANGA S.U. DAKHIL MADRASHA,126908,Madrasha,RAJSHAHI,PABA,TENTULIA DANGA,88.55633,24.44689,8907,1
BASHIRABAD DAWATUL ISLAM ALIM MADRASAH,126915,Madrasha,RAJSHAHI,PABA,KECHUATAIL,88.64872,24.39508,8908,1
PURAPUKUR DAKHIL MADRASHA,126922,Madrasha,RAJSHAHI,PABA,PURAPUKUR,88.64892,24.39914,8909,1
SARANGPUR DAKHIL MADRASHA,126914,Madrasha,RAJSHAHI,PABA,SARANGPUR,88.63753,24.42047,8910,1
RAJSHAHI DARUS SUNNAH DAKHILA MADRASA,126771,Madrasha,RAJSHAHI,MATIHAR,GOPAIL,88.64183,24.36156,8911,1
BUDHPARA ALIM MADRASHA,126480,Madrasha,RAJSHAHI,MATIHAR,BUDHPARA,88.64353,24.3665,8912,1
SaIDHARA MAHILA DAKHIL MADRASHA,126409,Madrasha,RAJSHAHI,BAGHMARA,SAIDHARA,88.64372,24.36619,8913,1
BAKSOIL MOHILA DAKHIL MADRASAH,126836,Madrasha,RAJSHAHI,MOHANPUR,BARAIL,88.65294,24.59464,8914,1
SHAKOWA BAKSOIL KAMIL MADRASHA,126821,Madrasha,RAJSHAHI,MOHANPUR,SAKOA,88.654,24.59094,8915,1
KALIGAO KHAJURA DAKHIL MADRASHA,126835,Madrasha,RAJSHAHI,MOHANPUR,MAUGACHHI,88.64003,24.52264,8916,1
MOHANPUR MOHILA DAKHIL MADRASHA,126839,Madrasha,RAJSHAHI,MOHANPUR,MOHANPUR,88.65925,24.52206,8917,1
DHURAIL ISLAMIA GIRLS DAKHIL MADRASHA,126831,Madrasha,RAJSHAHI,MOHANPUR,DHURAIL,88.63725,24.58694,8918,1
CHAK KRISHNAPUR ISLAMIA DAKHIL MADRASHA,126833,Madrasha,RAJSHAHI,MOHANPUR,CHAK KRISHNAPUR,88.66425,24.59972,8919,1
DHURAIL D. S KAMIL MADRASAH,126822,Madrasha,RAJSHAHI,MOHANPUR,DHURAIL,88.60347,24.54561,8920,1
PANCHPARA DARUL FALAH DAKHIL MADRASAH,126832,Madrasha,RAJSHAHI,MOHANPUR,PANCH PARA,88.58342,24.53119,8921,1
MOHOABBOTPUR DARUL ULUM ALIM MADRASA,126824,Madrasha,RAJSHAHI,MOHANPUR,MAHABBATPUR,88.60497,24.56144,8922,1
GOCHHA DAKHIL MADRASA,126834,Madrasha,RAJSHAHI,MOHANPUR,GOCHHA,88.60247,24.53022,8923,1
MOHANPUR HASSANIA T.M. ALIM MADRASHA,126827,Madrasha,RAJSHAHI,MOHANPUR,MOHANPUR,88.63469,24.56664,8924,1
ATRAI ALIM MADRASHA,126826,Madrasha,RAJSHAHI,MOHANPUR,ATRAI,88.62236,24.59122,8925,1
MOHISKUNDI DAKHIL MADRASAH,126823,Madrasha,RAJSHAHI,MOHANPUR,MAHISHKUNDI,88.61056,24.58636,8926,1
KOTALIPARA  & HASNABAD DAKHIL MADRASAH,126820,Madrasha,RAJSHAHI,MOHANPUR,DHORSA,88.70289,24.52506,8927,1
JAHANABAD DAKHIL MADRASA,126819,Madrasha,RAJSHAHI,MOHANPUR,JAHANABAD,88.70511,24.54011,8928,1
NAOGAON DAKHIL MADRASAH,126838,Madrasha,RAJSHAHI,MOHANPUR,DHAMDAMA HATRA,88.69297,24.51992,8929,1
BASANTA KADER DARUSSUNNAT DAKHIL MADRASHA,126829,Madrasha,RAJSHAHI,MOHANPUR,BASANTA KEDAR,88.63681,24.48469,8930,1
GOPALPUR DARUL HADIS DAKHIL MADRASA,126837,Madrasha,RAJSHAHI,MOHANPUR,GOPALPUR,88.58964,24.50322,8931,1
MOWPARA DAKHIL MADRASHA,126828,Madrasha,RAJSHAHI,MOHANPUR,MAKHANPUR,88.65828,24.51094,8932,1
HATRA DAKHIL MADRASA,126830,Madrasha,RAJSHAHI,MOHANPUR,KHIDRA HATRA,88.65622,24.50219,8933,1
LALOEACH ALIM MADRASA,126825,Madrasha,RAJSHAHI,MOHANPUR,LALOCH,88.63167,24.51031,8934,1
VAGNA MANIK KONNA DAKHIL MADRASAH,127124,Madrasha,RAJSHAHI,TANORE,MANIK KANYA,88.67156,24.62908,8935,1
DARUL ULUM MOHILA FAZIL MADRASA,126731,Madrasha,RAJSHAHI,GODAGARI,MAHISHALBARI,88.65264,24.62894,8936,1
SHAH SULTAN (RH) KAMIL KAMIL MADRASAH,126732,Madrasha,RAJSHAHI,GODAGARI,MAHISHALBARI,88.64267,24.57394,8937,1
AYESHA SABER ALIM MADRASAH,126743,Madrasha,RAJSHAHI,GODAGARI,JOT GOSAIDAS,88.32942,24.46,8938,1
AL JAMIATUS SALAFIA ALIM MADRASAH,126741,Madrasha,RAJSHAHI,GODAGARI,JAHANABAD,88.33092,24.46086,8939,1
KAKON HAT FAZIL MADRASA,126740,Madrasha,RAJSHAHI,GODAGARI,SUNDARPUR (PART),88.32972,24.45925,8940,1
CHAR KASIMPUR ALIM MADRASHA,126733,Madrasha,RAJSHAHI,GODAGARI,HATNABAD,88.47056,24.53467,8941,1
RAHMANIA DAKHIL MADRASAH,126750,Madrasha,RAJSHAHI,GODAGARI,BADALBARAI PARA,88.33764,24.38664,8942,1
DHARAMPUR PALPUR ALIM MADRASHA,126739,Madrasha,RAJSHAHI,GODAGARI,DHARAMPUR,88.50817,24.44258,8943,1
KADAM SAHAR DAKHIL MADRASAH,126746,Madrasha,RAJSHAHI,GODAGARI,DEOPARA,88.453,24.39367,8944,1
GODAGARI DAKHIL MADRASAH,126753,Madrasha,RAJSHAHI,GODAGARI,RATAHARI,88.40872,24.50331,8945,1
RAJARAM PUR CHATRA DARUL HADITH  ALIM MADRASA,126728,Madrasha,RAJSHAHI,GODAGARI,RAJARAMPUR,88.40378,24.52589,8946,1
BOLIADAYING ISLAHUL MOSLEMIN DHAKHIL MADRASHA,126727,Madrasha,RAJSHAHI,GODAGARI,BALIADAING,88.46117,24.43767,8947,1
GOGRAM DAKHIL MADRASHA,126752,Madrasha,RAJSHAHI,GODAGARI,KANAITKUNDA,88.41583,24.42544,8948,1
KUMAR PUR HAZRAT SHA ALI KULIBEG ALIM MADRASHA,126738,Madrasha,RAJSHAHI,GODAGARI,RANINAGAR,88.41586,24.45236,8949,1
GOGRAM TE T. KA DAKHIL MADRASHA,126751,Madrasha,RAJSHAHI,GODAGARI,TERA PARA,88.45844,24.438,8950,1
PIRIJPUR ALIM MADRASHA,126744,Madrasha,RAJSHAHI,GODAGARI,PIRIJPUR,88.38072,24.45047,8951,1
UZANPARA ISLAMIA DAKHIL MADRASHA,126729,Madrasha,RAJSHAHI,GODAGARI,UJAN PARA,88.34286,24.44669,8952,1
PREMTOLI JASIMUDDIN DAKHIL MADRASAH,126756,Madrasha,RAJSHAHI,GODAGARI,KHETUR,88.38522,24.40372,8953,1
LALITNAGAR (BHUSNA) MAHILA ALIM MADRASHA,126730,Madrasha,RAJSHAHI,GODAGARI,BHUSNA,88.40625,24.39511,8954,1
BAUTIA DAKHIL MADRASHA,126735,Madrasha,RAJSHAHI,GODAGARI,BAUTIA,88.34872,24.444,8955,1
MOHANPUR DARGAPARA ALIM MADRASah,126742,Madrasha,RAJSHAHI,GODAGARI,MOHANPUR,88.42531,24.57844,8956,1
JHINA DAKHIL MADRASHA,126748,Madrasha,RAJSHAHI,GODAGARI,JHINA,88.32578,24.56306,8957,1
PANCH GACHIA NABINAGAR DAKHIL MADRASAH,126736,Madrasha,RAJSHAHI,GODAGARI,GOSIRA,88.43381,24.55989,8958,1
MOSRA ISLAMIA DAKHIL MADRASAH,126754,Madrasha,RAJSHAHI,GODAGARI,PAKRI,88.47456,24.55539,8959,1
PAKRI DAKHIL MADRASAH,126755,Madrasha,RAJSHAHI,GODAGARI,PAKRI,88.47311,24.55531,8960,1
CHABBISH NAGAR WAKFA DAKHIL MAERASHA,126749,Madrasha,RAJSHAHI,GODAGARI,CHHABBISHNAGAR ARAZI,88.47631,24.55303,8961,1
PALASHI BABUL AMAN DAKHIL MADRASAH,126745,Madrasha,RAJSHAHI,GODAGARI,PALASHI,88.43578,24.56028,8962,1
RISHIKUL DAKHIL MADRASHA,126747,Madrasha,RAJSHAHI,GODAGARI,RISHIKUL,88.52183,24.52444,8963,1
KRISNOPUR BITUL AMAN DAKHIL MADRASHA,127130,Madrasha,RAJSHAHI,TANORE,KRISHNAPUR,88.49886,24.47244,8964,1
BHABANIPUR DAKHIL MADRASHA,127108,Madrasha,RAJSHAHI,TANORE,BHABANIPUR,88.51392,24.52478,8965,1
JAMIOT DKHAIL MADERASH,126380,Madrasha,RAJSHAHI,BAGHMARA,TAHERPUR DAKSHIN,88.47172,24.54619,8966,1
DHOKRAKUL ALIM MADRASAH,126999,Madrasha,RAJSHAHI,PUTHIA,DHOKRAKUL,88.46406,24.5625,8967,1
BAHRAMPUR DARUL ULUM DAKHIL MADRASHA,126647,Madrasha,RAJSHAHI,DURGAPUR,BAHARAMPUR,88.86336,24.45594,8968,1
JOYKRISNOPUR ISLAMIA DAKHIL MADRASA,126655,Madrasha,RAJSHAHI,DURGAPUR,JOYKRISHNAPUR (PART),88.85119,24.44839,8969,1
DURGAPUR FAZIL MADRASHA,131441,Madrasha,RAJSHAHI,DURGAPUR,DURGAPUR KALIDAH,88.76497,24.4455,8970,1
KISHOR PUR DAKHIL MADRASHA,126649,Madrasha,RAJSHAHI,DURGAPUR,KISHOREPUR,88.79939,24.462,8971,1
SHRIDHAR PUR DAKHIL MADRASHA,126650,Madrasha,RAJSHAHI,DURGAPUR,DELUABARI,88.71356,24.47436,8972,1
RAGHUNATHPUR ISLAMIA DAKHIL MADRASAH,126642,Madrasha,RAJSHAHI,DURGAPUR,RAGHUNATHPUR,88.7995,24.46419,8973,1
GOPINATHPUR  DAKHIL MADRASAH,126641,Madrasha,RAJSHAHI,DURGAPUR,GOPINATHPUR,88.81114,24.44861,8974,1
GOWRIHAR AL ARABIA DAKHIL MADRASHA,126654,Madrasha,RAJSHAHI,DURGAPUR,GAWRIHAR,88.8315,24.45253,8975,1
GAUSUL AZAM DAKHIL MADRASHA,126653,Madrasha,RAJSHAHI,DURGAPUR,JHALUKA,88.71825,24.42194,8976,1
DAUDKANDI DAKHIL MADRASA,126651,Madrasha,RAJSHAHI,DURGAPUR,DAOKANDI,88.72089,24.41953,8977,1
SHUKHAN DIGHI DAKHIL MADRASHA,126640,Madrasha,RAJSHAHI,DURGAPUR,SUKHAN DIGHI,88.70306,24.46931,8979,1
AROIL DAKHIL MADRASHA,126657,Madrasha,RAJSHAHI,DURGAPUR,ARAIL,88.83642,24.47956,8981,1
BARAIL ISLAMIA DAKHIL MADRASA,126652,Madrasha,RAJSHAHI,DURGAPUR,BARIL,88.68406,24.47944,8982,1
HOZA ANNANTAKANDI DAKHIL MADRASHA,126646,Madrasha,RAJSHAHI,DURGAPUR,HOJA ANANTAKANDI,88.82483,24.50903,8983,1
ALIPUR ISLAMIA ALIM MADRASAH,126643,Madrasha,RAJSHAHI,DURGAPUR,ALIPUR,88.79178,24.48836,8984,1
GOPALPUR DAKHIL MADRASHA,126645,Madrasha,RAJSHAHI,DURGAPUR,GOPALPUR,88.79772,24.43989,8985,1
NAOPARA DAKHIL MADRASHA,126656,Madrasha,RAJSHAHI,DURGAPUR,NOAPARA,88.76317,24.50072,8986,1
NANDIGRAM DARUS SALAM ALIM MADRASHA,126644,Madrasha,RAJSHAHI,DURGAPUR,NANDIGRAM,88.76378,24.5115,8987,1
SARDAH ALIM MADRASA,126570,Madrasha,RAJSHAHI,CHARGHAT,ARAZI SADIPUR,88.77408,24.33625,8988,1
MILIK LAXMIPUR DARUL ULUM Dakhil MADRASAH,126577,Madrasha,RAJSHAHI,CHARGHAT,MILIK LAKSHMIPUR,88.81997,24.26311,8990,1
VIALAXMIPUR DARUS SALAM DAKHIL MADRASA,126568,Madrasha,RAJSHAHI,CHARGHAT,BHAYA LAKSHMIPUR,88.83372,24.26675,8991,1
MUNGLI DARUS SUNNAH DAKHIL MADRASHA,126576,Madrasha,RAJSHAHI,CHARGHAT,MANGLI,88.77817,24.28689,8992,1
PANSH BARIA ERSHADIA ALIM MADRASHA,126572,Madrasha,RAJSHAHI,CHARGHAT,PANCHBARIA,88.75292,24.28367,8993,1
GOBINDAPUR ISLAMIA DAHKIL MADRASA,126571,Madrasha,RAJSHAHI,CHARGHAT,GOBINDAPUR,88.69667,24.34714,8994,1
KALUHATI Dakhil  MADRASAH,126578,Madrasha,RAJSHAHI,CHARGHAT,KALUHATI,88.84094,24.34028,8995,1
HABIBPUR ALIM MADRASA,126573,Madrasha,RAJSHAHI,CHARGHAT,HABIBPUR,88.82319,24.30731,8996,1
OMARGARI DARUL KHAER DIMUKHI kamil MADRASA,126574,Madrasha,RAJSHAHI,CHARGHAT,NIMPARA,88.83592,24.28256,8997,1
BALUDIAR DAKHIL MADRASA,126569,Madrasha,RAJSHAHI,CHARGHAT,FATEHPUR,88.769,24.31406,8998,1
ARANI DAKHIL MADRASAH,126247,Madrasha,RAJSHAHI,BAGHA,ARANI BAZAR,88.74947,24.31383,9000,1
TALAIMARI DARUL ULUM DAKHIL MADRASA,126476,Madrasha,RAJSHAHI,BOALIA,PASCHIM TALAIMARI,88.85983,24.29772,9001,1
RAJSHAHI WOMEN FAZIL  MADRASAH,126478,Madrasha,RAJSHAHI,BOALIA,RAMPUR BAZAR,88.60836,24.37356,9002,1
MADINATUL ULUM KAMAL MADRASAH,126477,Madrasha,RAJSHAHI,BOALIA,UPAR BHADRA,88.60556,24.36747,9003,1
UTTAR EKDALA DAKHIL MADRASAH,126374,Madrasha,RAJSHAHI,BAGHMARA,UTTAR AKDALA,88.61939,24.37011,9004,1
BHABANIGONJ ISLAMIA FAZIL MADRASAH,126398,Madrasha,RAJSHAHI,BAGHMARA,BHAWABANI GONJ,88.60528,24.39153,9005,1
KHAJAPARA ISLAMIA MOHILA DAKHIL MADRASHA,126416,Madrasha,RAJSHAHI,BAGHMARA,KHAZAPARA,88.82594,24.58058,9006,1
TAHIRPUR FAZIL MADRASH,126371,Madrasha,RAJSHAHI,BAGHMARA,TAHERPUR DAKSHIN,88.83542,24.58475,9007,1
KARNIPARA SADAPARA DAKHIL MADRASHA,126385,Madrasha,RAJSHAHI,BAGHMARA,KARNIPRA,88.83531,24.58483,9008,1
JAGANNATHPUR MOHILA DAKHIL MADRASHA,126382,Madrasha,RAJSHAHI,BAGHMARA,TAHERPUR DAKSHIN,88.82697,24.57528,9009,1
BELGHRIA HAT FAZIL MADRASHA,126379,Madrasha,RAJSHAHI,BAGHMARA,BELGHARIA HAT,88.69319,24.59781,9010,1
KONDA ISLAMIA DAKHIL MADRASHA,126414,Madrasha,RAJSHAHI,BAGHMARA,KONDA,88.71561,24.58619,9011,1
ENDROPUR DAKHIL MADRASHA,126391,Madrasha,RAJSHAHI,BAGHMARA,INDRAPUR,88.71317,24.60244,9012,1
KUSHALPUR DHKHIL MADRASAH,126376,Madrasha,RAJSHAHI,BAGHMARA,KUSALPUR,88.70653,24.57436,9013,1
RAKHIT PARA DIMUKHI DEAKHIL MADRASHA,126386,Madrasha,RAJSHAHI,BAGHMARA,RAKSHIT PARA,88.70639,24.60325,9014,1
BARABIHANLI DAKHIL MADRASAH,126395,Madrasha,RAJSHAHI,BAGHMARA,BARA BIHANALI,88.85256,24.62631,9015,1
BIRKOYA DAKHIL MADRASAH,126367,Madrasha,RAJSHAHI,BAGHMARA,KALIKAPUR,88.79003,24.58708,9016,1
BALANAGAR FAZIL MADRASAH,126370,Madrasha,RAJSHAHI,BAGHMARA,BALANAGAR,88.76808,24.59797,9017,1
GOPALPUR ISLAMIA ALIM MADRASHA,126375,Madrasha,RAJSHAHI,BAGHMARA,GOPALPUR,88.76961,24.59372,9018,1
NANDANPUR MOHILA DAKHIL MADRASHA,126405,Madrasha,RAJSHAHI,BAGHMARA,NANDANPUR,88.84658,24.51803,9019,1
NORDHINGHPUR BANDAIGHA FAZIL MADRASHA,126369,Madrasha,RAJSHAHI,BAGHMARA,NARASINGHAPUR,88.84753,24.51919,9020,1
SREEPUR RAMNAGAR ALIM MADRASAH,126393,Madrasha,RAJSHAHI,BAGHMARA,SREEPUR RAMNAGAR,88.80175,24.62375,9021,1
KHAPUR DAKHIL MADRASHA,126248,Madrasha,RAJSHAHI,BAGHMARA,KHANPUR,88.82208,24.63156,9022,1
GOALKANDI DAKHIL MADRASH,126378,Madrasha,RAJSHAHI,BAGHMARA,GOALKANDI,88.83767,24.53978,9023,1
HAT DAMNASH DAKHIL MADRASAH,126402,Madrasha,RAJSHAHI,BAGHMARA,DAMNAS,88.87258,24.54678,9024,1
KARAKHANDA DHAKHIL MADRASH,126404,Madrasha,RAJSHAHI,BAGHMARA,KARKHANDA,88.70053,24.64447,9025,1
AKDALA DAKIL MADRASHA,126387,Madrasha,RAJSHAHI,BAGHMARA,TAHIR EKDALA,88.75906,24.55853,9026,1
MADHAIMURI ISLAMIA DHAKHIL MADRASHA,126394,Madrasha,RAJSHAHI,BAGHMARA,MADHAIMURI,88.74083,24.54203,9027,1
HAMIRKUTSHA D.U.D. MADRASHA,126383,Madrasha,RAJSHAHI,BAGHMARA,HAMIR KUTSHA,88.74469,24.52381,9028,1
KONaBARIA DAKHIL MADRASH,126403,Madrasha,RAJSHAHI,BAGHMARA,KONABARIA,88.80639,24.55997,9029,1
JHIKRA ISLAMIA DAKHIL MADRASHA,126384,Madrasha,RAJSHAHI,BAGHMARA,JHIKRA,88.87231,24.56033,9030,1
JHAR GRAM FAZIL MADRASA,126373,Madrasha,RAJSHAHI,BAGHMARA,JHARGAON,88.86475,24.61069,9031,1
KUDAPARA AHADIA DHAKHIL MADRASHA,126399,Madrasha,RAJSHAHI,BAGHMARA,KUDA PARA,88.86725,24.60533,9032,1
BHATKHALI ISLAMIA ALIM MADRASHA,126389,Madrasha,RAJSHAHI,BAGHMARA,BHATKHALI,88.90992,24.611,9033,1
NAKHOPARA ISAMIA DAKHIL MADRASHA,126411,Madrasha,RAJSHAHI,BAGHMARA,NAKH PARA,88.911,24.58011,9034,1
JATRA GACHI KAMIL  MADRASHA,126372,Madrasha,RAJSHAHI,BAGHMARA,JATRAGACHHI,88.80419,24.62147,9035,1
HAT MADNAGAR ALIM MADRASAH,126390,Madrasha,RAJSHAHI,BAGHMARA,HAT MADHNAGAR,88.78525,24.6515,9036,1
KUMARPUR ARZANIA ALIM MADRASHA,126397,Madrasha,RAJSHAHI,BAGHMARA,KUMAR PUR,88.77758,24.62756,9037,1
KOALIPARA ISLAMIYA DAKHIL MADRASHA,126415,Madrasha,RAJSHAHI,BAGHMARA,NARDAS,88.76106,24.64697,9038,1
NORDASH DAKHIL MADRASAH,126410,Madrasha,RAJSHAHI,BAGHMARA,NARDAS,88.75139,24.62803,9039,1
SUJONPALSHA MOHILA DHAKIL MADRASHA,126407,Madrasha,RAJSHAHI,BAGHMARA,SUJAN PALSA,88.76147,24.64611,9040,1
SONADANGA BHARHATTA ALIM MADRASAH,126381,Madrasha,RAJSHAHI,BAGHMARA,BHARATTA,88.76731,24.64264,9041,1
ISMAILPUR DAKHIL MDRASHA,126392,Madrasha,RAJSHAHI,BAGHMARA,ISMAILPUR,88.79642,24.67433,9042,1
SREEPUR ISLAMIA DAKHIL MADRASAH,126396,Madrasha,RAJSHAHI,BAGHMARA,SREEPUR,88.79211,24.53264,9043,1
BARIGRAM DAKHIL MADRASAH,126377,Madrasha,RAJSHAHI,BAGHMARA,BARIGAON,88.75419,24.61369,9044,1
BUJRUK KOUR DAKHIL MADRASAH,126388,Madrasha,RAJSHAHI,BAGHMARA,BUZRUKPUR,88.73181,24.57892,9045,1
PAIKPARA DAKHIL MADRASAH,126408,Madrasha,RAJSHAHI,BAGHMARA,PAIK PARA,88.73617,24.58011,9046,1
MACHMOIL DAKHIL MADRASHA,126400,Madrasha,RAJSHAHI,BAGHMARA,MACHMAIL,88.71669,24.56783,9047,1
BAGHA HAZRAT SHAH ABDUL HAMID DANISH MAND FAZIL MADRASAH,126246,Madrasha,RAJSHAHI,BAGHA,BAJUBAGHA,88.83547,24.19603,9048,1
ARANI CHAKAR PARA DAKHIL MADRASAH,126253,Madrasha,RAJSHAHI,BAGHA,NURNAGAR (PART),88.83994,24.19486,9049,1
BAUSHA HEDATIPARA DAKHIL MADRAHSHA,126252,Madrasha,RAJSHAHI,BAGHA,BAUSA,88.88319,24.26417,9050,1
SULTANPUR GORSTHAN DAKHIL MADRASAH,126254,Madrasha,RAJSHAHI,BAGHA,SULTANPUR,88.82753,24.18714,9051,1
SHARERHAT DARUL ULUM DAKHIL MADRASHA,126251,Madrasha,RAJSHAHI,BAGHA,SARERHAT,88.84442,24.18189,9052,1
MONIGRAM DAKHIL MADRASAH,126245,Madrasha,RAJSHAHI,BAGHA,TULSIPUR,88.85933,24.17364,9053,1
PARSAWTA HAZRAT SHAH SUFI BAGHU DEWAN RJ ALIM MADRASAH,126249,Madrasha,RAJSHAHI,BAGHA,PARSAOTA,88.75964,24.21158,9054,1
JOT KADIRPUR DAKHIL MADRASAH,126250,Madrasha,RAJSHAHI,BAGHA,JOT KADIRPUR,88.76942,24.20422,9055,1
CHAPRA HIGH SCHOOL,127070,School,RAJSHAHI,TANORE,CHAPRA,88.47267,24.60394,22579,1
TANORE PILOT HIGH SCHOOL,127044,School,RAJSHAHI,TANORE,TANORE PURBA,88.58989,24.63022,22580,1
TANORE GIRLS HIGH SCHOOL,127063,School,RAJSHAHI,TANORE,PASCHIM TANORE,88.546,24.58783,22581,1
TANORE PAURASHAVA HIGH SCHOOL,127085,School,RAJSHAHI,TANORE,AMSU,88.58153,24.61228,22582,1
AKCHA HIGH SCHOOL,127064,School,RAJSHAHI,TANORE,RAYTAN AKHCHHA,88.57208,24.59506,22583,1
KALIGONJHAT HIGH SCHOOL,127077,School,RAJSHAHI,TANORE,PASCHIM RAYTAN BARSHOW,88.57986,24.60047,22584,1
DANGAPARA JUNIOR SCHOOL,127101,School,RAJSHAHI,TANORE,DANGA PARA,88.57536,24.58878,22585,1
CHUNIA PARA HAJI EKTER ALI HIGH SCHOOL,127045,School,RAJSHAHI,TANORE,CHUNIA PARA,88.57775,24.56264,22586,1
SATPUKURIA HIGH SCHOOL,127061,School,RAJSHAHI,TANORE,JHINAR PARA,88.49164,24.60131,22587,1
MOYEnPUR HIGH SCHOOL,127067,School,RAJSHAHI,TANORE,MAINPUR,88.50136,24.59386,22588,1
BAHARAIL  BoRENDRO HIGH SCHOOL,127069,School,RAJSHAHI,TANORE,BHANDAL,88.46742,24.60789,22589,1
JHINAIKHOR JUNIOR SECONDARY SCHOOL,127104,School,RAJSHAHI,TANORE,JHINAKHAIR,88.47275,24.60283,22590,1
NARAYANPUR 2ND HIGH SCHOOL,127082,School,RAJSHAHI,TANORE,NARAYANPUR,88.44492,24.59489,22591,1
NARAYANPUR HIGH SCHOOL,127068,School,RAJSHAHI,TANORE,NARAYANPUR,88.46661,24.607,22592,1
KANTHAL PARA HIGH SCHOOL,127057,School,RAJSHAHI,TANORE,KANTHAL PARA,88.47564,24.64733,22593,1
DR.ABUBAKAR HIGH SCHOOL,127065,School,RAJSHAHI,TANORE,CHANDURIA,88.5355,24.5545,22594,1
RATOIL High SCHOOL,126987,School,RAJSHAHI,TANORE,RATAIL,88.47128,24.62256,22595,1
DARGADANGA JUNIOR GIRL'S SCHOOL,127093,School,RAJSHAHI,TANORE,CHAK RATRAM,88.46575,24.63892,22596,1
CHORKHOIR  HIGH SCHOOL,127086,School,RAJSHAHI,TANORE,BAURIGAON,88.48972,24.64447,22597,1
BONGAON CHALK ROHMOT HIGH SCHOOL,127058,School,RAJSHAHI,TANORE,CHAK RAHAMAT,88.54361,24.49092,22598,1
CHANDONKOTHA HIGH SCHOOL,127151,School,RAJSHAHI,TANORE,CHANDAN KOTA,88.55781,24.51656,22599,1
KISMOT BILLI JUNIOR GIRLS SCHOOL,127099,School,RAJSHAHI,TANORE,HET BILLI,88.55128,24.50061,22600,1
GONGARAMPUR BOLDIPARA JR. HIGH SCHOOL,127087,School,RAJSHAHI,TANORE,GANGARAMPUR,88.55069,24.68575,22601,1
MALBANDHA HIGH SCHOOL,127059,School,RAJSHAHI,TANORE,MALBANDHA,88.51819,24.70139,22602,1
KOYEL HIGH SCHOOL,127052,School,RAJSHAHI,TANORE,KOIL,88.54028,24.69631,22603,1
KALMA GIRLS HIGH SCHOOL,127078,School,RAJSHAHI,TANORE,KALMA,88.56339,24.67303,22604,1
KALMA HIGH SCHOOL,127062,School,RAJSHAHI,TANORE,KALMA,88.49814,24.69694,22605,1
HATISHAIL HIGH SCHOOL,127049,School,RAJSHAHI,TANORE,BARAGHARIA,88.49808,24.69703,22606,1
DHANURA CHALKPROVURAM  HIGH SCHOOL,127090,School,RAJSHAHI,TANORE,CHAK PRABHURAM,88.51933,24.68597,22607,1
CHAWOOR H.M. JUNIOR GIRLS SCHOOL,127091,School,RAJSHAHI,TANORE,CHHAOIR,88.49353,24.69772,22608,1
KRISNAPUR HIGH SCHOOL,127055,School,RAJSHAHI,TANORE,KRISHNAPUR,88.56058,24.69667,22609,1
KAMARGAON HIGH SCHOOL,127060,School,RAJSHAHI,TANORE,KAMARGAON,88.5485,24.6865,22610,1
CHOWBARIA MALSHIRA HIGH SCHOOL,127054,School,RAJSHAHI,TANORE,MALSIRA,88.59483,24.654,22611,1
SREEKHANDA GIRLS HIGH SCHOOL,127080,School,RAJSHAHI,TANORE,SREEKHANDA,88.47294,24.60233,22612,1
MOHAMMADPUR HIGH SCHOOL,127051,School,RAJSHAHI,TANORE,MAHAMMADPUR,88.52461,24.59333,22613,1
MOHAMMADPUR GIRLS HIGH SCHOOL,127084,School,RAJSHAHI,TANORE,MAHAMMADPUR,88.54114,24.65906,22614,1
PRANPUR GIRLS HIGH SCHOOL,127071,School,RAJSHAHI,TANORE,PRANPUR,88.52214,24.59533,22615,1
SARANJAI HIGH SCHOOOL,127047,School,RAJSHAHI,TANORE,SARANJAI,88.50353,24.56119,22616,1
SARANJAI GIRLS HIGH SCHOOL,127072,School,RAJSHAHI,TANORE,SARANJAI,88.50075,24.56267,22617,1
SHUKDEBPUR HIGH SCHOOL,127075,School,RAJSHAHI,TANORE,SUKDEBPUR,88.52206,24.59731,22618,1
SHAH MOKHDUM HIGH SCHOOL,126462,School,RAJSHAHI,SHAH MAKHDUM,ROAD NAODA PARA,88.51414,24.6505,22619,1
HAMIDPUR NAODAPARA HIGH SCHOOL,126459,School,RAJSHAHI,SHAH MAKHDUM,ROAD NAODA PARA,88.61183,24.40828,22620,1
NAwDAPARA GIRLS HIGH SCHOOL,126447,School,RAJSHAHI,SHAH MAKHDUM,BHARALI PARA,88.60667,24.39628,22621,1
BALAJAN NESSA GIRLS HIGH SCHOOL,127032,School,RAJSHAHI,RAJPARA,MOLLAH PARA,88.60508,24.40867,22622,1
GOLZAR BAG HIGH SCHOOL,127035,School,RAJSHAHI,RAJPARA,HARAGRAM,88.61519,24.40797,22623,1
COURT MODEL HIGH SCHOOL,127034,School,RAJSHAHI,RAJPARA,LAKSHMIPUR BHATIA PARA,88.60856,24.39308,22624,1
RAJSHAHI GOVT GIRLS HIGH SCHOOL,127029,School,RAJSHAHI,RAJPARA,BHATA PARA(HELENABID COLONU),88.56608,24.38292,22625,1
MAHISH BATHAN ADARSHA UCHCHA BALIKA BHIDDYALAY,127033,School,RAJSHAHI,RAJPARA,MOHISH BATHAN,88.55622,24.37589,22626,1
RAJSHAHI MEDICAL COLLEGE CAMPUS HIGH SCHOOL,126470,School,RAJSHAHI,RAJPARA,MEDICAL COLLEGE CAMPUS,88.56894,24.37217,22627,1
RAJSHAHI GOVT. MADRASHA,127023,School,RAJSHAHI,RAJPARA,SREERAMPUR,88.56894,24.37724,22628,1
RUPALI SUNGHA JUNIOR NIGHT HIGH SCHOOL,127030,School,RAJSHAHI,RAJPARA,RAJPARA,88.56839,24.37714,22629,1
AL HIKMA MUSLIM ACADEMY,127031,School,RAJSHAHI,BOALIA,JOTE MAHESH,88.58631,24.37531,22630,1
LAXMIPUR GIRLS HIGH SCHOOL,127025,School,RAJSHAHI,RAJPARA,KAZIHATA,88.58836,24.37144,22631,1
GOVT. LABORATORY HIGH SCHOOL,127024,School,RAJSHAHI,RAJPARA,KAZIHATA,88.57961,24.37494,22632,1
RIVER VIEW collectorate  SCHOOL rajshahi,127026,School,RAJSHAHI,RAJPARA,SREERAMPUR,88.58867,24.36578,22633,1
HOUSING ESTATE GIRLS HIGH SCHOOL,126443,School,RAJSHAHI,BOALIA,UPASHAHAR SECTION 2,88.58319,24.36839,22634,1
RAJSHAHI MUSLIM HIGH SCHOOL,126453,School,RAJSHAHI,BOALIA,HETEM KHAN,88.58625,24.36997,22635,1
PALOPARA HIGH SCHOOL,126982,School,RAJSHAHI,PUTHIA,PALPARA (PART),88.55914,24.37992,22636,1
DOIPARA HIGH SCHOOL,126984,School,RAJSHAHI,PUTHIA,DAIPARA,88.59625,24.37972,22637,1
PUTHIA GIRLS HIGH SCHOOL,126947,School,RAJSHAHI,PUTHIA,KANTHALBARIA (DAKSHIN),88.59242,24.37008,22638,1
AL INSANIAH ISLAMI ACADEMY,126948,School,RAJSHAHI,PUTHIA,KRISHNAPUR,88.59394,24.37475,22639,1
BARAIPARA JUNIOR HIGH SCHOOL,126989,School,RAJSHAHI,PUTHIA,BARAI PARA PART,88.83922,24.36925,22640,1
PUTHIA PN HIGH SCHOOL,126945,School,RAJSHAHI,PUTHIA,KANTHALBARIA (DAKSHIN),88.847,24.37106,22641,1
JHALMALIA HIGH SCHOOL,126946,School,RAJSHAHI,PUTHIA,JHALMALIA (PART),88.83225,24.37272,22642,1
BANESWAR ISLAMIA HIGH SCHOOL,126944,School,RAJSHAHI,PUTHIA,BANESHWAR,88.85014,24.356,22643,1
BHARORA  HIGH SCHOOL,126979,School,RAJSHAHI,PUTHIA,BHARORA,88.832,24.37222,22644,1
BIRALDAH GIRLS HIGH SCHOOL,126969,School,RAJSHAHI,PUTHIA,DURGAPUR,88.83689,24.36203,22645,1
BIRALDAH SAYED KARAM ALI SHAH  HIGH SCHOOL,126958,School,RAJSHAHI,PUTHIA,MAIPARA,88.83944,24.37147,22646,1
SHIBPUR HAT HIGH SCHOOL,126960,School,RAJSHAHI,PUTHIA,BEHARI PARA,88.86389,24.36842,22647,1
BELPUKIRIA HIGH SCHOOL,126956,School,RAJSHAHI,PUTHIA,BELPUKURIA,88.79469,24.37708,22648,1
BELPUKURIA JUNIOR GIRLS SCHOOL,126980,School,RAJSHAHI,PUTHIA,BELPUKURIA,88.87139,24.51083,22649,1
CHALK DHADASH HIGH SCHOOL,126981,School,RAJSHAHI,PUTHIA,CHAK DHADAS,88.75467,24.36831,22650,1
BHORUA PARA HIGH SCHOOL,126970,School,RAJSHAHI,PUTHIA,BHARUA PARA,88.79681,24.37975,22651,1
DHADASH HGIH SCHOOL,126964,School,RAJSHAHI,PUTHIA,DHADAS,88.75608,24.36406,22652,1
DOMADI IDEAL HIGH SCHOOL,126985,School,RAJSHAHI,PUTHIA,DOMADI,88.72511,24.36631,22653,1
JAMIRA JUNIOR GIRLS SCHOOL,126976,School,RAJSHAHI,PUTHIA,JAMIRA,88.72164,24.36603,22654,1
JAMIRA HIGH SCHOOL,126962,School,RAJSHAHI,PUTHIA,JAMIRA,88.75031,24.38981,22655,1
SATRAGASA HIGH SCHOOL,126942,School,RAJSHAHI,PUTHIA,CHAK DHADAS,88.70764,24.37831,22656,1
BHALUK GACHI HIGH SCHOOL,126955,School,RAJSHAHI,PUTHIA,TARAF BHALUKGACHHI,88.72908,24.34586,22657,1
BHALUKGACHHI GOALPARA  HIGH SCHOOL,126978,School,RAJSHAHI,PUTHIA,TARAF BHALUKGACHHI,88.72414,24.36731,22658,1
FULBARI HIGH SCHOOL,126973,School,RAJSHAHI,PUTHIA,FULBARI,88.72453,24.36739,22659,1
DHOKRAKUL HIGH SCHOOL,126950,School,RAJSHAHI,PUTHIA,DHOKRAKUL,88.72094,24.36542,22660,1
GOTIA ADARSHA HIGH SCHOOL,126966,School,RAJSHAHI,PUTHIA,GATIA,88.72981,24.34411,22661,1
S R GIRLS HIGH SCHOOL,126974,School,RAJSHAHI,PUTHIA,SINGRA,88.83475,24.43381,22662,1
BILMARIA HIGH SCHOOL,126957,School,RAJSHAHI,PUTHIA,BILMARIA,88.86356,24.44944,22663,1
DHOPA PARA HIGH SCHOOL,126959,School,RAJSHAHI,PUTHIA,JEOPARA,88.84936,24.42825,22664,1
GAOPARA SENBHAG HIGH SCHOOL,126967,School,RAJSHAHI,PUTHIA,GAUPARA SENBAGH,88.84364,24.43014,22665,1
DHOPAPARA GIRLS HIGH SCHOOL,126971,School,RAJSHAHI,PUTHIA,DHOPA PARA,88.84256,24.42261,22666,1
NOKUL BARIA JUNIOR SCHOOL,126988,School,RAJSHAHI,PUTHIA,NAKULBARIA,88.81075,24.42008,22667,1
SOYEDPUR HIGH SCHOOL,126977,School,RAJSHAHI,PUTHIA,SAIDPUR,88.85158,24.40783,22668,1
BORBORIA HIGH SCHOOL,126963,School,RAJSHAHI,PUTHIA,BARBARIA,88.85131,24.40425,22669,1
BASUPARA GIRLS HIGH SCHOOL,126972,School,RAJSHAHI,PUTHIA,BASU PARA,88.88144,24.40797,22670,1
POCHAMARIA JUNIOR GIRLS SCHOOL,126949,School,RAJSHAHI,PUTHIA,PACHAMARIA,88.85508,24.40903,22671,1
SATBARIA HIGH SCHOOL,126954,School,RAJSHAHI,PUTHIA,SATBARIA,88.82058,24.35567,22672,1
SADHANPUR HIGH SCHOOL,126953,School,RAJSHAHI,PUTHIA,SADHANPUR,88.88486,24.47283,22673,1
SHAHBAZPUR HIGH SCHOOL,126961,School,RAJSHAHI,PUTHIA,KANDRA (PART),88.85583,24.48036,22674,1
PANGU SHISHU NIKETON INTREGRATED FREE HIGH SCHOOL,126943,School,RAJSHAHI,PUTHIA,BIDIRPUR,88.86111,24.46361,22675,1
TENTULIA HIGH SCHOOL,126941,School,RAJSHAHI,PUTHIA,TENTULIA,88.88889,24.46175,22676,1
KAPASIA HIGH SCHOOL,126880,School,RAJSHAHI,PABA,KAPASIA,88.90656,24.51111,22677,1
NAOHATA GIRLS HIGH SCHOOL,126878,School,RAJSHAHI,PABA,NOAHATA,88.90619,24.50469,22678,1
RAJSHAHI PATKAL HIGH SCHOOL,126858,School,RAJSHAHI,PABA,SAMSADIPUR,88.69914,24.35797,22679,1
MASHKATA DIGHI MULTI (TECH) HIGH SCHOOL and college,126854,School,RAJSHAHI,PABA,KAPASIA,88.61486,24.45342,22680,1
SHAMSHADIPUR HIGH SCHOOL,126895,School,RAJSHAHI,PABA,SAMSADIPUR,88.69744,24.35586,22681,1
KATAKHALI GIRLS HIGH SCHOOL,126879,School,RAJSHAHI,PABA,SAMSADIPUR,88.65953,24.35622,22682,1
SHYAMPUR HIGH SCHOOL,126857,School,RAJSHAHI,PABA,SHYAMPUR MAULAVIPARA,88.69703,24.35653,22683,1
NAOHATA HIGH SCHOOL,126855,School,RAJSHAHI,PABA,NOAHATA,88.67308,24.36556,22684,1
PUTHIA PARA HIGH SCHOOL,126889,School,RAJSHAHI,PABA,PUTHIA PARA,88.61567,24.45594,22685,1
BAGDHANI HIGH SCHOOL,126869,School,RAJSHAHI,PABA,BAGDHANI,88.61344,24.45197,22686,1
BAGSHARA HIGH SCHOOL,126871,School,RAJSHAHI,PABA,BAGASARA,88.61436,24.45222,22687,1
BAGSARA GIRLS HIGH SCHOOL,126886,School,RAJSHAHI,PABA,KUMRA PUKUR,88.62028,24.45817,22688,1
CIVIL AVIATION JUNIOR HIGH SCHOOL,126884,School,RAJSHAHI,PABA,TAKIPUR,88.57794,24.49128,22689,1
BAYA GIRLS HIGH SCHOOL,126890,School,RAJSHAHI,PABA,BHOLABARI,88.59614,24.46117,22690,1
BARGACHHI KUTHIPARA HIGH SCHOOL,126870,School,RAJSHAHI,PABA,BARAGACHHI,88.59222,24.44067,22691,1
BHALAM HIGH SCHOOL,126865,School,RAJSHAHI,PABA,JOYKRISHNAPUR,88.61389,24.44289,22692,1
BHALAM JUNIOR GIRL'S SCHOOL,126897,School,RAJSHAHI,PABA,JOYKRISHNAPUR,88.60497,24.43056,22693,1
JOYKRISNOPUR JUNIOR ADORSHO GIRLS SCHOOL,126898,School,RAJSHAHI,PABA,JOYKRISHNAPUR,88.63222,24.43683,22694,1
KALUPARA HIGH SCHOOL,126891,School,RAJSHAHI,PABA,MADHAI PARA,88.6135,24.42733,22695,1
MADHOBPUR  HIGH SCHOOL,126893,School,RAJSHAHI,PABA,MADHABPUR,88.64733,24.481,22696,1
SABSAR HIGH SCHOOL,126877,School,RAJSHAHI,PABA,SABSAR,88.64731,24.43225,22697,1
TALGACCHI JUNIOR HIGH SCHOOL,126853,School,RAJSHAHI,PABA,TALGACHHI,88.64614,24.43281,22698,1
VARAPURA ADORSO HIGH SCHOOL,126900,School,RAJSHAHI,PABA,BIRGOULIA,88.64414,24.43836,22699,1
ADH. NAZIBUR RAHMAN  GIRLS SCHOOL,126894,School,RAJSHAHI,PABA,ALAGCHHATRA,88.67872,24.50428,22700,1
DAMKURA HAT HIGH SCHOOL,126859,School,RAJSHAHI,PABA,MADHUPUR,88.64469,24.45814,22701,1
K.H.  TIKOR HIGH  SCHOOL,126939,School,RAJSHAHI,PABA,HARISAR DAING,88.52247,24.40861,22702,1
BIL NEPALPARA CHASHI RAHIM BOX  ACADEMY,126866,School,RAJSHAHI,PABA,BIL NEPAL PARA,88.56692,24.41469,22703,1
DORSHAN PARA HIGH SCHOOL,126873,School,RAJSHAHI,PABA,DARSHAN PARA,88.53094,24.41989,22704,1
TETULIA DANGA  GIRLS HIGH SCHOOL,126896,School,RAJSHAHI,PABA,TENTULIA DANGA,88.52439,24.40592,22705,1
BOSUA JUNIOR HIGH SCHOOL,126901,School,RAJSHAHI,PABA,BASUA,88.52372,24.48217,22706,1
KASHIADANGA HIGH SCHOOL,126864,School,RAJSHAHI,PABA,KASHIADANGA (PART-B),88.51897,24.48403,22707,1
KASHIADANGA GIRLS HIGH SCHOOL,126885,School,RAJSHAHI,PABA,KASHIADANGA (PART-B),88.51331,24.46433,22708,1
KHIRSHIN MODEL HIGH SCHOOL,126883,School,RAJSHAHI,PABA,KHIRSHAN,88.54536,24.4775,22709,1
KULPARA  HIGH SCHOOL,126876,School,RAJSHAHI,PABA,KULPARA,88.52286,24.48444,22710,1
RAJSAHI CHINIKAL HIGH SCHOOL,126856,School,RAJSHAHI,PABA,HARIAN,88.579,24.40611,22711,1
M. R. K. HIGH SCHOOL,126868,School,RAJSHAHI,PABA,KUKHANDI,88.56878,24.42019,22712,1
SUCHARAN JUNUIOR SECONDARY SCHOOL,126899,School,RAJSHAHI,PABA,HARIAN,88.57581,24.38783,22713,1
HaRIPUR CHOWDHURY GIRLS HIGH SCHOOL,126881,School,RAJSHAHI,PABA,HARIPUR,88.67753,24.39744,22714,1
KASBA HIGH SCHOOL,126863,School,RAJSHAHI,PABA,KASBA,88.68953,24.37492,22715,1
MAZARDIAR JUNIOR HIGH SCHOOL,126875,School,RAJSHAHI,PABA,MAZARDIA,88.6705,24.38736,22716,1
API NEPAL PARA JUNIOR HIGH SCHOOL,126872,School,RAJSHAHI,PABA,NEPAL PARA,88.67569,24.37044,22717,1
DARUSHA GIRLS HIGH SCHOOL,126888,School,RAJSHAHI,PABA,SARISHAKURI,88.50903,24.38094,22718,1
DARUSHA HIGH SCHOOL,126860,School,RAJSHAHI,PABA,RADHANAGAR,88.49314,24.37344,22719,1
KARNOHER  HIGH SCHOOL,126887,School,RAJSHAHI,PABA,KORNAHAR,88.55578,24.44569,22720,1
HAT RAMCHANDRAPUR  HIGH SCHOOL,126892,School,RAJSHAHI,PABA,PANTHA PARA,88.55458,24.44972,22721,1
KHARKHARI HIGH SCHOOL,126862,School,RAJSHAHI,PABA,LALITAHAR,88.55819,25.65806,22722,1
KHAR KHARI GIRLS HIGH SCHOOL,126882,School,RAJSHAHI,PABA,LALITAHAR,88.51553,24.485,22723,1
MOTIABIL HIGH SCHOOL,126867,School,RAJSHAHI,PABA,MARIA,88.56467,24.42747,22724,1
HAT GODAGARI HIGH SCHOOL,126861,School,RAJSHAHI,PABA,SIRALIA,88.55497,24.44783,22725,1
PARILA HIGH SCHOOL,126874,School,RAJSHAHI,PABA,TARAF PARILA,88.66708,24.41992,22726,1
SAYRA KHATUN GIRLS HIGH SCHOOL,126473,School,RAJSHAHI,MATIHAR,DHARAMPUR,88.67764,24.428,22728,1
DANSHMARI HIGH SCHOOL,126442,School,RAJSHAHI,MATIHAR,SATBARIA,88.65311,24.40256,22729,1
MASJID MISSION ACADEMY, MIRZAPUR,126463,School,RAJSHAHI,MATIHAR,MIRZAPUR,88.64517,24.36781,22730,1
B.C.S. I.R LABORATORY HIGH SCHOOL,126464,School,RAJSHAHI,MATIHAR,CHAR SATBARIA,88.64506,24.35417,22731,1
DHAMIN NAOGAON HIGH SCHOOL,126775,School,RAJSHAHI,MOHANPUR,DHAMIN NAOGAON,88.649,24.36764,22732,1
KESHOREHAT HIGH SCHOOL,126786,School,RAJSHAHI,MOHANPUR,KESAIR,88.67392,24.60078,22733,1
KARISHA HIGH SCHOOL,126791,School,RAJSHAHI,MOHANPUR,KHORSA,88.67472,24.60075,22734,1
BAKSHIMOIL HIGH SCHOOL,126782,School,RAJSHAHI,MOHANPUR,BAKSHIMAIL,88.65694,24.60058,22735,1
KHAROIL  HIGH SCHOOL,126778,School,RAJSHAHI,MOHANPUR,KHARAIL,88.67692,24.52031,22736,1
MOHANPUR GOVT. HIGH SCHOOL,126781,School,RAJSHAHI,MOHANPUR,BAKSHIMAIL,88.65533,24.58667,22737,1
MIR PUR JUNIOR SCHOOL,126812,School,RAJSHAHI,MOHANPUR,MAUGACHHI,88.64767,24.54583,22738,1
MOHONPUR GOVT. GIRLS HIGH SCHOOL,126783,School,RAJSHAHI,MOHANPUR,BARAIKURI,88.65194,24.58078,22739,1
MASJID MISSION ACADEMY SAIPARA,126806,School,RAJSHAHI,MOHANPUR,SAIPARA,88.65078,24.59228,22740,1
SAIPARA JUNIOR SCHOOL,126811,School,RAJSHAHI,MOHANPUR,BAKSHIMAIL,88.64753,24.54894,22741,1
DHUROIL HIGH SCHOOL,126787,School,RAJSHAHI,MOHANPUR,DHURAIL,88.67633,24.51594,22742,1
AMRAIL HIGH SCHOOL,126801,School,RAJSHAHI,MOHANPUR,AMRAIL,88.64461,24.54689,22743,1
FULSHO HIGH SCHOOL,126795,School,RAJSHAHI,MOHANPUR,FULSO,88.64556,24.55442,22744,1
NAKOIL ADARSHA HIGH SCHOOL,126779,School,RAJSHAHI,MOHANPUR,NAKAIL,88.64836,24.55464,22745,1
MOHABBAT PUR HIGH SCHOOL,126788,School,RAJSHAHI,MOHANPUR,MAHABBATPUR,88.67694,24.52083,22746,1
PIARPUR HIGH SCHOOL,126803,School,RAJSHAHI,MOHANPUR,PEARPUR,88.60242,24.52917,22747,1
VEEMNAGAR HIGH SCHOOL,126802,School,RAJSHAHI,MOHANPUR,DHURAIL,88.64094,24.55156,22748,1
ATANARAYANPUR HIGH SCHOOL,126805,School,RAJSHAHI,MOHANPUR,NARAYANPUR,88.59003,24.53658,22749,1
ATHRAI  HIGH SCHOOL,126784,School,RAJSHAHI,MOHANPUR,ATRAI,88.60389,24.54611,22750,1
GHASHI GRAM JUNIOR SCHOOL,126817,School,RAJSHAHI,MOHANPUR,GHASIGAON,88.61508,24.57456,22751,1
DHOPAGHATA A. K. HIGH SCHOOL,126790,School,RAJSHAHI,MOHANPUR,GOBINDAPUR,88.64514,24.55333,22752,1
MELANDI JUNIOR HIGH SCHOOL,126777,School,RAJSHAHI,MOHANPUR,MOLANDI,88.59856,24.52919,22753,1
MAHISH KUNDI HIGH SCHOOL,126793,School,RAJSHAHI,MOHANPUR,SHYAMPUR,88.62431,24.60583,22754,1
BISHAHARA HIGH SCHOOL,126798,School,RAJSHAHI,MOHANPUR,BISHAHARA,88.6105,24.58639,22755,1
DHORSHA ADURSO high SCHOOL,126809,School,RAJSHAHI,MOHANPUR,DHORSA,88.62244,24.57369,22756,1
KOTALIPARA FOTEPUR  GIRLS  HIGH SCHOOL,126780,School,RAJSHAHI,MOHANPUR,DHORSA,88.61517,24.57453,22757,1
MOTIHER HIGH SCHOOL,126792,School,RAJSHAHI,MOHANPUR,MATIHAR,88.62058,24.60261,22758,1
JAHANABAD HIGH SCHOOL,126797,School,RAJSHAHI,MOHANPUR,JAHANABAD,88.69531,24.57906,22759,1
PAKURIA HIGH SCHOOL,126785,School,RAJSHAHI,MOHANPUR,JAHANABAD,88.62333,24.57472,22760,1
BASANTAKEDER HIGH SCHOOL,126776,School,RAJSHAHI,MOHANPUR,BASANTA KEDAR,88.69414,24.54431,22761,1
BASANTA KEDER GIRLS HIGH SCHOOL,126808,School,RAJSHAHI,MOHANPUR,BASANTA KEDAR,88.68794,24.56186,22762,1
BOSANTAPUR  HISH CHOOL,126810,School,RAJSHAHI,MOHANPUR,BASANTARPUR,88.67975,24.59917,22763,1
CHANDPUR JUNIOR HIGH CHOOL,126813,School,RAJSHAHI,MOHANPUR,CHANDPUR,88.69261,24.54506,22764,1
BERABARE JUNIOR HIGH SCHOOL,126814,School,RAJSHAHI,MOHANPUR,BERABARI,88.61064,24.49083,22765,1
GOPALPUR HIGH SCHOOL,126789,School,RAJSHAHI,MOHANPUR,GOPALPUR,88.67167,24.53611,22766,1
MOUPARA HIGH SCHOOL,126807,School,RAJSHAHI,MOHANPUR,MAUPARA,88.60894,24.49411,22767,1
MOUGACHI HIGH SCHOOL,126794,School,RAJSHAHI,MOHANPUR,MAUGACHHI,88.65303,24.51031,22768,1
HATRA JUINIOR  SCHOOL,126818,School,RAJSHAHI,MOHANPUR,OSAYER HATRA,88.58972,24.51919,22769,1
BORAIL HIGH SCHOOL,126796,School,RAJSHAHI,MOHANPUR,BARAIL,88.61097,24.49258,22770,1
DAOKANDI HIGH SCHOOL,126595,School,RAJSHAHI,DURGAPUR,DAOKANDI,88.63044,24.50867,22771,1
KALIGANJ HIGH SCHOOL,126607,School,RAJSHAHI,DURGAPUR,BRAHMAPUR,88.65289,24.62228,22772,1
TALANDA GIRL'S HIGH SCHOOL,127079,School,RAJSHAHI,TANORE,TALONDA,88.663,24.62397,22773,1
MIRZAPUR HIGHSCHOOL,127083,School,RAJSHAHI,TANORE,MIRZAPUR,88.66606,24.61411,22774,1
MOHISALBARI SECONDARY GIRLS SCHOOL,126699,School,RAJSHAHI,GODAGARI,MAHISHALBARI,88.68142,24.51075,22775,1
MAHISHAL BARI AL ISLA ISLAMI ACADEMY,126690,School,RAJSHAHI,GODAGARI,MAHISHALBARI,88.70033,24.51928,22776,1
SULTANGANJ HIGH SCHOOL,126704,School,RAJSHAHI,GODAGARI,SULTANGANJ,88.33056,24.46103,22777,1
KAKON HAT GIRLS HIGH SCHOOL,126700,School,RAJSHAHI,GODAGARI,SUNDARPUR (PART),88.33361,24.45728,22778,1
MALKAMLA HIGH SCHOOL,126726,School,RAJSHAHI,GODAGARI,MAHADEBPUR,88.31533,24.47472,22779,1
KAKONHAT HIGH SCHOOL,126668,School,RAJSHAHI,GODAGARI,KAKUN PARA,88.30917,24.49211,22780,1
BEROIL HIGH SCHOOL,126722,School,RAJSHAHI,GODAGARI,BRAHMANGRAM,88.40433,24.50447,22781,1
AVOYA HIGH SCHOOL,126702,School,RAJSHAHI,GODAGARI,GOPALPUR,88.40472,24.50608,22782,1
BRAHMAN GRAM HIGH SCHOOL,126694,School,RAJSHAHI,GODAGARI,RAJARAMPUR,88.43531,24.496,22783,1
KASHIMPUR A.K.F.H HIGH SCHOOL,126669,School,RAJSHAHI,GODAGARI,BALIAGHATA,88.46725,24.51194,22784,1
BASHUDEBPUR SHAHIDUN NESSA GIRLS HIGH SCHOOL,126684,School,RAJSHAHI,GODAGARI,BASUDEBPUR,88.47322,24.50742,22785,1
GHONOSHAMPUR HIGH SCHOOL,126718,School,RAJSHAHI,GODAGARI,GANASYHAMPUR,88.4415,24.44019,22786,1
LASKARHATI HIGH SCHOOL,126709,School,RAJSHAHI,GODAGARI,LASKARHATI,88.31528,24.50422,22787,1
CHAR ASHARIADAHA KANAPARA HIGH SCHOOL,126679,School,RAJSHAHI,GODAGARI,ASHARIADAH MALMAHAL,88.315,24.53031,22788,1
PALPUR HIGH SCHOOL,126677,School,RAJSHAHI,GODAGARI,PALPUR,88.34069,24.50822,22789,1
KADAM SHAHAR HIGH SCHOOL,126686,School,RAJSHAHI,GODAGARI,DEOPARA,88.31622,24.52008,22790,1
RAJABARI HAT HIGH SCHOO,126681,School,RAJSHAHI,GODAGARI,BIJOYNAGAR,88.30708,24.55336,22791,1
RAJABARI HAT GIRLS HIGH SCHOOL,126721,School,RAJSHAHI,GODAGARI,BIJOYNAGAR,88.30664,24.55669,22792,1
BHAGAIL HIGH SCHOOL,126705,School,RAJSHAHI,GODAGARI,BHAGAIL,88.49075,24.42917,22793,1
AI HAI HIGH SCHOOL,126676,School,RAJSHAHI,GODAGARI,AIHAI,88.49428,24.42967,22794,1
CHAMPOK NAGAR HIGH SCHOOL,126723,School,RAJSHAHI,GODAGARI,CHAMPAK NAGAR,88.50878,24.441,22795,2
GOMA HIGH SCHOOL,126701,School,RAJSHAHI,GODAGARI,GOMA,88.50878,24.441,22796,2
ANOWARA FAHIM ZIAUDDIN PILOT GIRL'S HIGH SCHOOL,126687,School,RAJSHAHI,GODAGARI,BUJRUKPARA,88.48886,24.42833,22797,1
MOHAMMAD PUR NALTREE JUNIOR SCHOOL,126724,School,RAJSHAHI,GODAGARI,NALTRI,88.45758,24.39269,22798,1
BOLIA DAING ADARSHO HIGH  SCHOOL,126715,School,RAJSHAHI,GODAGARI,BALIADAING,88.41542,24.48619,22799,1
HUZRAPUR HIGH SCHOOL,126696,School,RAJSHAHI,GODAGARI,HUZRAPUR KURSANA,88.36119,24.49956,22800,1
GONIGRAM HIGH SCHOOL,126710,School,RAJSHAHI,GODAGARI,GUNIGRAM,88.31717,24.4775,22801,1
GOGRAM ADARSHA BOHUMUKHY GIRL'S H/S,126695,School,RAJSHAHI,GODAGARI,GOGRAM,88.32053,24.46675,22802,1
HORIN BISKA HIGH SCHOOL,126711,School,RAJSHAHI,GODAGARI,HARIN BISKA,88.43831,24.47233,22803,1
VATOPARA GIRL'S HIGH SCHOOL,126689,School,RAJSHAHI,GODAGARI,BHATO PARA,88.41683,24.45367,22804,1
UTTARA GIRL'S HIGH SCHOOL,126708,School,RAJSHAHI,GODAGARI,BIDIRPUR,88.42786,24.39278,22805,1
PREMTALI SUKBASIA HIGH SCHOOL,126671,School,RAJSHAHI,GODAGARI,DUMARIA(PREMTOLI),88.41236,24.45222,22806,1
PREMTALI   GIRLS HIGH SCHOOL,126682,School,RAJSHAHI,GODAGARI,KANTHALBARIA,88.43608,24.39539,22807,1
PROVITA HIGH SCHOOL,126706,School,RAJSHAHI,GODAGARI,HARISANKAPUR,88.35408,24.43125,22808,1
MACHHMARA HIGH SCHoOL,126725,School,RAJSHAHI,GODAGARI,HABASPUR,88.41097,24.46444,22809,1
MATIKATA HIGH SCHOOL,126673,School,RAJSHAHI,GODAGARI,MATIKATA,88.37789,24.41144,22810,1
SHEIKHER PARA HIGH  SCHOOL,126714,School,RAJSHAHI,GODAGARI,SEKHER PARA,88.41375,24.39264,22811,1
PIRIJPUR HIGH SCHOOL,126674,School,RAJSHAHI,GODAGARI,PIRIJPUR,88.40772,24.3955,22812,1
SONADIGHI HIGH SCHOOL,126712,School,RAJSHAHI,GODAGARI,ADAR PARA,88.36558,24.42528,22813,1
CHANDALAI PARGONA HIGH SCHOOL,126698,School,RAJSHAHI,GODAGARI,CHANDALAI,88.37297,24.41822,22814,1
CHAYAN HIGH SCHOOL,126717,School,RAJSHAHI,GODAGARI,NALIGRAM,88.34733,24.44453,22815,1
LALITNAGAR SHOHID SREETI GIRLS HIGH SCHOOL,126693,School,RAJSHAHI,GODAGARI,MAKRANDA,88.3345,24.53475,22817,1
PAKRI  GIR'S HIGH SCHOOL,126719,School,RAJSHAHI,GODAGARI,PAKRI,88.39117,24.58275,22818,1
Pakri High School,126680,School,RAJSHAHI,GODAGARI,PAKRI,88.42422,24.40814,22819,1
JOYRAMPUR HIGH SCHOOL,126688,School,RAJSHAHI,GODAGARI,JOYRAMPUR,88.41844,24.54406,22820,1
KADMA HIGH SCHOOL,126720,School,RAJSHAHI,GODAGARI,KADMA,88.49667,24.54689,22821,1
RISHIKUL GIRLS HIGH SCHOOL,126707,School,RAJSHAHI,GODAGARI,RISHIKUL,88.46169,24.56292,22822,1
SOYED PUR SHAHID MONJU HIGH SCHOOL,126683,School,RAJSHAHI,GODAGARI,SAIDPUR,88.47142,24.55481,22823,1
BAMALHAL HIGH SCHOOL,126703,School,RAJSHAHI,GODAGARI,BAMNAHAL,88.49244,24.492,22824,1
JOT GOKUL JUNIOR SCHOOL,127089,School,RAJSHAHI,TANORE,JOT GOKUL,88.48197,24.47094,22825,1
JUMARPARA GIRLS HIGH SCHOOL,127088,School,RAJSHAHI,TANORE,JUMAR PARA,88.53292,24.55028,22826,1
BINODPUR JUNIOR HIGH SCHOOL,127095,School,RAJSHAHI,TANORE,BINODPUR,88.49875,24.47767,22827,1
ELAMDOHI HAT JONIOR GIRL SCHOOL,127092,School,RAJSHAHI,TANORE,ELADAHI,88.5045,24.45253,22828,1
PURAN TAHIRPUR HIGH SCHOOL,126618,School,RAJSHAHI,DURGAPUR,PURAN TAHIRPUR,88.52378,24.50889,22829,1
KAYA MAJOMPUR HIGH SCHOOL,126603,School,RAJSHAHI,DURGAPUR,KAYA MAZUMPUR,88.47253,24.52906,22830,1
PANCHUBARI HIGH SCHOOL,126615,School,RAJSHAHI,DURGAPUR,PANCHUBARI,88.82967,24.51919,22831,1
SINGA MODEL GIRLS HIGH SCHOOL,126617,School,RAJSHAHI,DURGAPUR,SINGA,88.81064,24.52178,22832,1
JOYNAGOR HIGH SCHOOL,126612,School,RAJSHAHI,DURGAPUR,DURGAPUR KALIDAH,88.74953,24.47206,22833,1
ROSUL PUL HIGH SCHOOL,126613,School,RAJSHAHI,DURGAPUR,RASULPUR,88.77717,24.41419,22834,1
KACHUPARA HIGH SCHOOL,126632,School,RAJSHAHI,DURGAPUR,KACHU PARA,88.67572,24.46361,22835,1
DURGAPUR GIRLs HIGH SCHOOL,126594,School,RAJSHAHI,DURGAPUR,DURGAPUR KALIDAH,88.70739,24.49661,22836,1
AMGRAM HIGH SCHOOL,126606,School,RAJSHAHI,DURGAPUR,AMGRAM,88.70178,24.49122,22837,1
BAKHTIARPUR HIGH SCHOOL,126596,School,RAJSHAHI,DURGAPUR,LAKSHMAN KHALSI,88.76156,24.44911,22838,1
BAKHTIARPUR GIRLS JUNIOR SCHOOL,126626,School,RAJSHAHI,DURGAPUR,LAKSHMAN KHALSI,88.78036,24.45556,22839,1
JUGISHOW HIGH SCHOOL,126611,School,RAJSHAHI,DURGAPUR,JUGISO,88.76725,24.4475,22840,1
PACHU BARI JUNIOR GIRLS SCHOOL,126629,School,RAJSHAHI,DURGAPUR,PANCHUBARI,88.72831,24.44867,22841,1
BELGHORIA HIGH SCHOOL,126614,School,RAJSHAHI,DURGAPUR,BELGHARIA,88.71778,24.49433,22842,1
DHARMAPUR HIGH SCHOOL,126597,School,RAJSHAHI,DURGAPUR,DHARMAPUR (PART),88.7475,24.46814,22843,1
PANA NAGAR B L HIGH SCHOOL,126600,School,RAJSHAHI,DURGAPUR,PANANAGAR,88.72661,24.46306,22844,1
GOLABARI HIGH SCHOOL,126616,School,RAJSHAHI,DURGAPUR,GOLABARI,88.71781,24.47381,22845,1
TEBILA HIGH SCHOOL,126602,School,RAJSHAHI,DURGAPUR,KISMAT TEBILA,88.73361,24.47256,22846,1
MOHIPARA HIGH SCHOOL,126633,School,RAJSHAHI,DURGAPUR,MOHI PARA,88.79461,24.48281,22847,1
AMGACHI SAHAR BANU HIGH SCHOOL,126601,School,RAJSHAHI,DURGAPUR,AMGACHHI,88.84822,24.45689,22848,1
BORDHAN PUR  HIGH SCHOOL,126624,School,RAJSHAHI,DURGAPUR,BARDHANPUR,88.82644,24.46736,22849,1
KUHER JUNIOR SCHOOL,126636,School,RAJSHAHI,DURGAPUR,KUHAR,88.84561,24.4465,22850,1
JUGISHOW CHAINIKA QIRLS HIgH SCHOOL,126622,School,RAJSHAHI,DURGAPUR,JUGISO,88.83033,24.50619,22851,1
HATKAN PARA HIGH SCHOOL,126605,School,RAJSHAHI,DURGAPUR,BAJUKHALSI,88.72328,24.49336,22852,1
MARIA HIGH SCHOOL,126609,School,RAJSHAHI,DURGAPUR,MARIA (PART-I),88.71656,24.42033,22853,1
DURGAPUR PILOT HIGH SCHOOL,126598,School,RAJSHAHI,DURGAPUR,SINGA,88.72378,24.41669,22854,1
ARAIL HIGH SCHOOL,126608,School,RAJSHAHI,DURGAPUR,ARAIL,88.68244,24.51075,22855,2
BAGOLPARA JUNIOR SCHOOL,126630,School,RAJSHAHI,DURGAPUR,BAGAL PARA,88.68244,24.51075,22856,2
UJALKHALSHI HIGH SCHOOL,126599,School,RAJSHAHI,DURGAPUR,UJAN KHALSI,88.71217,24.51775,22857,1
GONOKAIR HIGH SCHOOL,126619,School,RAJSHAHI,DURGAPUR,GANKAR,88.70442,24.46825,22858,1
ALIPUR GIRLS HIGH SCHOOL,126621,School,RAJSHAHI,DURGAPUR,ALIPUR,88.80869,24.48861,22859,1
NAOPARA HIGH SCHOOL,126604,School,RAJSHAHI,DURGAPUR,NOAPARA,88.83586,24.482,22860,2
SHIBPUR GIRLS HIGH SCHOOL,126620,School,RAJSHAHI,DURGAPUR,SHIBPUR,88.83586,24.482,22861,2
PALSHA HIGH SCHOOL,126610,School,RAJSHAHI,DURGAPUR,PALSA,88.82947,24.49586,22862,1
DUBAIL  HIGH SCHOOL,127097,School,RAJSHAHI,TANORE,DUBAIL,88.79169,24.49492,22863,1
RAUTHA HIGH SCHOOL,126557,School,RAJSHAHI,CHARGHAT,RAOTA,88.82111,24.24508,22867,1
PARANPUR HIGH SCHOOL,126509,School,RAJSHAHI,CHARGHAT,PARANPUR,88.82625,24.24725,22868,1
TALBARIA HIGH  SCHOOL,126559,School,RAJSHAHI,CHARGHAT,TALBARIA,88.69633,24.34478,22869,1
SADHIPUR HIGH SCHOOL,126537,School,RAJSHAHI,CHARGHAT,SADIPUR,88.78869,24.33114,22870,1
UTTAR MARATPUR HIGH SCHOOL,126524,School,RAJSHAHI,CHARGHAT,MERAMATPUR,88.75894,24.243,22871,1
BALUDIAR  HIGH SCHOOL,126547,School,RAJSHAHI,CHARGHAT,FATEHPUR,88.77681,24.25228,22872,1
SIRAJ UDDIN SHA GIRLS HIGH SCHOOL,126555,School,RAJSHAHI,CHARGHAT,SALIA,88.78208,24.24092,22873,1
BASUDEV PUR HIGH SCHOOL,126670,School,RAJSHAHI,CHARGHAT,BASUDEBPUR,88.74961,24.31397,22874,1
NANDANGACHI ML. HIGH SCHOOL,126500,School,RAJSHAHI,CHARGHAT,BARKATPUR,88.78933,24.33108,22877,1
CHARGHAT GIRLS HIGH SCHOOL,126512,School,RAJSHAHI,CHARGHAT,CHARGHAT (NORTH),88.858,24.30128,22878,1
PADMA HIGH SCHOOL,126526,School,RAJSHAHI,CHARGHAT,CHARGHAT (SOUTH),88.81203,24.30597,22879,1
JOYPUR JUNIOR SCHOOL,126536,School,RAJSHAHI,CHARGHAT,JOYPUR,88.80236,24.31714,22880,1
CHOWMOHONI BEGUM JAIDA JALIL GIRLS HIGH SCHOOL,126517,School,RAJSHAHI,CHARGHAT,GUABASNIA,88.74975,24.28806,22882,1
MOKTARPUR HIGH SCHOOL,126511,School,RAJSHAHI,CHARGHAT,GOUR SHAHARPUR,88.70744,24.325,22884,1
SARDAHA GIRL'S HIGH SCHOOL,126531,School,RAJSHAHI,CHARGHAT,GOUR SHAHARPUR,88.69608,24.34542,22885,1
SARDAH GOVT. PILOT HIGH SCHOOL,126498,School,RAJSHAHI,CHARGHAT,SARDAHA (WITH POLICE T.C),88.8285,24.33389,22886,1
MARAMOTPUR JUNIOR GIRL SCHOOL,126546,School,RAJSHAHI,CHARGHAT,BIL MERAMATPUR,88.74894,24.29394,22889,1
MERAMAT PUR ERSHAD ALI HIGH SCHOOL,126510,School,RAJSHAHI,CHARGHAT,MERAMATPUR,88.74817,24.28175,22891,1
BUDHIRHAT HIGH SCHOOL,126533,School,RAJSHAHI,CHARGHAT,BHAYA LAKSHMIPUR,88.75328,24.27636,22892,1
BANKARA HIGH SCHOOL,126506,School,RAJSHAHI,CHARGHAT,BANKRA,88.76083,24.25725,22893,1
BONKISHORE HIGH SCHOOL,126504,School,RAJSHAHI,CHARGHAT,BANKISOR,88.75517,24.27364,22894,1
DAKRA M/L HIGH SCHOOL,126503,School,RAJSHAHI,CHARGHAT,DAKRA,88.7605,24.25817,22895,1
DAKRA GIRLS HIGH SCHOOL,126554,School,RAJSHAHI,CHARGHAT,DAKRA,88.75833,24.26169,22896,1
PANNA PARA HIGH SCHOOL,126529,School,RAJSHAHI,CHARGHAT,PANNA PARA,88.79217,24.25972,22897,1
RAYPUR (DAKHIN) HIGH SCHOOL,126527,School,RAJSHAHI,CHARGHAT,ROYPUR,88.81286,24.24475,22898,1
SHIMULIA  HIGH SCHOOL,126553,School,RAJSHAHI,CHARGHAT,SHIMULIA,88.79906,24.28244,22899,1
RAYPUR HIGH SCHOOL,126540,School,RAJSHAHI,CHARGHAT,ROYPUR,88.81989,24.26258,22900,1
ANUPAMPUR HIGH SCHOOL,126518,School,RAJSHAHI,CHARGHAT,ANUPAMPUR,88.78861,24.25403,22901,1
MUMGLI ANUPAMPUR ADARSHA HIGH SCHOOL,126519,School,RAJSHAHI,CHARGHAT,ANUPAMPUR,88.81961,24.26169,22902,1
BARBARIA HIGH SCHOOL, CHARGHAT,126539,School,RAJSHAHI,CHARGHAT,BARBARIA,88.78972,24.25572,22903,1
CHARGHAT PILOT HIGH SCHOL,126501,School,RAJSHAHI,CHARGHAT,CHARGHAT (SOUTH),88.82172,24.26425,22904,1
BADURIA HIGH SCHOOL,126502,School,RAJSHAHI,CHARGHAT,BADURIA,88.75914,24.24344,22908,1
BELGHORIA ABDUS SATTAR HIGH SCHOOL,126516,School,RAJSHAHI,CHARGHAT,BELGHARIA,88.77547,24.24222,22909,1
SALEHA SHAH MOHAMMOD HIGH SCHOOL,126532,School,RAJSHAHI,CHARGHAT,GUABASNIA,88.76533,24.24683,22910,1
CHOWMOHINY HIGH SCHOOL,126535,School,RAJSHAHI,CHARGHAT,GUABASNIA,88.71111,24.34006,22912,1
YUSUFPUR KRISHI HIGH SCHOOL,126499,School,RAJSHAHI,CHARGHAT,SHIBNAGAR,88.67186,24.35297,22914,1
NANDAN GACHI GIRLS HIGH SCHOOL,126538,School,RAJSHAHI,CHARGHAT,BASU PARA,88.70753,24.33878,22916,1
JOTKARTIC B.N. HIGH SCHOOL,126525,School,RAJSHAHI,CHARGHAT,BARKATPUR,88.70958,24.33158,22917,1
JAGIR PARA HIGH SCHOOL,126521,School,RAJSHAHI,CHARGHAT,BALADIAR,88.69683,24.34394,22918,1
KALABIPARA ADARSHA HIGH SCHOOL,126543,School,RAJSHAHI,CHARGHAT,NIMPARA,88.80244,24.31697,22919,1
KALUHATI HIGH SCHOOL,126515,School,RAJSHAHI,CHARGHAT,KALUHATI,88.69606,24.34458,22920,1
NIMPARA HIGH SCHOOL,126513,School,RAJSHAHI,CHARGHAT,NIMPARA,88.80928,24.31372,22921,1
BONGOBONDHU MOARE J.R. GIRLS SCHOOL,126548,School,RAJSHAHI,CHARGHAT,KHARERBARI,88.81233,24.30642,22922,1
BAMON DHIGI HIGH SCHOOL,126523,School,RAJSHAHI,CHARGHAT,BAMAN DIGHI,88.83614,24.28228,22923,1
JAFARPUR GIRL'S HIGH SCHOOL,126534,School,RAJSHAHI,CHARGHAT,JAFARPUR,88.81528,24.31275,22924,1
MARIA HIGH SCHOOL (CHAR GHAT),126520,School,RAJSHAHI,CHARGHAT,MARIA,88.84842,24.33064,22925,1
NAWDARA DI MUKHI HIGH SCHOOL,126552,School,RAJSHAHI,CHARGHAT,HALDIGACHHI,88.80383,24.31414,22926,1
SHOLUA HIGH SCHOOL,126507,School,RAJSHAHI,CHARGHAT,SALIA,88.81172,24.30661,22927,1
SARDAHA  HIGH SCHOOL,126542,School,RAJSHAHI,CHARGHAT,BALIDANGA,88.77394,24.33756,22928,1
POSCHIMJHIKRA HIGH SCHOOL,126550,School,RAJSHAHI,CHARGHAT,JHIKRA,88.78908,24.32897,22929,2
DHARMOHATA ADARSHA  HIGH SCHOOL,126556,School,RAJSHAHI,CHARGHAT,DHARMAHATA,88.78908,24.32897,22930,2
JIKRA HIGH SCHOOL,126514,School,RAJSHAHI,CHARGHAT,JHIKRA,88.78889,24.32906,22931,1
KHARDOGOBINDOPUR HIGH SCHOOL,126522,School,RAJSHAHI,CHARGHAT,KHURDA GOBINDAPUR,88.78908,24.33139,22932,1
PATIAKANDI HIGH SCHOOL,126530,School,RAJSHAHI,CHARGHAT,PATIAKANDI,88.76292,24.29119,22934,1
ARANI F.N. GIRLS HIGH SCHOOL,126197,School,RAJSHAHI,BAGHA,AHMEDPUR PURBA,88.77464,24.29256,22935,1
ARANI MONOMOHINI HIGH SCHOOL,126196,School,RAJSHAHI,BAGHA,ARANI BAZAR,88.78278,24.29331,22936,1
SONADAH HIGH SCHOOL,126211,School,RAJSHAHI,BAGHA,SONADAHA (PART),88.78317,24.29297,22937,1
SUMMIT SCHOOL,126475,School,RAJSHAHI,BOALIA,HAJRA PUKUR,88.85975,24.28936,22938,1
SHAHID ZIAUR RAHMAN HIGH SCHOOL,126770,School,RAJSHAHI,MATIHAR,MEHER CHANDI BUDHPARA,88.85661,24.28533,22939,1
RAJSHAHI BAHUMUKHI GIRL S HIGH SCHOOL,126449,School,RAJSHAHI,BOALIA,HETEM KHAN SABJI PARA,88.62447,24.35981,22940,1
ATKOSHI HIGH SCHOOL,126472,School,RAJSHAHI,BOALIA,MATHUR DANGA,88.59917,24.37153,22941,1
RAJSHAHI SATELLITE TOWN HIGH SCHOOL,126444,School,RAJSHAHI,BOALIA,UPASHAHAR SECTION 1,88.59811,24.37753,22942,1
RAJSHAI CANTONMENT BOARD HIGH SCHOOL,126445,School,RAJSHAHI,BOALIA,UPASHAHAR SECTION 1,88.60656,24.37906,22943,1
SEROIL COLONY HIGH SCHOOL,126446,School,RAJSHAHI,BOALIA,CHHOTA BANAGRAM,88.60647,24.37844,22944,1
CHOTO BONGRAM MADHAYMIK ADARSHA GIRLS SCHOOL,126474,School,RAJSHAHI,BOALIA,CHHOTA BANAGRAM,88.60317,24.39317,22945,1
SHAHID NAZMUL HAQUE GIRLS HIGH SCHOOL,126452,School,RAJSHAHI,BOALIA,KADIRGANJ EAST,88.59633,24.39075,22946,1
RANIBAZAR GIRLS HIGH SCHOOL,126451,School,RAJSHAHI,BOALIA,BOALIA PARA,88.61014,24.37975,22947,1
RAJSAHI NIGHT HIGH SCHOOL,126460,School,RAJSHAHI,BOALIA,KARIGAR PARA,88.61392,24.38433,22948,1
RAJSHAHI LOKNATH HIGH SCHOOL,126448,School,RAJSHAHI,BOALIA,DARGAH PARA,88.61983,24.38169,22949,1
SABITRI GIRL S HIGH SCHOOL,126458,School,RAJSHAHI,BOALIA,BALLABHGANJ,88.59675,24.3655,22950,1
SEROIL GOVT. HIGH SCHOOL, RAJSHAHI,126454,School,RAJSHAHI,BOALIA,SEROIL,88.59953,24.37289,22951,1
SURJyAKANA HIGH SCHOOL,126466,School,RAJSHAHI,BOALIA,SEROIL,88.60253,24.36831,22952,1
RAJSHAHI ISLAMI SHIKSHA & GOVESONA KENDRO SCHOOL,126461,School,RAJSHAHI,BOALIA,GHORAMARA,88.60858,24.3705,22953,1
GOVT P N GIRLS HIGH SCHOOL RAJSHAHI,126455,School,RAJSHAHI,BOALIA,BOALIA PARA,88.60986,24.37164,22954,1
NORTH PoiNT SCHOOL,130677,School,RAJSHAHI,BOALIA,HETEM KHAN,88.62108,24.37817,22955,1
RAJSHAHI BhOLANATH BISwESwaR HiNDU ACADEMY,126450,School,RAJSHAHI,BOALIA,SAGAR PARA,88.60989,24.37175,22956,1
JATIO TARUN SANGHA ACADEMY RAJSHAHI,126465,School,RAJSHAHI,BOALIA,PASCHIM RAMCHANDRAPUR,88.6065,24.36211,22957,1
MEHER CHANDI HIGH SCHOOL,126468,School,RAJSHAHI,BOALIA,MAHER CHANDI MADHYA,88.60364,24.36614,22958,1
BALIAPUKUR VIDYA NIKETON,126457,School,RAJSHAHI,BOALIA,BALIA PUKUR,88.60222,24.36222,22959,1
RANI NAGAR NAYSHA BIDDALAY,126441,School,RAJSHAHI,BOALIA,MATHUR DANGA,88.59856,24.36217,22960,1
RAJSHAHI ADARSHA UCHCHA BIDAYLY,126440,School,RAJSHAHI,BOALIA,RANINAGAR (UTTAR),88.61392,24.36546,22961,1
BHAWANIGANJ GOVT. HIGH SCHOOL,126281,School,RAJSHAHI,BAGHMARA,BHAWABANI GONJ,88.62558,24.36497,22962,1
SHAHID SEKENDAR MEMORIAL A.H SCHOOL,126312,School,RAJSHAHI,BAGHMARA,CHANDPARA,88.82478,24.59917,22963,1
GANGO PARA GIRLS HIGH SCHOOL,126314,School,RAJSHAHI,BAGHMARA,GANGA PARA,88.82003,24.56289,22965,1
HAT KHUJIPUR HIGH SCHOOL,126284,School,RAJSHAHI,BAGHMARA,HAT KHUJIPUR,88.84481,24.51789,22966,1
HAT GANGOPARA HIGH SCHOOL,126277,School,RAJSHAHI,BAGHMARA,GANGA PARA,88.83622,24.52475,22967,1
KHALGRAM HIGH SCHOOL,126270,School,RAJSHAHI,BAGHMARA,KHALGRAM,88.77131,24.577,22968,1
KONDA HIGH SCHOOL,126325,School,RAJSHAHI,BAGHMARA,KONDA,88.71786,24.61242,22969,1
SARONDI ISEAL JUNIOR SCHOOL,126340,School,RAJSHAHI,BAGHMARA,SARINDI,88.73014,24.61883,22970,1
MUGAI PARA JUNIOR SCHOOL,126272,School,RAJSHAHI,BAGHMARA,MUGAI PARA,88.70317,24.62392,22971,1
TOKIPUR JUNIOR HIGH SCHOOL,126360,School,RAJSHAHI,BAGHMARA,TAKIPUR,88.72839,24.61836,22972,1
BARA BIHANALI HIGH SCHOOL,126279,School,RAJSHAHI,BAGHMARA,BARA BIHANALI,88.68536,24.61047,22973,1
BAGANNA HIGH SCHOOL,126319,School,RAJSHAHI,BAGHMARA,BAGANNA,88.72633,24.61964,22974,1
BARA BIHANALI GIRLS HIGH SCHOOL,126327,School,RAJSHAHI,BAGHMARA,BARA BIHANALI,88.72569,24.61414,22975,1
KULIBARI ADARSHO JUNIOR SCHOOL,126354,School,RAJSHAHI,BAGHMARA,KULIBARI,88.73197,24.61767,22976,1
BALANAGAR JUNIOR HIGH SCHOOL,126350,School,RAJSHAHI,BAGHMARA,BALANAGAR,88.85,24.65431,22977,1
BHAWANIGONJ GOVT. GIRLS HIGH SCHOOL,126276,School,RAJSHAHI,BAGHMARA,BHAWABANI GONJ,88.8515,24.62739,22978,1
BIRKAYA JUNIOR SCHOOL,126331,School,RAJSHAHI,BAGHMARA,BIRKAYA,88.84767,24.61119,22979,1
BIRKAYA GIRLS HIGH SCHOOL,126326,School,RAJSHAHI,BAGHMARA,KALIKAPUR,88.85544,24.62486,22980,1
CHANDPARA ADARSHO GIRLS HIGH SCHOOL,126356,School,RAJSHAHI,BAGHMARA,CHANDPARA,88.85753,24.63733,22981,1
RANI RIVERVIEW HIGH SCHOOL,126324,School,RAJSHAHI,BAGHMARA,DEULA,88.78689,24.56992,22982,1
DWIPNAGAR JUNIOR GIRLS SCHOOL,130637,School,RAJSHAHI,BAGHMARA,DIPNAGAR,88.82064,24.58447,22983,1
DWIPNAGAR HIGH SCHOOL,126304,School,RAJSHAHI,BAGHMARA,DIPNAGAR,88.79358,24.62394,22984,1
MONDIAL JOTIGONJ HIGH SCHOOL,126329,School,RAJSHAHI,BAGHMARA,BASU PARA,88.80108,24.62394,22985,1
NORSINGHPUR HIGH SCHOOL,126295,School,RAJSHAHI,BAGHMARA,NARASINGHAPUR,88.82875,24.5745,22986,1
SREEPUR RAMNAGAR GIRLS HIGH SCHOOL,126273,School,RAJSHAHI,BAGHMARA,SREEPUR RAMNAGAR,88.81822,24.58008,22987,1
SAINPARA HIGH SCHOOL,126300,School,RAJSHAHI,BAGHMARA,SAIN PARA,88.76869,24.57703,22988,1
TAHERPUR HIGH SCHOOL,126275,School,RAJSHAHI,BAGHMARA,TAHERPUR DAKSHIN,88.77136,24.57669,22989,1
TAHERPUR RIVER VIEW GIRLS HIGH SCHOOL,126274,School,RAJSHAHI,BAGHMARA,TAHERPUR DAKSHIN,88.77736,24.62125,22990,1
DWIPPUR HIGH SCHOOL,126297,School,RAJSHAHI,BAGHMARA,DWIPPUR,88.76869,24.60044,22991,1
DWIPPUR ADARSHA GIRLS HIGH SCHOOL,126333,School,RAJSHAHI,BAGHMARA,DWIPPUR,88.76808,24.59831,22992,1
MIRPUR HIGH SCHOOL,126296,School,RAJSHAHI,BAGHMARA,MIRPUR,88.76861,24.59861,22993,1
JAMGRAM HIGH SCHOOL,126308,School,RAJSHAHI,BAGHMARA,TAHERPUR DAKSHIN,88.79094,24.57864,22994,2
MIRPUR JUNIOR GIRLS SCHOOL,126335,School,RAJSHAHI,BAGHMARA,MIRPUR,88.79094,24.57864,22995,2
NAJIRPUR  HIGH SCHOOL,126355,School,RAJSHAHI,BAGHMARA,NAZIRPUR,88.82119,24.62917,22996,1
SULTANPUR HIGH SCHOOL,126353,School,RAJSHAHI,BAGHMARA,TAHERPUR DAKSHIN,88.80272,24.64333,22997,1
ACHINGHAT GIRLS HIGH SCHOOL,126306,School,RAJSHAHI,BAGHMARA,HASNIPUR,88.82661,24.52772,22998,1
CHEWKHALI HIGH SCHOOL,126339,School,RAJSHAHI,BAGHMARA,CHEUKHALI,88.80647,24.65158,22999,1
KANOPARA HIGH SCHOOL,126294,School,RAJSHAHI,BAGHMARA,KANA PARA,88.83047,24.55508,23000,1
BHABANIGONJ IDEAL JUNIOR GIRIS SCHOOL,126336,School,RAJSHAHI,BAGHMARA,DOGACHI,88.82172,24.6195,23001,1
DAMNASH PARDAMNASH HIGH SCHOOL,126289,School,RAJSHAHI,BAGHMARA,DAMNAS,88.73003,24.53422,23002,1
BANOIL HIGH SCHOOL,126313,School,RAJSHAHI,BAGHMARA,BANAIL,88.87753,24.53542,23003,1
GOBINDA PARA HIGH SCHOOL,126292,School,RAJSHAHI,BAGHMARA,GOBINDA PARA,88.84539,24.56011,23004,1
MARIA HIGH SCHOOL,126330,School,RAJSHAHI,BAGHMARA,MARIA,88.82744,24.58853,23005,1
RUHIA MAMUDPUR JUNIOR SCOOL,126359,School,RAJSHAHI,BAGHMARA,RUIYA,88.74211,24.67703,23006,1
AKKEL PUR High SCHOOL,126358,School,RAJSHAHI,BAGHMARA,AKKELPUR,88.72169,24.64089,23007,1
BAGMARA PILOT HIGH SCHOOL,126278,School,RAJSHAHI,BAGHMARA,BAGHMARA,88.73589,24.63414,23008,1
CHAKMOHABBATPUR HIGH SCHOOL,126286,School,RAJSHAHI,BAGHMARA,CHAK MAHABBATPUR,88.72475,24.64556,23009,1
DAKHIN JAMAL PUR HIGH SCHOOL,126309,School,RAJSHAHI,BAGHMARA,DAKSHIN JAMALPUR,88.74194,24.67661,23010,1
CHANDERARA HIGH SCHOOL,126299,School,RAJSHAHI,BAGHMARA,CHANDERARA,88.73367,24.54064,23011,1
EKDALA HIGH SCHOOL,126318,School,RAJSHAHI,BAGHMARA,TAHIR EKDALA,88.72175,24.64133,23012,1
LAUPARA JUNIOR GIRLS SCHOOL,126343,School,RAJSHAHI,BAGHMARA,LAUPARA,88.80706,24.55828,23013,1
MOHANGONJ DWI- MUKHI HIGH SCHOOL,126280,School,RAJSHAHI,BAGHMARA,MOHANGANJA,88.71969,24.54561,23014,1
ARJUN PARA HIGH SCHOOL,126362,School,RAJSHAHI,BAGHMARA,ARJUN PARA,88.74083,24.57056,23015,1
KONABARIA HIGH SCHOOL,126305,School,RAJSHAHI,BAGHMARA,KONABARIA,88.8055,24.55883,23016,1
HAMIR KUTSA HIGH SCHOOL,126283,School,RAJSHAHI,BAGHMARA,HAMIR KUTSHA,88.72922,24.53419,23017,1
GUNIA DANGA JUNIOR SCHOOL,126317,School,RAJSHAHI,BAGHMARA,GUNIADANGA,88.91717,24.55661,23018,1
BHANSI PARA HIGH SCHOOL,126320,School,RAJSHAHI,BAGHMARA,BHANSI PARA,88.87233,24.55892,23019,1
JHIKRA HIGH SCHOOL , BAGMARA,126288,School,RAJSHAHI,BAGHMARA,JHIKRA,88.87378,24.55897,23020,1
JHARGRAM IDEAL JUNIOR GIRLS SCHOOL,126332,School,RAJSHAHI,BAGHMARA,JHARGAON,88.91711,24.55617,23021,1
BHAGNODI JUNIRR GIRLS SCHOOL,126269,School,RAJSHAHI,BAGHMARA,BHAGNADI,88.89325,24.61611,23022,1
JOHIPARA JUNIOR HIGH SCHOOL,126351,School,RAJSHAHI,BAGHMARA,JOGI PARA,88.86817,24.62397,23023,1
BHATKHALI HIGH SCHOOL,126293,School,RAJSHAHI,BAGHMARA,BHATKHALI,88.89531,24.61678,23024,1
ABHYAGATO PARA JUNIOR SECONDARY SCHOOL,126352,School,RAJSHAHI,BAGHMARA,ABHYAGATA PARA,88.86439,24.62111,23025,1
PIRGANJ HIGH SCHOOL,126328,School,RAJSHAHI,BAGHMARA,KALIKAPUR,88.92586,24.57369,23026,1
KACHARI KOYALIPARA HIGH SCHOOL,126303,School,RAJSHAHI,BAGHMARA,KACHHARI KAYALI PARA,88.90086,24.59075,23027,1
KALIKAPUR JUNIOR GIRLS SCHOOL,126365,School,RAJSHAHI,BAGHMARA,KALIKAPUR,88.95836,24.55978,23028,1
MOHANPUR MANSINGHPUR JUNIOR SCHOOL,126338,School,RAJSHAHI,BAGHMARA,MADHUPUR,88.92569,24.57261,23029,1
BOILSINGH HIGH SCHOOL,126298,School,RAJSHAHI,BAGHMARA,ANNATA PARA,88.93225,24.56722,23030,1
SALEHA EMARAT GIRLS ACADEMY,130907,School,RAJSHAHI,BAGHMARA,SANKOA,88.82083,24.61136,23031,1
KAMARBARI ADARSHA GIRLS HIGH SCHOOL,126316,School,RAJSHAHI,BAGHMARA,KAMARBARI,88.80044,24.61939,23032,1
SANKOA HIGH SCHOOL,126302,School,RAJSHAHI,BAGHMARA,SANKOA,88.80531,24.59614,23033,1
KANTHAL BARI HIGH SCHOOL,126301,School,RAJSHAHI,BAGHMARA,KANTHALBARI,88.84561,24.59778,23034,1
BASUDEB PARA JUNIOR GIRLS SCHOOL,126361,School,RAJSHAHI,BAGHMARA,BASUDEB PARA,88.87858,24.58344,23035,1
GORSAR HIGH SCHOOL AND VOCATIONAL,126345,School,RAJSHAHI,BAGHMARA,GORSAR,88.87764,24.58394,23036,1
HATMADH NAGAR HIGH SCHOOL,126322,School,RAJSHAHI,BAGHMARA,HAT MADHNAGAR,88.86133,24.58522,23037,1
NORDASH MULTILETERAL HIGH SCHOOL,126287,School,RAJSHAHI,BAGHMARA,NARDAS,88.85258,24.58208,23038,1
KOALIPAR HIGH SCHOOL,126321,School,RAJSHAHI,BAGHMARA,KAYALI PARA,88.80061,24.64439,23039,1
SAYEDAMOYEZ UDDIN GIRLS HIGH SCHOOL,126271,School,RAJSHAHI,BAGHMARA,NARDAS,88.88,24.58558,23040,1
SHERKOLE SHIMLA HIGH SCHOOL,126285,School,RAJSHAHI,BAGHMARA,SHIMLA,88.75317,24.62669,23041,1
SONADANGA JUNIOR IDEAL GIRLS SCHOOL,130897,School,RAJSHAHI,BAGHMARA,SONADANGA,88.76675,24.62006,23042,1
CHAIPARA  HIGH SCHOOL,126363,School,RAJSHAHI,BAGHMARA,CHAIN PARA,88.78558,24.65158,23043,1
MENDIPARA JUNIOR SCHOOL,126348,School,RAJSHAHI,BAGHMARA,MEDI PARA(MOLLAPARA),88.77761,24.66992,23044,1
KASBA JUNIOR GIRLS SCHOOL,126366,School,RAJSHAHI,BAGHMARA,KASABA PASCHIM,88.79158,24.67322,23045,1
BAIGACHA  HIGH SCHOOL,126290,School,RAJSHAHI,BAGHMARA,BAIGACHHI,88.77886,24.67014,23046,1
BAIGACHA JUNIOR GIRLS SCHOOL,126337,School,RAJSHAHI,BAGHMARA,BAIGACHHI,88.76144,24.53578,23047,1
MACHMAIL ML. HIGH SCHOOL,126282,School,RAJSHAHI,BAGHMARA,MACHMAIL,88.82372,24.60569,23048,1
MACHMAIL GIRLS HIGH SCHOOL,126315,School,RAJSHAHI,BAGHMARA,MACHMAIL,88.77797,24.54025,23049,1
SANKER POY ADARSHA HIGH SCHOOL,126310,School,RAJSHAHI,BAGHMARA,NARAYAN PARA,88.76172,24.61253,23050,1
PANISAIL HIGH SCHOOL,126291,School,RAJSHAHI,BAGHMARA,PANISAIL,88.79328,24.54614,23051,1
GALLA JUNIOR SCHOOL,127103,School,RAJSHAHI,TANORE,DARIA,88.75825,24.59139,23052,1
ALOKCHHATRA HIGH SCHOOL,126672,School,RAJSHAHI,GODAGARI,ALOKCHHATRA,88.73808,24.5795,23053,1
AMODPUR JUNIOR HIGH SCHOOL,126230,School,RAJSHAHI,BAGHA,BAJUBAGHA,88.74153,24.58133,23054,1
BAGHA HIGH SCHOOL,126202,School,RAJSHAHI,BAGHA,UTTAR MILLIK BAGHA PURBA,88.73828,24.57758,23055,1
SATARI HIGH SCHOOL,126226,School,RAJSHAHI,BAGHA,SATARI,88.83569,24.58461,23056,2
RAHMATULLAH GIRLS HIGH SCHOOL,126208,School,RAJSHAHI,BAGHA,UTTAR MILLIK BAGHA PURBA,88.75261,24.63783,23057,1
ISLAMI ACADEMY HIGH SCHOOL TECHNICAL AND AGRICULTURE COLLEGE,126268,School,RAJSHAHI,BAGHA,BAJUBAGHA NATUN BASATI PURBA,88.84444,24.21817,23058,2
BANIA PARA  HIGH SCHOOL,126239,School,RAJSHAHI,BAGHA,BANIAPARA,88.83597,24.19772,23059,1
CHANDIPUR HIGH SCHOOL,126207,School,RAJSHAHI,BAGHA,CHANDIPUR,88.83867,24.19678,23060,1
HORIPUR HIGH SCHOOL,126219,School,RAJSHAHI,BAGHA,HARIPUR,88.82747,24.18708,23061,1
PANCHPARA HIGH SCHOOL,126213,School,RAJSHAHI,BAGHA,PANCH PARA (PART),88.85225,24.19247,23062,1
KHURDA BAUSHA HIGH SCHOOL,126218,School,RAJSHAHI,BAGHA,KHORD BAUSA,88.86633,24.19931,23063,1
RUSTOMPUR HIGH SCHOOL,126214,School,RAJSHAHI,BAGHA,BERERBARI,88.87203,24.29003,23064,1
NOWTIKA HIGH SCHOOL,126217,School,RAJSHAHI,BAGHA,BAJUBAGHA,88.84864,24.26217,23065,1
BAROKHADIA HIGH SCHOOL,126232,School,RAJSHAHI,BAGHA,BAJUBAGHA,88.872,24.29019,23066,1
TEPUKURIA HIGH SCHOOL,126228,School,RAJSHAHI,BAGHA,BAJUBAGHA,88.84772,24.26408,23067,1
JOTERAGHOB HIGH SCHOOL,126267,School,RAJSHAHI,BAGHA,JOT RAGHAB,88.85506,24.27169,23068,1
ARPARA HIGH SCHOOL,126231,School,RAJSHAHI,BAGHA,ARPARA,88.86619,24.27161,23069,1
AUMORPUR DHANDOH HIGH SCHOOL,126234,School,RAJSHAHI,BAGHA,AMARPUR,88.86317,24.23444,23070,1
HRUN-OR-RASHID SHAHA B.L. HIGH SCHOOL,126200,School,RAJSHAHI,BAGHA,BAUSA,88.85289,24.20944,23071,1
BAUSHA GIRLS HIGH SCHOOL,126216,School,RAJSHAHI,BAGHA,BAUSA,88.84606,24.22794,23072,1
FATEPUR BAUSHA HIGH SCHOOL,126233,School,RAJSHAHI,BAGHA,BAUSA,88.86119,24.18078,23073,1
HARINA HIGH SCHOOL,126203,School,RAJSHAHI,BAGHA,HARINA,88.84208,24.24506,23074,1
TETHULIA GIRLS HIGH SCHOOL,126223,School,RAJSHAHI,BAGHA,SARIFABAD,88.89258,24.24131,23075,1
TENTHULIA HIGH SCHOOL,126205,School,RAJSHAHI,BAGHA,SARIFABAD,88.87839,24.24569,23076,1
CHAK RAJA PUR HIGH SCHOOL,126206,School,RAJSHAHI,BAGHA,CHAK RAJAPUR,88.85594,24.24728,23077,1
KHAYER HAT HIGH SCHOOL,126227,School,RAJSHAHI,BAGHA,KHAYERHAT,88.84253,24.23039,23078,1
KHANPUR GIRLS HIGH SCHOOL,126222,School,RAJSHAHI,BAGHA,SULTANPUR,88.90458,24.25053,23079,1
PaLASHi FATAPUR HIGH SCHOOL,126229,School,RAJSHAHI,BAGHA,PALASHI FATEHPUR,88.88633,24.26306,23080,1
SHARER HAT GIRLS HIGH SCHOOL,126210,School,RAJSHAHI,BAGHA,SARERHAT,88.8592,24.24731,23081,1
MIRGONJ  GIRL'S HIGH SCHOOL,126236,School,RAJSHAHI,BAGHA,BHANUKAR,88.88944,24.15469,23082,1
HARIRAMPUR HIGH SCHOOL,126221,School,RAJSHAHI,BAGHA,RUPPUR HARIRAMPUR,88.85942,24.17397,23083,1
MIRGANJ HIGH SCHOOL,126201,School,RAJSHAHI,BAGHA,BHANUKAR,88.88214,24.15503,23084,1
M.H. GIRLS HIGH SCHOOL,126235,School,RAJSHAHI,BAGHA,HELALPUR,88.86094,24.17064,23085,1
PERSAWTA BINODPUR HIGH SCHOOL,126224,School,RAJSHAHI,BAGHA,PARSAOTA,88.75031,24.22972,23086,1
ALAIPUR HIGH SCHOOL,126220,School,RAJSHAHI,BAGHA,ALIAPUR,88.77906,24.22344,23087,1
JOTENOSHI GIRLS HIGH SCHOOL,126237,School,RAJSHAHI,BAGHA,JOT NASI,88.77925,24.22333,23088,1
KALIDASHKHALI HIGH SCHOOL,126198,School,RAJSHAHI,BAGHA,KALIGRAM,88.74847,24.22817,23089,1
KADIR PUR HIGH SCHOOL,126215,School,RAJSHAHI,BAGHA,MALIANDAHA,88.80669,24.21339,23090,1
KISHORPUR HIGH SCHOOL,126212,School,RAJSHAHI,BAGHA,KISHOREPUR,88.80386,24.20881,23091,1
MONDUMALA GIRL'S HIGH SCHOOL AND COLLEGE,127149,School and College,RAJSHAHI,TANORE,SADIPUR,88.47111,24.60697,26292,1
KISMAT BILLI ML. SCHOOL & COLLEGE,127150,School and College,RAJSHAHI,TANORE,BILLI,88.51531,24.64931,26293,1
DARGADANGA HIGH SCHOOL & COLLEGE,127152,School and College,RAJSHAHI,TANORE,CHAK RATRAM,88.51883,24.68694,26294,1
RAJSHAHI MODEL SCHOOL AND COLLEGE,127043,School and College,RAJSHAHI,RAJPARA,RAJPARA,88.57731,24.37067,26295,1
PUTHIA MODEL  SCHOOL AND COLLEGE,126968,School and College,RAJSHAHI,PUTHIA,BARAI PARA PART,88.59142,24.37253,26296,1
SHAHID NADER ALI GIRLS SCHOOL  & COLLEGE,127022,School and College,RAJSHAHI,PUTHIA,BANESHWAR,88.74875,24.34378,26297,1
BAYA  HIGH SCHOOL  AND COLLEGE,126940,School and College,RAJSHAHI,PABA,BALIA DANGA,88.59519,24.45347,26298,1
BARGACHI HIGH SCHOOL AND COLLEGE,126938,School and College,RAJSHAHI,PABA,BARAGACHHI,88.63608,24.47206,26299,1
MIRJAPUR  SCHOOL AND COLLEGE,126469,School and College,RAJSHAHI,MATIHAR,MIRZAPUR,88.64331,24.35919,26300,1
GULGOFUR GIRLS' HIGH SCHOOL AND COLLEGE,126769,School and College,RAJSHAHI,GODAGARI,BALIAGHATA,88.30636,24.55822,26301,1
GODAGARI HIGH SCHOOL AND COLLEGE,126767,School and College,RAJSHAHI,GODAGARI,SREEMANTAPUR,88.31936,24.46678,26302,1
GOGRAM HIGH SCHOOL AND COLLEGE,126675,School and College,RAJSHAHI,GODAGARI,KANAITKUNDA,88.47783,24.53725,26303,1
LALIT NAGAR HIGH SCHOOLAND COLLEGE,126765,School and College,RAJSHAHI,GODAGARI,MAKRANDA,88.44644,24.54244,26304,1
CHABBISH NAGAR  HIGH SCHOOL AND COLLEGE,126768,School and College,RAJSHAHI,GODAGARI,CHHABBISHNAGAR ARAZI,88.5175,24.51261,26305,1
HORIRAMPUR  SCHOOL AND COLLEGE,126593,School and College,RAJSHAHI,DURGAPUR,HARIRAMPUR,88.77164,24.4445,26306,1
RAJSHAHI CADET COLLEGE,126592,School and College,RAJSHAHI,CHARGHAT,MOKTARPUR (EAST),88.72903,24.33492,26307,1
MASJID MISSION ACADEMY SCHOOL & COLLEGE,126497,School and College,RAJSHAHI,BOALIA,SAHEBGANJ,88.62433,24.37953,26308,1
RAJSHAHI COLLEGIATE SCHOOL AND COLLEGE,126456,School and College,RAJSHAHI,BOALIA,DARGAH PARA,88.60008,24.3885,26309,1
KHADEMUL ISLAM GIRLS SCHOOL & COLLEGE,126496,School and College,RAJSHAHI,BOALIA,RANINAGAR (DAKSHIN),88.61672,24.36228,26310,1
ALOK NAGAR WOMEN'S COLLEGE,126429,School and College,RAJSHAHI,BAGHMARA,HAMIR KUTSHA,88.89614,24.54781,26311,1
BIRKUTSA ABINASH SCHOOL AND COLLEGE,126438,School and College,RAJSHAHI,BAGHMARA,BRI-KUTSHA,88.92544,24.56425,26312,1
KATILA SHOBOJ SHANGO SCHOOL & COLLEGE,126437,School and College,RAJSHAHI,BAGHMARA,KATILA,88.89486,24.59669,26313,1
DIGHA HIGH SCHOOL AND COLLEGE,126265,School and College,RAJSHAHI,BAGHA,DIGHA,88.83411,24.19578,26314,1
KESHABPUR  HIGH SCHOOL  AND  COLLEGE,126264,School and College,RAJSHAHI,BAGHA,KESHABPUR,88.79903,24.19528,26315,1
