{
"type": "FeatureCollection",
"crs": { "type": "name", "properties": { "name": "urn:ogc:def:crs:OGC:1.3:CRS84" } },
"features": [
{ "type": "Feature", "properties": { "inst_name": "CHITTAGONG GOVT. WOMENS COLLEGE", "eiin": 104710, "inst_type": "College", "district": "CHITTAGONG", "thana": "KHULSHI", "mauza": "KAIBALLYA DHAM", "long": 91.823456, "lat": 22.361052, "serial": 293, "isUnique": 1, "field_11": null, "field_12": null, "field_13": null, "field_14": null }, "geometry": { "type": "Point", "coordinates": [ 91.823456, 22.361052 ] } },
{ "type": "Feature", "properties": { "inst_name": "OMARGANI M. E. S. COLLEGe", "eiin": 104300, "inst_type": "College", "district": "CHITTAGONG", "thana": "DOUBLE MOORING", "mauza": "UTTAR PATHANTULI (PART)", "long": 91.817284, "lat": 22.360235, "serial": 294, "isUnique": 1, "field_11": null, "field_12": null, "field_13": null, "field_14": null }, "geometry": { "type": "Point", "coordinates": [ 91.817284, 22.360235 ] } },
{ "type": "Feature", "properties": { "inst_name": "HATHAZARI COLLEGE", "eiin": 104464, "inst_type": "College", "district": "CHITTAGONG", "thana": "HATHAZARI", "mauza": "FATIKA", "long": 91.813103, "lat": 22.501629, "serial": 295, "isUnique": 1, "field_11": null, "field_12": null, "field_13": null, "field_14": null }, "geometry": { "type": "Point", "coordinates": [ 91.813103, 22.501629 ] } },
{ "type": "Feature", "properties": { "inst_name": "BOALKHALI HAZI MD.NURUL HOQUE DEGREE COLLEGE", "eiin": 104153, "inst_type": "College", "district": "CHITTAGONG", "thana": "BOALKHALI", "mauza": "SAKPURA", "long": 91.920074, "lat": 22.357021, "serial": 296, "isUnique": 1, "field_11": null, "field_12": null, "field_13": null, "field_14": null }, "geometry": { "type": "Point", "coordinates": [ 91.920074, 22.357021 ] } },
{ "type": "Feature", "properties": { "inst_name": "ANWARA DEGREE COLLEGE", "eiin": 104038, "inst_type": "College", "district": "CHITTAGONG", "thana": "ANOWARA", "mauza": "ANOWARA", "long": 91.90715, "lat": 22.221909, "serial": 297, "isUnique": 1, "field_11": null, "field_12": null, "field_13": null, "field_14": null }, "geometry": { "type": "Point", "coordinates": [ 91.90715, 22.221909 ] } },
{ "type": "Feature", "properties": { "inst_name": "SHAH MOHSEN AULIA DEGREE COLLEGE", "eiin": 104037, "inst_type": "College", "district": "CHITTAGONG", "thana": "ANOWARA", "mauza": "BATTALI", "long": 91.85981, "lat": 22.203625, "serial": 298, "isUnique": 1, "field_11": null, "field_12": null, "field_13": null, "field_14": null }, "geometry": { "type": "Point", "coordinates": [ 91.85981, 22.203625 ] } },
{ "type": "Feature", "properties": { "inst_name": "NIZAMPUR COLLEGE", "eiin": 104662, "inst_type": "College", "district": "CHITTAGONG", "thana": "MIRSHARAI", "mauza": "MAIJGAON", "long": 91.573235, "lat": 22.773804, "serial": 299, "isUnique": 1, "field_11": null, "field_12": null, "field_13": null, "field_14": null }, "geometry": { "type": "Point", "coordinates": [ 91.573235, 22.773804 ] } },
{ "type": "Feature", "properties": { "inst_name": "PAHATALI COLLEGE", "eiin": 104537, "inst_type": "College", "district": "CHITTAGONG", "thana": "KHULSHI", "mauza": "WIRELESS COLONY", "long": 91.775581, "lat": 22.34527, "serial": 300, "isUnique": 1, "field_11": null, "field_12": null, "field_13": null, "field_14": null }, "geometry": { "type": "Point", "coordinates": [ 91.775581, 22.34527 ] } },
{ "type": "Feature", "properties": { "inst_name": "ASAKANE AOULIA DEGREE COLLEGE", "eiin": 104709, "inst_type": "College", "district": "CHITTAGONG", "thana": "BAYEJID BOSTAMI", "mauza": "JANGAL DAKSHIN PAHAR", "long": 91.828178, "lat": 22.393682, "serial": 301, "isUnique": 1, "field_11": null, "field_12": null, "field_13": null, "field_14": null }, "geometry": { "type": "Point", "coordinates": [ 91.828178, 22.393682 ] } },
{ "type": "Feature", "properties": { "inst_name": "JARINA MOFZAL CITY CORPORATIN COLLEGE", "eiin": 104260, "inst_type": "College", "district": "CHITTAGONG", "thana": "CHITTAGONG PORT", "mauza": "MUNSHI PARA", "long": 91.775772, "lat": 22.300194, "serial": 302, "isUnique": 1, "field_11": null, "field_12": null, "field_13": null, "field_14": null }, "geometry": { "type": "Point", "coordinates": [ 91.775772, 22.300194 ] } },
{ "type": "Feature", "properties": { "inst_name": "HEAKHOW BANANI DEGREE COLLEGE", "eiin": 104393, "inst_type": "College", "district": "CHITTAGONG", "thana": "FATIKCHHARI", "mauza": "DANTMARA", "long": 91.70547, "lat": 22.83008, "serial": 304, "isUnique": 1, "field_11": null, "field_12": null, "field_13": null, "field_14": null }, "geometry": { "type": "Point", "coordinates": [ 91.70547, 22.83008 ] } },
{ "type": "Feature", "properties": { "inst_name": "FATICKCHARI DEGREE COLLEGE", "eiin": 104389, "inst_type": "College", "district": "CHITTAGONG", "thana": "FATIKCHHARI", "mauza": "UTTAR DHURUNG (PART)", "long": 91.67681, "lat": 22.899, "serial": 305, "isUnique": 1, "field_11": null, "field_12": null, "field_13": null, "field_14": null }, "geometry": { "type": "Point", "coordinates": [ 91.67681, 22.899 ] } },
{ "type": "Feature", "properties": { "inst_name": "ISAPUR B.M.C. COLLEGE", "eiin": 104390, "inst_type": "College", "district": "CHITTAGONG", "thana": "FATIKCHHARI", "mauza": "JAHANPUR", "long": 91.80739, "lat": 22.61958, "serial": 306, "isUnique": 1, "field_11": null, "field_12": null, "field_13": null, "field_14": null }, "geometry": { "type": "Point", "coordinates": [ 91.80739, 22.61958 ] } },
{ "type": "Feature", "properties": { "inst_name": "NANUPUR LAILA KABIR COLLAGE", "eiin": 104392, "inst_type": "College", "district": "CHITTAGONG", "thana": "FATIKCHHARI", "mauza": "NANUPUR", "long": 91.84294, "lat": 22.63328, "serial": 307, "isUnique": 1, "field_11": null, "field_12": null, "field_13": null, "field_14": null }, "geometry": { "type": "Point", "coordinates": [ 91.84294, 22.63328 ] } },
{ "type": "Feature", "properties": { "inst_name": "NARAYAN HAT ADARSH DEGREE COLLEGE", "eiin": 104391, "inst_type": "College", "district": "CHITTAGONG", "thana": "FATIKCHHARI", "mauza": "JUJKHALA", "long": 91.84569, "lat": 22.62825, "serial": 308, "isUnique": 1, "field_11": null, "field_12": null, "field_13": null, "field_14": null }, "geometry": { "type": "Point", "coordinates": [ 91.84569, 22.62825 ] } },
{ "type": "Feature", "properties": { "inst_name": "SATKANIA GOVT. COLLEGE", "eiin": 105061, "inst_type": "College", "district": "CHITTAGONG", "thana": "SATKANIA", "mauza": "DAKSHIN CHARPARA", "long": 92.04878, "lat": 22.08294, "serial": 309, "isUnique": 1, "field_11": null, "field_12": null, "field_13": null, "field_14": null }, "geometry": { "type": "Point", "coordinates": [ 92.04878, 22.08294 ] } },
{ "type": "Feature", "properties": { "inst_name": "COLONEL (RTD) OLI AHMED BIR BIKROM COLLEGE", "eiin": 105060, "inst_type": "College", "district": "CHITTAGONG", "thana": "SATKANIA", "mauza": "BAZALIA", "long": 92.03447, "lat": 22.09725, "serial": 310, "isUnique": 1, "field_11": null, "field_12": null, "field_13": null, "field_14": null }, "geometry": { "type": "Point", "coordinates": [ 92.03447, 22.09725 ] } },
{ "type": "Feature", "properties": { "inst_name": "AL HELAL ADARSHA DEGREE COLLEGE", "eiin": 105058, "inst_type": "College", "district": "CHITTAGONG", "thana": "SATKANIA", "mauza": "TULATALI", "long": 92.12944, "lat": 22.12844, "serial": 311, "isUnique": 1, "field_11": null, "field_12": null, "field_13": null, "field_14": null }, "geometry": { "type": "Point", "coordinates": [ 92.12944, 22.12844 ] } },
{ "type": "Feature", "properties": { "inst_name": "UTTAR SATKANIA ZAFAR AHMED CHY COLLAGE", "eiin": 105057, "inst_type": "College", "district": "CHITTAGONG", "thana": "SATKANIA", "mauza": "RASULABAD", "long": 91.99456, "lat": 22.13919, "serial": 312, "isUnique": 1, "field_11": null, "field_12": null, "field_13": null, "field_14": null }, "geometry": { "type": "Point", "coordinates": [ 91.99456, 22.13919 ] } },
{ "type": "Feature", "properties": { "inst_name": "SATKANIA ADARSHA  MAHILA  COLLEGE", "eiin": 105059, "inst_type": "College", "district": "CHITTAGONG", "thana": "SATKANIA", "mauza": "UTTAR CHARPARA", "long": 92.07431, "lat": 22.01611, "serial": 313, "isUnique": 1, "field_11": null, "field_12": null, "field_13": null, "field_14": null }, "geometry": { "type": "Point", "coordinates": [ 92.07431, 22.01611 ] } },
{ "type": "Feature", "properties": { "inst_name": "BAKALIA SHAHEED N.M.M.J. COLLEGE", "eiin": 104236, "inst_type": "College", "district": "CHITTAGONG", "thana": "BAKALIA", "mauza": "DAKSHIN BAKULIA", "long": 92.06956, "lat": 22.02328, "serial": 314, "isUnique": 1, "field_11": null, "field_12": null, "field_13": null, "field_14": null }, "geometry": { "type": "Point", "coordinates": [ 92.06956, 22.02328 ] } },
{ "type": "Feature", "properties": { "inst_name": "FATEYABAD COLLEGE", "eiin": 104050, "inst_type": "College", "district": "CHITTAGONG", "thana": "HATHAZARI", "mauza": "MADHYA PAHARTALI", "long": 91.80056, "lat": 22.42558, "serial": 315, "isUnique": 1, "field_11": null, "field_12": null, "field_13": null, "field_14": null }, "geometry": { "type": "Point", "coordinates": [ 91.80056, 22.42558 ] } },
{ "type": "Feature", "properties": { "inst_name": "K.C.SHAHEED ZIAUR RAHAMAN COLLEGE", "eiin": 104467, "inst_type": "College", "district": "CHITTAGONG", "thana": "HATHAZARI", "mauza": "KHANDAKIYA", "long": 91.83406, "lat": 22.43128, "serial": 316, "isUnique": 1, "field_11": null, "field_12": null, "field_13": null, "field_14": null }, "geometry": { "type": "Point", "coordinates": [ 91.83406, 22.43128 ] } },
{ "type": "Feature", "properties": { "inst_name": "KATIR HAT MOHILA COLLEGE", "eiin": 104463, "inst_type": "College", "district": "CHITTAGONG", "thana": "HATHAZARI", "mauza": "PASCHIM DHALAI", "long": 91.79464, "lat": 22.60125, "serial": 317, "isUnique": 1, "field_11": null, "field_12": null, "field_13": null, "field_14": null }, "geometry": { "type": "Point", "coordinates": [ 91.79464, 22.60125 ] } },
{ "type": "Feature", "properties": { "inst_name": "NAZIRHAT COLLEGE", "eiin": 104466, "inst_type": "College", "district": "CHITTAGONG", "thana": "HATHAZARI", "mauza": "PURBBA MANDAKINI", "long": 91.79497, "lat": 22.47447, "serial": 318, "isUnique": 1, "field_11": null, "field_12": null, "field_13": null, "field_14": null }, "geometry": { "type": "Point", "coordinates": [ 91.79497, 22.47447 ] } },
{ "type": "Feature", "properties": { "inst_name": "QUAISH BURISCHAR  SK. MOHD. CITY CORPORATION COLLEGE", "eiin": 104465, "inst_type": "College", "district": "CHITTAGONG", "thana": "HATHAZARI", "mauza": "KUAIS", "long": 91.79197, "lat": 22.55461, "serial": 319, "isUnique": 1, "field_11": null, "field_12": null, "field_13": null, "field_14": null }, "geometry": { "type": "Point", "coordinates": [ 91.79197, 22.55461 ] } },
{ "type": "Feature", "properties": { "inst_name": "GOVT. SIR ASHUTOSH COLLEGE", "eiin": 104152, "inst_type": "College", "district": "CHITTAGONG", "thana": "BOALKHALI", "mauza": "DHARALA", "long": 91.97783, "lat": 22.36592, "serial": 320, "isUnique": 1, "field_11": null, "field_12": null, "field_13": null, "field_14": null }, "geometry": { "type": "Point", "coordinates": [ 91.97783, 22.36592 ] } },
{ "type": "Feature", "properties": { "inst_name": "KADHUR KHIL JALIL AMBIA COLLEGE", "eiin": 104154, "inst_type": "College", "district": "CHITTAGONG", "thana": "BOALKHALI", "mauza": "KANDHURKHIL", "long": 91.92256, "lat": 22.37494, "serial": 321, "isUnique": 1, "field_11": null, "field_12": null, "field_13": null, "field_14": null }, "geometry": { "type": "Point", "coordinates": [ 91.92256, 22.37494 ] } },
{ "type": "Feature", "properties": { "inst_name": "BOALKHALI SIRAJUL ISLAM DEGREE COLLEGE", "eiin": 104155, "inst_type": "College", "district": "CHITTAGONG", "thana": "BOALKHALI", "mauza": "PURBA GOMDANDI", "long": 91.92217, "lat": 22.38839, "serial": 322, "isUnique": 1, "field_11": null, "field_12": null, "field_13": null, "field_14": null }, "geometry": { "type": "Point", "coordinates": [ 91.92217, 22.38839 ] } },
{ "type": "Feature", "properties": { "inst_name": "AMANAT SAFA BADR UNNESA MOHILLA DEGREE COLLEGE", "eiin": 104201, "inst_type": "College", "district": "CHITTAGONG", "thana": "CHANDANAISH", "mauza": "CHANDANAISH (PART)", "long": 91.90406, "lat": 22.357, "serial": 324, "isUnique": 1, "field_11": null, "field_12": null, "field_13": null, "field_14": null }, "geometry": { "type": "Point", "coordinates": [ 91.90406, 22.357 ] } },
{ "type": "Feature", "properties": { "inst_name": "BARAIYA HAT COLLEGE", "eiin": 104659, "inst_type": "College", "district": "CHITTAGONG", "thana": "MIRSHARAI", "mauza": "AZAMNAGAR(PART)", "long": 91.98831, "lat": 22.40317, "serial": 325, "isUnique": 1, "field_11": null, "field_12": null, "field_13": null, "field_14": null }, "geometry": { "type": "Point", "coordinates": [ 91.98831, 22.40317 ] } },
{ "type": "Feature", "properties": { "inst_name": "PROFESSOR KAMAL UDDIN CHOWDHURY COLLEGE", "eiin": 104660, "inst_type": "College", "district": "CHITTAGONG", "thana": "MIRSHARAI", "mauza": "PASCHIM MAYANI", "long": 91.50286, "lat": 22.81139, "serial": 326, "isUnique": 1, "field_11": null, "field_12": null, "field_13": null, "field_14": null }, "geometry": { "type": "Point", "coordinates": [ 91.50286, 22.81139 ] } },
{ "type": "Feature", "properties": { "inst_name": "MIRSARAI COLLEGE", "eiin": 104661, "inst_type": "College", "district": "CHITTAGONG", "thana": "MIRSHARAI", "mauza": "PURBA MAGHADIA (PART)", "long": 91.55572, "lat": 22.7455, "serial": 327, "isUnique": 1, "field_11": null, "field_12": null, "field_13": null, "field_14": null }, "geometry": { "type": "Point", "coordinates": [ 91.55572, 22.7455 ] } },
{ "type": "Feature", "properties": { "inst_name": "ZORWARGONG MOHILA COLLEGE", "eiin": 104658, "inst_type": "College", "district": "CHITTAGONG", "thana": "MIRSHARAI", "mauza": "SONAPAHAR", "long": 91.62183, "lat": 22.68283, "serial": 328, "isUnique": 1, "field_11": null, "field_12": null, "field_13": null, "field_14": null }, "geometry": { "type": "Point", "coordinates": [ 91.62183, 22.68283 ] } },
{ "type": "Feature", "properties": { "inst_name": "LATIFA SIDDIQUI DEGREE COLLEGE", "eiin": 105114, "inst_type": "College", "district": "CHITTAGONG", "thana": "SITAKUNDA", "mauza": "MACHIGIDDA", "long": 91.65561, "lat": 22.60047, "serial": 329, "isUnique": 1, "field_11": null, "field_12": null, "field_13": null, "field_14": null }, "geometry": { "type": "Point", "coordinates": [ 91.65561, 22.60047 ] } },
{ "type": "Feature", "properties": { "inst_name": "BIJOY SMARANI DEGREE COLLEGE", "eiin": 105113, "inst_type": "College", "district": "CHITTAGONG", "thana": "SITAKUNDA", "mauza": "BHATIARI", "long": 91.70253, "lat": 22.52122, "serial": 330, "isUnique": 1, "field_11": null, "field_12": null, "field_13": null, "field_14": null }, "geometry": { "type": "Point", "coordinates": [ 91.70253, 22.52122 ] } },
{ "type": "Feature", "properties": { "inst_name": "SITAKUND DEGREE COLLEGE", "eiin": 105112, "inst_type": "College", "district": "CHITTAGONG", "thana": "SITAKUNDA", "mauza": "CHOWDHURY PARA (PREMTALA)", "long": 91.68103, "lat": 22.56464, "serial": 331, "isUnique": 1, "field_11": null, "field_12": null, "field_13": null, "field_14": null }, "geometry": { "type": "Point", "coordinates": [ 91.68103, 22.56464 ] } },
{ "type": "Feature", "properties": { "inst_name": "KHALILUR RAHMAN MOHILA COLLEGE", "eiin": 104777, "inst_type": "College", "district": "CHITTAGONG", "thana": "PATIYA", "mauza": "SUCHAKRADANDI (PART)", "long": 91.66975, "lat": 22.62611, "serial": 332, "isUnique": 1, "field_11": null, "field_12": null, "field_13": null, "field_14": null }, "geometry": { "type": "Point", "coordinates": [ 91.66975, 22.62611 ] } },
{ "type": "Feature", "properties": { "inst_name": "PATIYA GOVT COLLEGE", "eiin": 104778, "inst_type": "College", "district": "CHITTAGONG", "thana": "PATIYA", "mauza": "PATIYA PURBA (PART)", "long": 91.64922, "lat": 22.64006, "serial": 333, "isUnique": 1, "field_11": null, "field_12": null, "field_13": null, "field_14": null }, "geometry": { "type": "Point", "coordinates": [ 91.64922, 22.64006 ] } },
{ "type": "Feature", "properties": { "inst_name": "HULAIN SALEH NOOR DEGREE COLLAGE", "eiin": 104779, "inst_type": "College", "district": "CHITTAGONG", "thana": "PATIYA", "mauza": "HULAIN", "long": 91.94897, "lat": 22.32261, "serial": 334, "isUnique": 1, "field_11": null, "field_12": null, "field_13": null, "field_14": null }, "geometry": { "type": "Point", "coordinates": [ 91.94897, 22.32261 ] } },
{ "type": "Feature", "properties": { "inst_name": "MUZAFARABAD COLLEGE", "eiin": 104782, "inst_type": "College", "district": "CHITTAGONG", "thana": "PATIYA", "mauza": "MUZAFARABAD", "long": 91.94583, "lat": 22.27428, "serial": 335, "isUnique": 1, "field_11": null, "field_12": null, "field_13": null, "field_14": null }, "geometry": { "type": "Point", "coordinates": [ 91.94583, 22.27428 ] } },
{ "type": "Feature", "properties": { "inst_name": "MUZAFARABAD JASHODA NAGENDRA NANDI RESIDENTIAL WOMEN COLLEGE", "eiin": 104780, "inst_type": "College", "district": "CHITTAGONG", "thana": "PATIYA", "mauza": "MUZAFARABAD", "long": 91.92103, "lat": 22.27892, "serial": 336, "isUnique": 1, "field_11": null, "field_12": null, "field_13": null, "field_14": null }, "geometry": { "type": "Point", "coordinates": [ 91.92103, 22.27892 ] } },
{ "type": "Feature", "properties": { "inst_name": "PASCHIM PATIYA A.J.CHOWDHURY DEGREE COLLEGE", "eiin": 104485, "inst_type": "College", "district": "CHITTAGONG", "thana": "PATIYA", "mauza": "SIKALBAHA", "long": 91.90511, "lat": 22.31589, "serial": 337, "isUnique": 1, "field_11": null, "field_12": null, "field_13": null, "field_14": null }, "geometry": { "type": "Point", "coordinates": [ 91.90511, 22.31589 ] } },
{ "type": "Feature", "properties": { "inst_name": "KHALIL MIR DEGREE COLLEGE", "eiin": 104783, "inst_type": "College", "district": "CHITTAGONG", "thana": "PATIYA", "mauza": "SAIDAIR", "long": 91.85992, "lat": 22.28292, "serial": 338, "isUnique": 1, "field_11": null, "field_12": null, "field_13": null, "field_14": null }, "geometry": { "type": "Point", "coordinates": [ 91.85992, 22.28292 ] } },
{ "type": "Feature", "properties": { "inst_name": "BARAMA COLLEGE", "eiin": 104199, "inst_type": "College", "district": "CHITTAGONG", "thana": "CHANDANAISH", "mauza": "BARAMA", "long": 91.96644, "lat": 22.19256, "serial": 339, "isUnique": 1, "field_11": null, "field_12": null, "field_13": null, "field_14": null }, "geometry": { "type": "Point", "coordinates": [ 91.96644, 22.19256 ] } },
{ "type": "Feature", "properties": { "inst_name": "GACHHBARIA GOVT COLLEGE", "eiin": 104200, "inst_type": "College", "district": "CHITTAGONG", "thana": "CHANDANAISH", "mauza": "GACHHBARIA (PART)", "long": 92.06889, "lat": 22.16733, "serial": 340, "isUnique": 1, "field_11": null, "field_12": null, "field_13": null, "field_14": null }, "geometry": { "type": "Point", "coordinates": [ 92.06889, 22.16733 ] } },
{ "type": "Feature", "properties": { "inst_name": "SATBARIA OLI AHMED BIR BIKRAM COLLEGE", "eiin": 104202, "inst_type": "College", "district": "CHITTAGONG", "thana": "CHANDANAISH", "mauza": "SATBARIA", "long": 92.01778, "lat": 22.24764, "serial": 341, "isUnique": 1, "field_11": null, "field_12": null, "field_13": null, "field_14": null }, "geometry": { "type": "Point", "coordinates": [ 92.01778, 22.24764 ] } },
{ "type": "Feature", "properties": { "inst_name": "SOUTH RANGUNIA SHILAK GIRLS COLLEGE", "eiin": 104852, "inst_type": "College", "district": "CHITTAGONG", "thana": "RANGUNIA", "mauza": "SILAK", "long": 92.01636, "lat": 22.17708, "serial": 342, "isUnique": 1, "field_11": null, "field_12": null, "field_13": null, "field_14": null }, "geometry": { "type": "Point", "coordinates": [ 92.01636, 22.17708 ] } },
{ "type": "Feature", "properties": { "inst_name": "M. SHAH ALAM CHOWDHURY DEGREE COLLEGE", "eiin": 104849, "inst_type": "College", "district": "CHITTAGONG", "thana": "RANGUNIA", "mauza": "SILAK", "long": 92.03733, "lat": 22.17514, "serial": 343, "isUnique": 1, "field_11": null, "field_12": null, "field_13": null, "field_14": null }, "geometry": { "type": "Point", "coordinates": [ 92.03733, 22.17514 ] } },
{ "type": "Feature", "properties": { "inst_name": "GOHIRA COLLEGE", "eiin": 104933, "inst_type": "College", "district": "CHITTAGONG", "thana": "RAOZAN", "mauza": "DALAINAGAR", "long": 92.02422, "lat": 22.17331, "serial": 344, "isUnique": 1, "field_11": null, "field_12": null, "field_13": null, "field_14": null }, "geometry": { "type": "Point", "coordinates": [ 92.02422, 22.17331 ] } },
{ "type": "Feature", "properties": { "inst_name": "KUNDESWARI BALIKA MOHAVIDYALAYA", "eiin": 104928, "inst_type": "College", "district": "CHITTAGONG", "thana": "RAOZAN", "mauza": "GOHIRA (PART)", "long": 92.01694, "lat": 22.17592, "serial": 345, "isUnique": 1, "field_11": null, "field_12": null, "field_13": null, "field_14": null }, "geometry": { "type": "Point", "coordinates": [ 92.01694, 22.17592 ] } },
{ "type": "Feature", "properties": { "inst_name": "RAOZAN COLLEGE", "eiin": 104931, "inst_type": "College", "district": "CHITTAGONG", "thana": "RAOZAN", "mauza": "SULTANPUR (PART)", "long": 91.86903, "lat": 22.52222, "serial": 346, "isUnique": 1, "field_11": null, "field_12": null, "field_13": null, "field_14": null }, "geometry": { "type": "Point", "coordinates": [ 91.86903, 22.52222 ] } },
{ "type": "Feature", "properties": { "inst_name": "HAJEE BADSHA MABEYA COLLEGE", "eiin": 104936, "inst_type": "College", "district": "CHITTAGONG", "thana": "RAOZAN", "mauza": "BAGOAN", "long": 91.943, "lat": 22.53753, "serial": 347, "isUnique": 1, "field_11": null, "field_12": null, "field_13": null, "field_14": null }, "geometry": { "type": "Point", "coordinates": [ 91.943, 22.53753 ] } },
{ "type": "Feature", "properties": { "inst_name": "AGRASARA GIRL'S DEGREE COLLEGE", "eiin": 104934, "inst_type": "College", "district": "CHITTAGONG", "thana": "RAOZAN", "mauza": "PURBA GUZARA", "long": 91.94525, "lat": 22.48039, "serial": 348, "isUnique": 1, "field_11": null, "field_12": null, "field_13": null, "field_14": null }, "geometry": { "type": "Point", "coordinates": [ 91.94525, 22.48039 ] } },
{ "type": "Feature", "properties": { "inst_name": "HAZRAT YASIN SHAH PUBLIC COLLEGE", "eiin": 104929, "inst_type": "College", "district": "CHITTAGONG", "thana": "RAOZAN", "mauza": "YACHHIN NAGAR", "long": 91.89539, "lat": 22.60236, "serial": 349, "isUnique": 1, "field_11": null, "field_12": null, "field_13": null, "field_14": null }, "geometry": { "type": "Point", "coordinates": [ 91.89539, 22.60236 ] } },
{ "type": "Feature", "properties": { "inst_name": "NOAPARA DEGREE COLLEGE", "eiin": 104932, "inst_type": "College", "district": "CHITTAGONG", "thana": "RAOZAN", "mauza": "NOAPARA", "long": 91.86333, "lat": 22.55511, "serial": 350, "isUnique": 1, "field_11": null, "field_12": null, "field_13": null, "field_14": null }, "geometry": { "type": "Point", "coordinates": [ 91.86333, 22.55511 ] } },
{ "type": "Feature", "properties": { "inst_name": "IMAM GAZZALI DEGREE COLLEGE", "eiin": 104930, "inst_type": "College", "district": "CHITTAGONG", "thana": "RAOZAN", "mauza": "PAHARTALI", "long": 91.89053, "lat": 22.41822, "serial": 351, "isUnique": 1, "field_11": null, "field_12": null, "field_13": null, "field_14": null }, "geometry": { "type": "Point", "coordinates": [ 91.89053, 22.41822 ] } },
{ "type": "Feature", "properties": { "inst_name": "ASHALATA COLLEGE", "eiin": 104935, "inst_type": "College", "district": "CHITTAGONG", "thana": "RAOZAN", "mauza": "URKIRCHAR", "long": 91.88567, "lat": 22.43869, "serial": 352, "isUnique": 1, "field_11": null, "field_12": null, "field_13": null, "field_14": null }, "geometry": { "type": "Point", "coordinates": [ 91.88567, 22.43869 ] } },
{ "type": "Feature", "properties": { "inst_name": "RANGUNIA HASINA JAMAL degree  COLLEGE", "eiin": 104850, "inst_type": "College", "district": "CHITTAGONG", "thana": "RANGUNIA", "mauza": "RANGUNIA", "long": 91.88831, "lat": 22.44539, "serial": 353, "isUnique": 1, "field_11": null, "field_12": null, "field_13": null, "field_14": null }, "geometry": { "type": "Point", "coordinates": [ 91.88831, 22.44539 ] } },
{ "type": "Feature", "properties": { "inst_name": "RAJANAGAR RANIRHAT DEGREE COLLEGE", "eiin": 104848, "inst_type": "College", "district": "CHITTAGONG", "thana": "RANGUNIA", "mauza": "MADHYA GHAGRA", "long": 92.11836, "lat": 22.55047, "serial": 354, "isUnique": 1, "field_11": null, "field_12": null, "field_13": null, "field_14": null }, "geometry": { "type": "Point", "coordinates": [ 92.11836, 22.55047 ] } },
{ "type": "Feature", "properties": { "inst_name": "UTTAR RANGUNIA COLLEGE", "eiin": 104845, "inst_type": "College", "district": "CHITTAGONG", "thana": "RANGUNIA", "mauza": "LALANAGAR", "long": 92.04219, "lat": 22.57172, "serial": 355, "isUnique": 1, "field_11": null, "field_12": null, "field_13": null, "field_14": null }, "geometry": { "type": "Point", "coordinates": [ 92.04219, 22.57172 ] } },
{ "type": "Feature", "properties": { "inst_name": "RANGGUNIA MOHILA COLLEGE", "eiin": 104851, "inst_type": "College", "district": "CHITTAGONG", "thana": "RANGUNIA", "mauza": "PASCHIM SAIDBARI", "long": 92.07297, "lat": 22.5625, "serial": 356, "isUnique": 1, "field_11": null, "field_12": null, "field_13": null, "field_14": null }, "geometry": { "type": "Point", "coordinates": [ 92.07297, 22.5625 ] } },
{ "type": "Feature", "properties": { "inst_name": "RANGUNIA COLLEGE", "eiin": 104844, "inst_type": "College", "district": "CHITTAGONG", "thana": "RANGUNIA", "mauza": "SAIDBARI", "long": 92.07886, "lat": 22.45625, "serial": 357, "isUnique": 1, "field_11": null, "field_12": null, "field_13": null, "field_14": null }, "geometry": { "type": "Point", "coordinates": [ 92.07886, 22.45625 ] } },
{ "type": "Feature", "properties": { "inst_name": "SOUTH RANGUIA PADUA COLLAGE", "eiin": 104846, "inst_type": "College", "district": "CHITTAGONG", "thana": "RANGUNIA", "mauza": "PADUA", "long": 92.07353, "lat": 22.46064, "serial": 358, "isUnique": 1, "field_11": null, "field_12": null, "field_13": null, "field_14": null }, "geometry": { "type": "Point", "coordinates": [ 92.07353, 22.46064 ] } },
{ "type": "Feature", "properties": { "inst_name": "SYEDA SELIMA QADER CHOWDHURY MOHILA COLLEGE", "eiin": 104847, "inst_type": "College", "district": "CHITTAGONG", "thana": "RANGUNIA", "mauza": "POMARA", "long": 92.05094, "lat": 22.52439, "serial": 359, "isUnique": 1, "field_11": null, "field_12": null, "field_13": null, "field_14": null }, "geometry": { "type": "Point", "coordinates": [ 92.05094, 22.52439 ] } },
{ "type": "Feature", "properties": { "inst_name": "MUSTAFIZUR RAHMAN (DEG)COLLEGE", "eiin": 104982, "inst_type": "College", "district": "CHITTAGONG", "thana": "SANDWIP", "mauza": "BAURIA", "long": 91.46175, "lat": 22.48925, "serial": 360, "isUnique": 1, "field_11": null, "field_12": null, "field_13": null, "field_14": null }, "geometry": { "type": "Point", "coordinates": [ 91.46175, 22.48925 ] } },
{ "type": "Feature", "properties": { "inst_name": "ABUL QUASEM HAIDER MOHILA COLLEGE", "eiin": 104981, "inst_type": "College", "district": "CHITTAGONG", "thana": "SANDWIP", "mauza": "HARAMIA", "long": 91.46783, "lat": 22.50547, "serial": 361, "isUnique": 1, "field_11": null, "field_12": null, "field_13": null, "field_14": null }, "geometry": { "type": "Point", "coordinates": [ 91.46783, 22.50547 ] } },
{ "type": "Feature", "properties": { "inst_name": "UTTAR SANDVIP COLLEGE", "eiin": 104979, "inst_type": "College", "district": "CHITTAGONG", "thana": "SANDWIP", "mauza": "KALAPANIA", "long": 91.44156, "lat": 22.51075, "serial": 362, "isUnique": 1, "field_11": null, "field_12": null, "field_13": null, "field_14": null }, "geometry": { "type": "Point", "coordinates": [ 91.44156, 22.51075 ] } },
{ "type": "Feature", "properties": { "inst_name": "SOUTH SANDWIP COLLEGE", "eiin": 104978, "inst_type": "College", "district": "CHITTAGONG", "thana": "SANDWIP", "mauza": "MAITBHANGA", "long": 91.51092, "lat": 22.42672, "serial": 363, "isUnique": 1, "field_11": null, "field_12": null, "field_13": null, "field_14": null }, "geometry": { "type": "Point", "coordinates": [ 91.51092, 22.42672 ] } },
{ "type": "Feature", "properties": { "inst_name": "GOVT. HAJI A.B. COLLEGE", "eiin": 104980, "inst_type": "College", "district": "CHITTAGONG", "thana": "SANDWIP", "mauza": "MUSAPUR", "long": 91.49231, "lat": 22.43469, "serial": 364, "isUnique": 1, "field_11": null, "field_12": null, "field_13": null, "field_14": null }, "geometry": { "type": "Point", "coordinates": [ 91.49231, 22.43469 ] } },
{ "type": "Feature", "properties": { "inst_name": "HAZERA TAJU DEGREE COLLEGE", "eiin": 104237, "inst_type": "College", "district": "CHITTAGONG", "thana": "CHANDGAON", "mauza": "DAKSHIN CHANDGAON KAZIR DEYEA", "long": 91.87906, "lat": 22.40147, "serial": 365, "isUnique": 1, "field_11": null, "field_12": null, "field_13": null, "field_14": null }, "geometry": { "type": "Point", "coordinates": [ 91.87906, 22.40147 ] } },
{ "type": "Feature", "properties": { "inst_name": "ALaOL DEGREE COLLEGE", "eiin": 104102, "inst_type": "College", "district": "CHITTAGONG", "thana": "BANSHKHALI", "mauza": "UTTAR NEAJOR PARA", "long": 91.92075, "lat": 21.90044, "serial": 367, "isUnique": 1, "field_11": null, "field_12": null, "field_13": null, "field_14": null }, "geometry": { "type": "Point", "coordinates": [ 91.92075, 21.90044 ] } },
{ "type": "Feature", "properties": { "inst_name": "BANSKHALI (DEGREE) COLLEGE", "eiin": 131885, "inst_type": "College", "district": "CHITTAGONG", "thana": "BANSHKHALI", "mauza": "JUNGLE GUNAGARI", "long": 91.94931, "lat": 22.01083, "serial": 368, "isUnique": 1, "field_11": null, "field_12": null, "field_13": null, "field_14": null }, "geometry": { "type": "Point", "coordinates": [ 91.94931, 22.01083 ] } },
{ "type": "Feature", "properties": { "inst_name": "MASTER NAZIR AHAMED COLLEGE", "eiin": 131852, "inst_type": "College", "district": "CHITTAGONG", "thana": "BANSHKHALI", "mauza": "SEKHERKHIL", "long": 91.88561, "lat": 22.10347, "serial": 369, "isUnique": 1, "field_11": null, "field_12": null, "field_13": null, "field_14": null }, "geometry": { "type": "Point", "coordinates": [ 91.88561, 22.10347 ] } },
{ "type": "Feature", "properties": { "inst_name": "BARA AULIA DEGREE  COLLEGE", "eiin": 104589, "inst_type": "College", "district": "CHITTAGONG", "thana": "LOHAGARA", "mauza": "AMIRABAD", "long": 92.11242, "lat": 22.02681, "serial": 370, "isUnique": 1, "field_11": null, "field_12": null, "field_13": null, "field_14": null }, "geometry": { "type": "Point", "coordinates": [ 92.11242, 22.02681 ] } },
{ "type": "Feature", "properties": { "inst_name": "CHUNaTI MOHILA COLLeGE", "eiin": 104590, "inst_type": "College", "district": "CHITTAGONG", "thana": "LOHAGARA", "mauza": "CHUNATI", "long": 92.06269, "lat": 21.99522, "serial": 371, "isUnique": 1, "field_11": null, "field_12": null, "field_13": null, "field_14": null }, "geometry": { "type": "Point", "coordinates": [ 92.06269, 21.99522 ] } },
{ "type": "Feature", "properties": { "inst_name": "ALHAJ MOSTAFIZUR RAHMAN COLLEGE", "eiin": 104588, "inst_type": "College", "district": "CHITTAGONG", "thana": "LOHAGARA", "mauza": "LOHAGARA", "long": 92.13539, "lat": 22.00383, "serial": 372, "isUnique": 1, "field_11": null, "field_12": null, "field_13": null, "field_14": null }, "geometry": { "type": "Point", "coordinates": [ 92.13539, 22.00383 ] } },
{ "type": "Feature", "properties": { "inst_name": "BARRISTER SULTAN AHMEDCHOWBHURY DEGREE COLLEGE", "eiin": 104261, "inst_type": "College", "district": "CHITTAGONG", "thana": "CHITTAGONG PORT", "mauza": "DAKSHIN HALISHAHAR (PART)", "long": 91.80611, "lat": 22.36669, "serial": 373, "isUnique": 1, "field_11": null, "field_12": null, "field_13": null, "field_14": null }, "geometry": { "type": "Point", "coordinates": [ 91.80611, 22.36669 ] } },
{ "type": "Feature", "properties": { "inst_name": "ISLAMIA DEGREE GOLLEGE", "eiin": 104299, "inst_type": "College", "district": "CHITTAGONG", "thana": "DOUBLE MOORING", "mauza": "DAROGA HAT", "long": 91.80239, "lat": 22.32375, "serial": 374, "isUnique": 1, "field_11": null, "field_12": null, "field_13": null, "field_14": null }, "geometry": { "type": "Point", "coordinates": [ 91.80239, 22.32375 ] } },
{ "type": "Feature", "properties": { "inst_name": "GOVT. COLLEGE OF COMMERCE", "eiin": 104302, "inst_type": "College", "district": "CHITTAGONG", "thana": "DOUBLE MOORING", "mauza": "BANGLADESH BANK COLONY", "long": 91.81261, "lat": 22.33317, "serial": 375, "isUnique": 2, "field_11": null, "field_12": null, "field_13": null, "field_14": null }, "geometry": { "type": "Point", "coordinates": [ 91.81261, 22.33317 ] } },
{ "type": "Feature", "properties": { "inst_name": "AGRABAD MOHILA COLLeGE", "eiin": 104303, "inst_type": "College", "district": "CHITTAGONG", "thana": "DOUBLE MOORING", "mauza": "C. D. A.", "long": 91.82647, "lat": 22.32933, "serial": 377, "isUnique": 1, "field_11": null, "field_12": null, "field_13": null, "field_14": null }, "geometry": { "type": "Point", "coordinates": [ 91.82647, 22.32933 ] } },
{ "type": "Feature", "properties": { "inst_name": "UTTAR KATLI AL-HAJ MOSTAFA -HAKIM DEGREE COLLEGE", "eiin": 104688, "inst_type": "College", "district": "CHITTAGONG", "thana": "PAHARTALI", "mauza": "UTTAR KATTALI", "long": 91.77572, "lat": 22.37083, "serial": 378, "isUnique": 1, "field_11": null, "field_12": null, "field_13": null, "field_14": null }, "geometry": { "type": "Point", "coordinates": [ 91.77572, 22.37083 ] } },
{ "type": "Feature", "properties": { "inst_name": "DR.FAZLUL HAJERA DEGREE COLLEGE", "eiin": 104687, "inst_type": "College", "district": "CHITTAGONG", "thana": "PAHARTALI", "mauza": "DAKSHIN KAT TALI(PART)", "long": 91.77114, "lat": 22.37386, "serial": 379, "isUnique": 1, "field_11": null, "field_12": null, "field_13": null, "field_14": null }, "geometry": { "type": "Point", "coordinates": [ 91.77114, 22.37386 ] } },
{ "type": "Feature", "properties": { "inst_name": "GOVT.CHITTAGONG COLLEGE", "eiin": 104532, "inst_type": "College", "district": "CHITTAGONG", "thana": "KOTWALI", "mauza": "CHAK BAZAR", "long": 91.83667, "lat": 22.35147, "serial": 380, "isUnique": 1, "field_11": null, "field_12": null, "field_13": null, "field_14": null }, "geometry": { "type": "Point", "coordinates": [ 91.83667, 22.35147 ] } },
{ "type": "Feature", "properties": { "inst_name": "KAPASGOLA CITY CORPARATION MOHILA COLLEGE", "eiin": 132060, "inst_type": "College", "district": "CHITTAGONG", "thana": "KOTWALI", "mauza": "CHAK BAZAR", "long": 91.83819, "lat": 22.3515, "serial": 381, "isUnique": 1, "field_11": null, "field_12": null, "field_13": null, "field_14": null }, "geometry": { "type": "Point", "coordinates": [ 91.83819, 22.3515 ] } },
{ "type": "Feature", "properties": { "inst_name": "GOVT HAJI MOHD MOHSIN COLLEGE CTG", "eiin": 104527, "inst_type": "College", "district": "CHITTAGONG", "thana": "KOTWALI", "mauza": "CHAK BAZAR", "long": 91.835, "lat": 22.35058, "serial": 382, "isUnique": 1, "field_11": null, "field_12": null, "field_13": null, "field_14": null }, "geometry": { "type": "Point", "coordinates": [ 91.835, 22.35058 ] } },
{ "type": "Feature", "properties": { "inst_name": "CHITAGONG METROPOLITON COMMERCE COLLEGE", "eiin": 104531, "inst_type": "College", "district": "CHITTAGONG", "thana": "KOTWALI", "mauza": "BAG MONIRAM", "long": 91.83525, "lat": 22.35275, "serial": 383, "isUnique": 1, "field_11": null, "field_12": null, "field_13": null, "field_14": null }, "geometry": { "type": "Point", "coordinates": [ 91.83525, 22.35275 ] } },
{ "type": "Feature", "properties": { "inst_name": "Mahila college chattagram", "eiin": 104528, "inst_type": "College", "district": "CHITTAGONG", "thana": "KOTWALI", "mauza": "TERI BAZAR (FORHAD BAGBAG LALE", "long": 91.8345, "lat": 22.34789, "serial": 384, "isUnique": 1, "field_11": null, "field_12": null, "field_13": null, "field_14": null }, "geometry": { "type": "Point", "coordinates": [ 91.8345, 22.34789 ] } },
{ "type": "Feature", "properties": { "inst_name": "PATHARGHATA MOHILA COLLEGE", "eiin": 104529, "inst_type": "College", "district": "CHITTAGONG", "thana": "KOTWALI", "mauza": "POLO GROUND", "long": 91.83717, "lat": 22.33139, "serial": 385, "isUnique": 1, "field_11": null, "field_12": null, "field_13": null, "field_14": null }, "geometry": { "type": "Point", "coordinates": [ 91.83717, 22.33139 ] } },
{ "type": "Feature", "properties": { "inst_name": "NATUN BAZAR  ISLAMIA DAHKIL MADRASAH", "eiin": 104375, "inst_type": "Madrasha", "district": "CHITTAGONG", "thana": "FATIKCHHARI", "mauza": "JUNGLE DANTMARA", "long": 91.20942, "lat": 23.45933, "serial": 3635, "isUnique": 1, "field_11": null, "field_12": null, "field_13": null, "field_14": null }, "geometry": { "type": "Point", "coordinates": [ 91.20942, 23.45933 ] } },
{ "type": "Feature", "properties": { "inst_name": "MUNIRUL ULUM BARIA ISLAMAI DAHKIL MADRASAH", "eiin": 131756, "inst_type": "Madrasha", "district": "CHITTAGONG", "thana": "FATIKCHHARI", "mauza": "UTTAR RANGAMATIA (PART)", "long": 91.22939, "lat": 23.47631, "serial": 3636, "isUnique": 1, "field_11": null, "field_12": null, "field_13": null, "field_14": null }, "geometry": { "type": "Point", "coordinates": [ 91.22939, 23.47631 ] } },
{ "type": "Feature", "properties": { "inst_name": "IMAM ABU HANIFA  R; DHKIL MADRASAH", "eiin": 131862, "inst_type": "Madrasha", "district": "CHITTAGONG", "thana": "FATIKCHHARI", "mauza": "UTTAR DHURUNG (PART)", "long": 91.13494, "lat": 23.43893, "serial": 3637, "isUnique": 1, "field_11": null, "field_12": null, "field_13": null, "field_14": null }, "geometry": { "type": "Point", "coordinates": [ 91.13494, 23.43893 ] } },
{ "type": "Feature", "properties": { "inst_name": "MADRASHA -F-GAUSUL AZAM  AMIZBHANARI", "eiin": 131826, "inst_type": "Madrasha", "district": "CHITTAGONG", "thana": "FATIKCHHARI", "mauza": "MAIJBHANDAR", "long": 91.12556, "lat": 23.43286, "serial": 3638, "isUnique": 1, "field_11": null, "field_12": null, "field_13": null, "field_14": null }, "geometry": { "type": "Point", "coordinates": [ 91.12556, 23.43286 ] } },
{ "type": "Feature", "properties": { "inst_name": "KORALIA TAKIA NESARIA SUNNIA DAKHIL MADRASHA", "eiin": 104377, "inst_type": "Madrasha", "district": "CHITTAGONG", "thana": "FATIKCHHARI", "mauza": "LOT 98 ANDHARMANIK", "long": 91.80611, "lat": 22.69044, "serial": 3639, "isUnique": 1, "field_11": null, "field_12": null, "field_13": null, "field_14": null }, "geometry": { "type": "Point", "coordinates": [ 91.80611, 22.69044 ] } },
{ "type": "Feature", "properties": { "inst_name": "BANGLA BAZER ISLAMIA DAKIL MADRASAH", "eiin": 104381, "inst_type": "Madrasha", "district": "CHITTAGONG", "thana": "FATIKCHHARI", "mauza": "JUNGLE DANTMARA", "long": 91.8355, "lat": 22.63475, "serial": 3640, "isUnique": 1, "field_11": null, "field_12": null, "field_13": null, "field_14": null }, "geometry": { "type": "Point", "coordinates": [ 91.8355, 22.63475 ] } },
{ "type": "Feature", "properties": { "inst_name": "FAROQUE -E-AZAM R; ISLAMIA SUAAIA MADRASAH", "eiin": 104387, "inst_type": "Madrasha", "district": "CHITTAGONG", "thana": "FATIKCHHARI", "mauza": "BAKTAPUR", "long": 91.71003, "lat": 22.98117, "serial": 3641, "isUnique": 1, "field_11": null, "field_12": null, "field_13": null, "field_14": null }, "geometry": { "type": "Point", "coordinates": [ 91.71003, 22.98117 ] } },
{ "type": "Feature", "properties": { "inst_name": "HASNUBAD AHSANUL ULUM ISLAMIA DAKHIL MADRASHA", "eiin": 104359, "inst_type": "Madrasha", "district": "CHITTAGONG", "thana": "FATIKCHHARI", "mauza": "HASNABAD", "long": 91.74131, "lat": 22.74864, "serial": 3642, "isUnique": 1, "field_11": null, "field_12": null, "field_13": null, "field_14": null }, "geometry": { "type": "Point", "coordinates": [ 91.74131, 22.74864 ] } },
{ "type": "Feature", "properties": { "inst_name": "HEAKO RAHMANIA DAKHIL MADRASAH", "eiin": 104361, "inst_type": "Madrasha", "district": "CHITTAGONG", "thana": "FATIKCHHARI", "mauza": "DANTMARA", "long": 91.72831, "lat": 22.77319, "serial": 3643, "isUnique": 1, "field_11": null, "field_12": null, "field_13": null, "field_14": null }, "geometry": { "type": "Point", "coordinates": [ 91.72831, 22.77319 ] } },
{ "type": "Feature", "properties": { "inst_name": "DANTAMARIA MAINUL ULUM DAKHIL MADRASAH", "eiin": 104367, "inst_type": "Madrasha", "district": "CHITTAGONG", "thana": "FATIKCHHARI", "mauza": "UTTAR BARAMASIA", "long": 91.72775, "lat": 22.75161, "serial": 3644, "isUnique": 1, "field_11": null, "field_12": null, "field_13": null, "field_14": null }, "geometry": { "type": "Point", "coordinates": [ 91.72775, 22.75161 ] } },
{ "type": "Feature", "properties": { "inst_name": "SHANTIR HAT MISHKATUNNABI DAKHIL MADRASHA", "eiin": 104380, "inst_type": "Madrasha", "district": "CHITTAGONG", "thana": "FATIKCHHARI", "mauza": "UTTAR BARAMASIA", "long": 91.69947, "lat": 22.86975, "serial": 3645, "isUnique": 1, "field_11": null, "field_12": null, "field_13": null, "field_14": null }, "geometry": { "type": "Point", "coordinates": [ 91.69947, 22.86975 ] } },
{ "type": "Feature", "properties": { "inst_name": "SOUTH DHARMAPUR RAHAMANIA MOHAMMADIA DAKHIL MADRASHA", "eiin": 104376, "inst_type": "Madrasha", "district": "CHITTAGONG", "thana": "FATIKCHHARI", "mauza": "DHARMAPUR", "long": 91.67517, "lat": 22.89219, "serial": 3646, "isUnique": 1, "field_11": null, "field_12": null, "field_13": null, "field_14": null }, "geometry": { "type": "Point", "coordinates": [ 91.67517, 22.89219 ] } },
{ "type": "Feature", "properties": { "inst_name": "DARUSSNNAH KHADRIA DAHKIL MADRASAH", "eiin": 104384, "inst_type": "Madrasha", "district": "CHITTAGONG", "thana": "FATIKCHHARI", "mauza": "PURBA FARHADABAD", "long": 91.81186, "lat": 22.64056, "serial": 3648, "isUnique": 1, "field_11": null, "field_12": null, "field_13": null, "field_14": null }, "geometry": { "type": "Point", "coordinates": [ 91.81186, 22.64056 ] } },
{ "type": "Feature", "properties": { "inst_name": "NUR KAZI HALIMIA MOHILA DAHKIL MADRASAH", "eiin": 104374, "inst_type": "Madrasha", "district": "CHITTAGONG", "thana": "FATIKCHHARI", "mauza": "PURBA FARHADABAD", "long": 91.792, "lat": 22.68983, "serial": 3649, "isUnique": 2, "field_11": null, "field_12": null, "field_13": null, "field_14": null }, "geometry": { "type": "Point", "coordinates": [ 91.792, 22.68983 ] } },
{ "type": "Feature", "properties": { "inst_name": "GAWSIA RAHMANI SULTANA DAKHIL MADRASA", "eiin": 104371, "inst_type": "Madrasha", "district": "CHITTAGONG", "thana": "FATIKCHHARI", "mauza": "HARWALCHHARI", "long": 91.79586, "lat": 22.63808, "serial": 3650, "isUnique": 1, "field_11": null, "field_12": null, "field_13": null, "field_14": null }, "geometry": { "type": "Point", "coordinates": [ 91.79586, 22.63808 ] } },
{ "type": "Feature", "properties": { "inst_name": "FATEHPUR J B NURIA DAKHIL MADRASAH", "eiin": 104386, "inst_type": "Madrasha", "district": "CHITTAGONG", "thana": "FATIKCHHARI", "mauza": "FATEHPUR", "long": 91.80672, "lat": 22.63211, "serial": 3651, "isUnique": 1, "field_11": null, "field_12": null, "field_13": null, "field_14": null }, "geometry": { "type": "Point", "coordinates": [ 91.80672, 22.63211 ] } },
{ "type": "Feature", "properties": { "inst_name": "SHAMSUL ULLUM GAUSIA SUNNIA ALIM MADRASHA", "eiin": 104382, "inst_type": "Madrasha", "district": "CHITTAGONG", "thana": "FATIKCHHARI", "mauza": "ABDULLAPUR", "long": 91.74781, "lat": 22.71647, "serial": 3652, "isUnique": 1, "field_11": null, "field_12": null, "field_13": null, "field_14": null }, "geometry": { "type": "Point", "coordinates": [ 91.74781, 22.71647 ] } },
{ "type": "Feature", "properties": { "inst_name": "KANCHAN NAGAR HAT ISLAMIA DAKHIL MADRASHA", "eiin": 104369, "inst_type": "Madrasha", "district": "CHITTAGONG", "thana": "FATIKCHHARI", "mauza": "MADHYA KANCHAN NAGAR", "long": 91.85761, "lat": 22.57569, "serial": 3653, "isUnique": 1, "field_11": null, "field_12": null, "field_13": null, "field_14": null }, "geometry": { "type": "Point", "coordinates": [ 91.85761, 22.57569 ] } },
{ "type": "Feature", "properties": { "inst_name": "KANCHAN NAGAR AHMADIA KARAMOTIHA MOHILA DAKHIL MADRASAH", "eiin": 131773, "inst_type": "Madrasha", "district": "CHITTAGONG", "thana": "FATIKCHHARI", "mauza": "MANIKPUR", "long": 91.85792, "lat": 22.57467, "serial": 3654, "isUnique": 1, "field_11": null, "field_12": null, "field_13": null, "field_14": null }, "geometry": { "type": "Point", "coordinates": [ 91.85792, 22.57467 ] } },
{ "type": "Feature", "properties": { "inst_name": "KHIRAM QUADERIA MOYEENIA DAKHIL MADRASHA", "eiin": 104383, "inst_type": "Madrasha", "district": "CHITTAGONG", "thana": "FATIKCHHARI", "mauza": "KRISHNANAGAR", "long": 91.86283, "lat": 22.58661, "serial": 3655, "isUnique": 1, "field_11": null, "field_12": null, "field_13": null, "field_14": null }, "geometry": { "type": "Point", "coordinates": [ 91.86283, 22.58661 ] } },
{ "type": "Feature", "properties": { "inst_name": "BONDE RAZA A MOHILA DAKIL MANRASHA", "eiin": 104385, "inst_type": "Madrasha", "district": "CHITTAGONG", "thana": "FATIKCHHARI", "mauza": "LELANG", "long": 91.82903, "lat": 22.73619, "serial": 3656, "isUnique": 1, "field_11": null, "field_12": null, "field_13": null, "field_14": null }, "geometry": { "type": "Point", "coordinates": [ 91.82903, 22.73619 ] } },
{ "type": "Feature", "properties": { "inst_name": "NOOR -UL- ULUM GAWCHIA MUNIRIA DAHKIL MADRASAH", "eiin": 104373, "inst_type": "Madrasha", "district": "CHITTAGONG", "thana": "FATIKCHHARI", "mauza": "GOPALGHATA", "long": 91.84506, "lat": 22.74186, "serial": 3657, "isUnique": 1, "field_11": null, "field_12": null, "field_13": null, "field_14": null }, "geometry": { "type": "Point", "coordinates": [ 91.84506, 22.74186 ] } },
{ "type": "Feature", "properties": { "inst_name": "NANPUR MOHILA ALIM MADRASHA", "eiin": 104358, "inst_type": "Madrasha", "district": "CHITTAGONG", "thana": "FATIKCHHARI", "mauza": "NANUPUR", "long": 91.84375, "lat": 22.6625, "serial": 3658, "isUnique": 1, "field_11": null, "field_12": null, "field_13": null, "field_14": null }, "geometry": { "type": "Point", "coordinates": [ 91.84375, 22.6625 ] } },
{ "type": "Feature", "properties": { "inst_name": "MAJHARUL UL.GAU.FAZIL MADRASAH", "eiin": 104365, "inst_type": "Madrasha", "district": "CHITTAGONG", "thana": "FATIKCHHARI", "mauza": "NANUPUR", "long": 91.83194, "lat": 22.66644, "serial": 3659, "isUnique": 1, "field_11": null, "field_12": null, "field_13": null, "field_14": null }, "geometry": { "type": "Point", "coordinates": [ 91.83194, 22.66644 ] } },
{ "type": "Feature", "properties": { "inst_name": "NURUL ULUM AHMAIDA REZVIA  DAHKIL MADRASAH", "eiin": 104357, "inst_type": "Madrasha", "district": "CHITTAGONG", "thana": "FATIKCHHARI", "mauza": "PASCHIM KHIRAM", "long": 91.82328, "lat": 22.67269, "serial": 3660, "isUnique": 1, "field_11": null, "field_12": null, "field_13": null, "field_14": null }, "geometry": { "type": "Point", "coordinates": [ 91.82328, 22.67269 ] } },
{ "type": "Feature", "properties": { "inst_name": "NARAYAN HAT ISLAMIA MOHILA DAKIL MADRASHA", "eiin": 104388, "inst_type": "Madrasha", "district": "CHITTAGONG", "thana": "FATIKCHHARI", "mauza": "JUJKHALA", "long": 91.84517, "lat": 22.61803, "serial": 3661, "isUnique": 1, "field_11": null, "field_12": null, "field_13": null, "field_14": null }, "geometry": { "type": "Point", "coordinates": [ 91.84517, 22.61803 ] } },
{ "type": "Feature", "properties": { "inst_name": "NARAYAN HAT ISLAMIA ALIM MADRASAH", "eiin": 104366, "inst_type": "Madrasha", "district": "CHITTAGONG", "thana": "FATIKCHHARI", "mauza": "HAPANIA", "long": 91.90706, "lat": 22.64869, "serial": 3662, "isUnique": 1, "field_11": null, "field_12": null, "field_13": null, "field_14": null }, "geometry": { "type": "Point", "coordinates": [ 91.90706, 22.64869 ] } },
{ "type": "Feature", "properties": { "inst_name": "BERAZALI MOZIDIA  ISLAMIA DAHKIL MARASAH", "eiin": 104368, "inst_type": "Madrasha", "district": "CHITTAGONG", "thana": "FATIKCHHARI", "mauza": "UTTAR PAINDANG", "long": 91.72439, "lat": 22.78406, "serial": 3663, "isUnique": 1, "field_11": null, "field_12": null, "field_13": null, "field_14": null }, "geometry": { "type": "Point", "coordinates": [ 91.72439, 22.78406 ] } },
{ "type": "Feature", "properties": { "inst_name": "PAINDONG HEDAYTUL ISLAM DAKHIL MADRASHA", "eiin": 104360, "inst_type": "Madrasha", "district": "CHITTAGONG", "thana": "FATIKCHHARI", "mauza": "HAIDCHAKSHIYA", "long": 91.71856, "lat": 22.81278, "serial": 3664, "isUnique": 1, "field_11": null, "field_12": null, "field_13": null, "field_14": null }, "geometry": { "type": "Point", "coordinates": [ 91.71856, 22.81278 ] } },
{ "type": "Feature", "properties": { "inst_name": "FATICCHARI JAMEUL ULUM KAMIL DEGREE MADRASA", "eiin": 104364, "inst_type": "Madrasha", "district": "CHITTAGONG", "thana": "FATIKCHHARI", "mauza": "UTTAR RANGAMATIA (PART)", "long": 91.71908, "lat": 22.81283, "serial": 3665, "isUnique": 1, "field_11": null, "field_12": null, "field_13": null, "field_14": null }, "geometry": { "type": "Point", "coordinates": [ 91.71908, 22.81283 ] } },
{ "type": "Feature", "properties": { "inst_name": "SUABIL GAWSIA TAMADIA TAYEBIA SUNNIA DAHKIL MADRASAH", "eiin": 104379, "inst_type": "Madrasha", "district": "CHITTAGONG", "thana": "FATIKCHHARI", "mauza": "SUABIL", "long": 91.79453, "lat": 22.6895, "serial": 3666, "isUnique": 1, "field_11": null, "field_12": null, "field_13": null, "field_14": null }, "geometry": { "type": "Point", "coordinates": [ 91.79453, 22.6895 ] } },
{ "type": "Feature", "properties": { "inst_name": "SHAMITIR HAT ISLAMIA ALIM MADRASAH", "eiin": 104372, "inst_type": "Madrasha", "district": "CHITTAGONG", "thana": "FATIKCHHARI", "mauza": "PURBA DHALAI", "long": 91.79783, "lat": 22.68658, "serial": 3667, "isUnique": 1, "field_11": null, "field_12": null, "field_13": null, "field_14": null }, "geometry": { "type": "Point", "coordinates": [ 91.79783, 22.68658 ] } },
{ "type": "Feature", "properties": { "inst_name": "HARINADIGHEE ISLAMIA DAKHIL MADRASHA", "eiin": 131778, "inst_type": "Madrasha", "district": "CHITTAGONG", "thana": "FATIKCHHARI", "mauza": "CHHILANIA", "long": 91.76481, "lat": 22.49044, "serial": 3668, "isUnique": 1, "field_11": null, "field_12": null, "field_13": null, "field_14": null }, "geometry": { "type": "Point", "coordinates": [ 91.76481, 22.49044 ] } },
{ "type": "Feature", "properties": { "inst_name": "SATKANIA ADARSHA MOHILA MADRASHA", "eiin": 131793, "inst_type": "Madrasha", "district": "CHITTAGONG", "thana": "SATKANIA", "mauza": "ICHHAMATI", "long": 91.81922, "lat": 22.59147, "serial": 3669, "isUnique": 1, "field_11": null, "field_12": null, "field_13": null, "field_14": null }, "geometry": { "type": "Point", "coordinates": [ 91.81922, 22.59147 ] } },
{ "type": "Feature", "properties": { "inst_name": "SARKANIA MAHMUDUL ULUM FAZIL MADRASHA", "eiin": 105034, "inst_type": "Madrasha", "district": "CHITTAGONG", "thana": "SATKANIA", "mauza": "DAKSHIN CHARPARA", "long": 91.83189, "lat": 22.58772, "serial": 3670, "isUnique": 1, "field_11": null, "field_12": null, "field_13": null, "field_14": null }, "geometry": { "type": "Point", "coordinates": [ 91.83189, 22.58772 ] } },
{ "type": "Feature", "properties": { "inst_name": "RUPKANIA AHMADIA DAKHIL MADRASHA", "eiin": 105026, "inst_type": "Madrasha", "district": "CHITTAGONG", "thana": "SATKANIA", "mauza": "RUPKANIA (PART)DAKSHIN RUPKANI", "long": 91.83972, "lat": 22.56639, "serial": 3671, "isUnique": 1, "field_11": null, "field_12": null, "field_13": null, "field_14": null }, "geometry": { "type": "Point", "coordinates": [ 91.83972, 22.56639 ] } },
{ "type": "Feature", "properties": { "inst_name": "PASCHIM GATIA DANGA ISLAMIA DAKHIL MADRASHA", "eiin": 105031, "inst_type": "Madrasha", "district": "CHITTAGONG", "thana": "SATKANIA", "mauza": "PASCHIM GATIADANGA", "long": 92.04822, "lat": 22.09186, "serial": 3672, "isUnique": 1, "field_11": null, "field_12": null, "field_13": null, "field_14": null }, "geometry": { "type": "Point", "coordinates": [ 92.04822, 22.09186 ] } },
{ "type": "Feature", "properties": { "inst_name": "BAITUS SHARAF AKHTARIA ADARSHA ALIM MADRASHA", "eiin": 105046, "inst_type": "Madrasha", "district": "CHITTAGONG", "thana": "SATKANIA", "mauza": "SITUR PARA", "long": 92.05767, "lat": 22.07656, "serial": 3673, "isUnique": 1, "field_11": null, "field_12": null, "field_13": null, "field_14": null }, "geometry": { "type": "Point", "coordinates": [ 92.05767, 22.07656 ] } },
{ "type": "Feature", "properties": { "inst_name": "BAZALIA HEDAYATUL ISLAM FAZIL MADRASHA", "eiin": 105036, "inst_type": "Madrasha", "district": "CHITTAGONG", "thana": "SATKANIA", "mauza": "BAZALIA", "long": 92.07461, "lat": 22.08856, "serial": 3674, "isUnique": 1, "field_11": null, "field_12": null, "field_13": null, "field_14": null }, "geometry": { "type": "Point", "coordinates": [ 92.07461, 22.08856 ] } },
{ "type": "Feature", "properties": { "inst_name": "BRADONA AL-AMIN ADARSHA MOHILA DAKHIL MADRASHA", "eiin": 105045, "inst_type": "Madrasha", "district": "CHITTAGONG", "thana": "SATKANIA", "mauza": "BARADONA", "long": 92.02242, "lat": 22.08544, "serial": 3675, "isUnique": 1, "field_11": null, "field_12": null, "field_13": null, "field_14": null }, "geometry": { "type": "Point", "coordinates": [ 92.02242, 22.08544 ] } },
{ "type": "Feature", "properties": { "inst_name": "CHARATI MOHAMMADIA (SM) DAKHIL MADRASAH", "eiin": 105042, "inst_type": "Madrasha", "district": "CHITTAGONG", "thana": "SATKANIA", "mauza": "DURDURI", "long": 92.03261, "lat": 22.09814, "serial": 3676, "isUnique": 1, "field_11": null, "field_12": null, "field_13": null, "field_14": null }, "geometry": { "type": "Point", "coordinates": [ 92.03261, 22.09814 ] } },
{ "type": "Feature", "properties": { "inst_name": "SOUTH CHARATI MAZIDIA DAKHIL MADRASHA", "eiin": 105028, "inst_type": "Madrasha", "district": "CHITTAGONG", "thana": "SATKANIA", "mauza": "CHARATI", "long": 92.04667, "lat": 22.09042, "serial": 3677, "isUnique": 1, "field_11": null, "field_12": null, "field_13": null, "field_14": null }, "geometry": { "type": "Point", "coordinates": [ 92.04667, 22.09042 ] } },
{ "type": "Feature", "properties": { "inst_name": "ICHAMATI MUHAMMADIA ADARSHA DAKHIL MADRASAH", "eiin": 105048, "inst_type": "Madrasha", "district": "CHITTAGONG", "thana": "SATKANIA", "mauza": "ICHHAMATI", "long": 92.13158, "lat": 22.12647, "serial": 3678, "isUnique": 1, "field_11": null, "field_12": null, "field_13": null, "field_14": null }, "geometry": { "type": "Point", "coordinates": [ 92.13158, 22.12647 ] } },
{ "type": "Feature", "properties": { "inst_name": "RASULABAD ISLAMIA SENIOR FAZIL MADRASA", "eiin": 105037, "inst_type": "Madrasha", "district": "CHITTAGONG", "thana": "SATKANIA", "mauza": "KALIAIS", "long": 91.95122, "lat": 22.15708, "serial": 3679, "isUnique": 1, "field_11": null, "field_12": null, "field_13": null, "field_14": null }, "geometry": { "type": "Point", "coordinates": [ 91.95122, 22.15708 ] } },
{ "type": "Feature", "properties": { "inst_name": "SOUTH KANCHANA SHAH RASHIDIA ISLAMIA DAKHIL MADRASHA", "eiin": 105047, "inst_type": "Madrasha", "district": "CHITTAGONG", "thana": "SATKANIA", "mauza": "KANCHANA", "long": 92.03339, "lat": 22.10589, "serial": 3680, "isUnique": 1, "field_11": null, "field_12": null, "field_13": null, "field_14": null }, "geometry": { "type": "Point", "coordinates": [ 92.03339, 22.10589 ] } },
{ "type": "Feature", "properties": { "inst_name": "DARUL IHSAN MOHILA DHKHIL MADRASHA", "eiin": 105055, "inst_type": "Madrasha", "district": "CHITTAGONG", "thana": "SATKANIA", "mauza": "KANCHANA", "long": 92.06806, "lat": 22.14411, "serial": 3681, "isUnique": 1, "field_11": null, "field_12": null, "field_13": null, "field_14": null }, "geometry": { "type": "Point", "coordinates": [ 92.06806, 22.14411 ] } },
{ "type": "Feature", "properties": { "inst_name": "KERANIHAT JAMEUL ULOOM ISLAMIA FAZIL MADRASA", "eiin": 105033, "inst_type": "Madrasha", "district": "CHITTAGONG", "thana": "SATKANIA", "mauza": "JANAR KEOCHIA", "long": 92.01344, "lat": 22.09372, "serial": 3682, "isUnique": 1, "field_11": null, "field_12": null, "field_13": null, "field_14": null }, "geometry": { "type": "Point", "coordinates": [ 92.01344, 22.09372 ] } },
{ "type": "Feature", "properties": { "inst_name": "KEOCHIA MUZHERUL HOQUE ISLAMIA DAKHIL MADRSAH", "eiin": 105052, "inst_type": "Madrasha", "district": "CHITTAGONG", "thana": "SATKANIA", "mauza": "KEOCHIA", "long": 92.00125, "lat": 22.09528, "serial": 3683, "isUnique": 1, "field_11": null, "field_12": null, "field_13": null, "field_14": null }, "geometry": { "type": "Point", "coordinates": [ 92.00125, 22.09528 ] } },
{ "type": "Feature", "properties": { "inst_name": "CHAR KHAGARIA RASULPUR AL.N.J. DAKHIL MADRASAH", "eiin": 105108, "inst_type": "Madrasha", "district": "CHITTAGONG", "thana": "SATKANIA", "mauza": "CHAR KHAGARIA", "long": 92.09403, "lat": 22.11694, "serial": 3684, "isUnique": 1, "field_11": null, "field_12": null, "field_13": null, "field_14": null }, "geometry": { "type": "Point", "coordinates": [ 92.09403, 22.11694 ] } },
{ "type": "Feature", "properties": { "inst_name": "KHAGORIA ISLAMIA SUNNIA DHAKIL MADRASHA", "eiin": 131836, "inst_type": "Madrasha", "district": "CHITTAGONG", "thana": "SATKANIA", "mauza": "CHAR KHAGARIA", "long": 92.08872, "lat": 22.09817, "serial": 3685, "isUnique": 1, "field_11": null, "field_12": null, "field_13": null, "field_14": null }, "geometry": { "type": "Point", "coordinates": [ 92.08872, 22.09817 ] } },
{ "type": "Feature", "properties": { "inst_name": "MADRASAH E- ABU HURAIRAH (R) DAKHIL", "eiin": 105053, "inst_type": "Madrasha", "district": "CHITTAGONG", "thana": "SATKANIA", "mauza": "MADARSA", "long": 92.07439, "lat": 22.10264, "serial": 3686, "isUnique": 1, "field_11": null, "field_12": null, "field_13": null, "field_14": null }, "geometry": { "type": "Point", "coordinates": [ 92.07439, 22.10264 ] } },
{ "type": "Feature", "properties": { "inst_name": "BAITUSH SHARAF JABBARIA ADARSHA MADRASAH", "eiin": 105056, "inst_type": "Madrasha", "district": "CHITTAGONG", "thana": "SATKANIA", "mauza": "DAKSHIN RAMPUR (PART)", "long": 92.09664, "lat": 22.12419, "serial": 3687, "isUnique": 1, "field_11": null, "field_12": null, "field_13": null, "field_14": null }, "geometry": { "type": "Point", "coordinates": [ 92.09664, 22.12419 ] } },
{ "type": "Feature", "properties": { "inst_name": "EAST GATIA DENGA HABIBUL ULUM ISLAMIA DAKHIL MADRASHA", "eiin": 105044, "inst_type": "Madrasha", "district": "CHITTAGONG", "thana": "SATKANIA", "mauza": "PURBA GATIADANGA", "long": 92.04111, "lat": 22.14403, "serial": 3688, "isUnique": 1, "field_11": null, "field_12": null, "field_13": null, "field_14": null }, "geometry": { "type": "Point", "coordinates": [ 92.04111, 22.14403 ] } },
{ "type": "Feature", "properties": { "inst_name": "SADAHA ADARSHA MOHILA DAKHIL MADRASHA", "eiin": 105030, "inst_type": "Madrasha", "district": "CHITTAGONG", "thana": "SATKANIA", "mauza": "SADAHA", "long": 92.04261, "lat": 22.08475, "serial": 3689, "isUnique": 1, "field_11": null, "field_12": null, "field_13": null, "field_14": null }, "geometry": { "type": "Point", "coordinates": [ 92.04261, 22.08475 ] } },
{ "type": "Feature", "properties": { "inst_name": "SADAHA MOHAMMADIA KHAIRIA ALIM MADRASHA", "eiin": 105040, "inst_type": "Madrasha", "district": "CHITTAGONG", "thana": "SATKANIA", "mauza": "SADAHA", "long": 92.03219, "lat": 22.13833, "serial": 3690, "isUnique": 1, "field_11": null, "field_12": null, "field_13": null, "field_14": null }, "geometry": { "type": "Point", "coordinates": [ 92.03219, 22.13833 ] } },
{ "type": "Feature", "properties": { "inst_name": "SAYEDBAD EMDADUL ULUM DUDU FOKIR AHMADIA SINIOR ALIM MADRASAH", "eiin": 105041, "inst_type": "Madrasha", "district": "CHITTAGONG", "thana": "SATKANIA", "mauza": "CHHAIDABAD (PART)", "long": 92.02514, "lat": 22.12617, "serial": 3691, "isUnique": 1, "field_11": null, "field_12": null, "field_13": null, "field_14": null }, "geometry": { "type": "Point", "coordinates": [ 92.02514, 22.12617 ] } },
{ "type": "Feature", "properties": { "inst_name": "DAKKHIN CHIBBARI MAHILA DAKHIL MADRASA", "eiin": 105050, "inst_type": "Madrasha", "district": "CHITTAGONG", "thana": "SATKANIA", "mauza": "SHIBBARI", "long": 92.09572, "lat": 22.08994, "serial": 3692, "isUnique": 1, "field_11": null, "field_12": null, "field_13": null, "field_14": null }, "geometry": { "type": "Point", "coordinates": [ 92.09572, 22.08994 ] } },
{ "type": "Feature", "properties": { "inst_name": "BARADONA REFAIYA SHA AKBARIA ISLAMIA MADRASHA", "eiin": 105043, "inst_type": "Madrasha", "district": "CHITTAGONG", "thana": "SATKANIA", "mauza": "BARADONA", "long": 92.09997, "lat": 22.09269, "serial": 3693, "isUnique": 1, "field_11": null, "field_12": null, "field_13": null, "field_14": null }, "geometry": { "type": "Point", "coordinates": [ 92.09997, 22.09269 ] } },
{ "type": "Feature", "properties": { "inst_name": "SHAH MAZIDIA ISLAMIA DAKHIL MADRSAH", "eiin": 105029, "inst_type": "Madrasha", "district": "CHITTAGONG", "thana": "SATKANIA", "mauza": "SHIBBARI", "long": 92.0735, "lat": 22.07503, "serial": 3694, "isUnique": 1, "field_11": null, "field_12": null, "field_13": null, "field_14": null }, "geometry": { "type": "Point", "coordinates": [ 92.0735, 22.07503 ] } },
{ "type": "Feature", "properties": { "inst_name": "GARANGIA ISLAMIA RABBANI MOHILLA MADRASHA", "eiin": 105049, "inst_type": "Madrasha", "district": "CHITTAGONG", "thana": "SATKANIA", "mauza": "GARANGIYA", "long": 92.09497, "lat": 22.06917, "serial": 3695, "isUnique": 1, "field_11": null, "field_12": null, "field_13": null, "field_14": null }, "geometry": { "type": "Point", "coordinates": [ 92.09497, 22.06917 ] } },
{ "type": "Feature", "properties": { "inst_name": "MIRZAKHIL ANOWARAY RAHMANIA IDEAL DAKHIL MADRASHA", "eiin": 105027, "inst_type": "Madrasha", "district": "CHITTAGONG", "thana": "SATKANIA", "mauza": "SONAKANIA (PART)", "long": 92.09064, "lat": 22.05375, "serial": 3696, "isUnique": 1, "field_11": null, "field_12": null, "field_13": null, "field_14": null }, "geometry": { "type": "Point", "coordinates": [ 92.09064, 22.05375 ] } },
{ "type": "Feature", "properties": { "inst_name": "SOUTH GARANGIA MODEL MOHILA DAKHIL MADRASAH", "eiin": 105111, "inst_type": "Madrasha", "district": "CHITTAGONG", "thana": "SATKANIA", "mauza": "GARANGIYA", "long": 92.07961, "lat": 22.04611, "serial": 3697, "isUnique": 1, "field_11": null, "field_12": null, "field_13": null, "field_14": null }, "geometry": { "type": "Point", "coordinates": [ 92.07961, 22.04611 ] } },
{ "type": "Feature", "properties": { "inst_name": "GAraNGIA   ISLAMIA  KAMIL MADRASAh", "eiin": 105035, "inst_type": "Madrasha", "district": "CHITTAGONG", "thana": "SATKANIA", "mauza": "GARANGIYA", "long": 92.086, "lat": 22.06197, "serial": 3698, "isUnique": 1, "field_11": null, "field_12": null, "field_13": null, "field_14": null }, "geometry": { "type": "Point", "coordinates": [ 92.086, 22.06197 ] } },
{ "type": "Feature", "properties": { "inst_name": "SONSKANIA MAZIDIA DAKHIL MADRASAH", "eiin": 105038, "inst_type": "Madrasha", "district": "CHITTAGONG", "thana": "SATKANIA", "mauza": "UTTAR SONAKANIA", "long": 92.04264, "lat": 22.05336, "serial": 3699, "isUnique": 1, "field_11": null, "field_12": null, "field_13": null, "field_14": null }, "geometry": { "type": "Point", "coordinates": [ 92.04264, 22.05336 ] } },
{ "type": "Feature", "properties": { "inst_name": "MAHANAGOR MIR NURUL ISLAM A: DAKHIL MADRASHA", "eiin": 105106, "inst_type": "Madrasha", "district": "CHITTAGONG", "thana": "SITAKUNDA", "mauza": "BAGKHALI", "long": 92.04761, "lat": 22.04003, "serial": 3700, "isUnique": 1, "field_11": null, "field_12": null, "field_13": null, "field_14": null }, "geometry": { "type": "Point", "coordinates": [ 92.04761, 22.04003 ] } },
{ "type": "Feature", "properties": { "inst_name": "BAGAN BAZAR FARUKIA DAHKIL MADRASAH", "eiin": 104370, "inst_type": "Madrasha", "district": "CHITTAGONG", "thana": "FATIKCHHARI", "mauza": "RAMGAR", "long": 92.06336, "lat": 22.04428, "serial": 3701, "isUnique": 1, "field_11": null, "field_12": null, "field_13": null, "field_14": null }, "geometry": { "type": "Point", "coordinates": [ 92.06336, 22.04428 ] } },
{ "type": "Feature", "properties": { "inst_name": "KAMALE ISHQ-E MUSTAFA (SM) ALIM MADRASHA", "eiin": 104108, "inst_type": "Madrasha", "district": "CHITTAGONG", "thana": "BAKALIA", "mauza": "PURBA BAKALIA(PART-1)", "long": 91.70764, "lat": 22.98047, "serial": 3702, "isUnique": 1, "field_11": null, "field_12": null, "field_13": null, "field_14": null }, "geometry": { "type": "Point", "coordinates": [ 91.70764, 22.98047 ] } },
{ "type": "Feature", "properties": { "inst_name": "LALIARHAT HOSAINIA SENIOR (ALIM) MADRASHA", "eiin": 104048, "inst_type": "Madrasha", "district": "CHITTAGONG", "thana": "HATHAZARI", "mauza": "CHITTAGANG CNT.(HATHAZARI (P))", "long": 91.85144, "lat": 22.35133, "serial": 3703, "isUnique": 2, "field_11": null, "field_12": null, "field_13": null, "field_14": null }, "geometry": { "type": "Point", "coordinates": [ 91.85144, 22.35133 ] } },
{ "type": "Feature", "properties": { "inst_name": "FATEHABAD GAUSIA TAYABIA DAKHIL MADRASHA", "eiin": 104679, "inst_type": "Madrasha", "district": "CHITTAGONG", "thana": "HATHAZARI", "mauza": "MOHAMMADABAD", "long": 91.84786, "lat": 22.33939, "serial": 3704, "isUnique": 2, "field_11": null, "field_12": null, "field_13": null, "field_14": null }, "geometry": { "type": "Point", "coordinates": [ 91.84786, 22.33939 ] } },
{ "type": "Feature", "properties": { "inst_name": "BURISCHAR ZIAUL ULUM FAZIL MADRASHA", "eiin": 104452, "inst_type": "Madrasha", "district": "CHITTAGONG", "thana": "HATHAZARI", "mauza": "BURISH CHAR", "long": 91.81325, "lat": 22.46, "serial": 3705, "isUnique": 1, "field_11": null, "field_12": null, "field_13": null, "field_14": null }, "geometry": { "type": "Point", "coordinates": [ 91.81325, 22.46 ] } },
{ "type": "Feature", "properties": { "inst_name": "CHIPATALI JAMIA GAUSIA MUINIA KAMIL MADRASAH", "eiin": 104455, "inst_type": "Madrasha", "district": "CHITTAGONG", "thana": "HATHAZARI", "mauza": "CHHIBATALI", "long": 91.81858, "lat": 22.42553, "serial": 3706, "isUnique": 1, "field_11": null, "field_12": null, "field_13": null, "field_14": null }, "geometry": { "type": "Point", "coordinates": [ 91.81858, 22.42553 ] } },
{ "type": "Feature", "properties": { "inst_name": "K.C. AKHTARUL ULOOM MOHILA MADRASAH", "eiin": 131832, "inst_type": "Madrasha", "district": "CHITTAGONG", "thana": "HATHAZARI", "mauza": "KHANDAKIYA", "long": 91.83681, "lat": 22.53403, "serial": 3707, "isUnique": 1, "field_11": null, "field_12": null, "field_13": null, "field_14": null }, "geometry": { "type": "Point", "coordinates": [ 91.83681, 22.53403 ] } },
{ "type": "Feature", "properties": { "inst_name": "BATTTALI ISLAMIA ALIM MADRASAH", "eiin": 104457, "inst_type": "Madrasha", "district": "CHITTAGONG", "thana": "HATHAZARI", "mauza": "MADHYA MADARSHA", "long": 91.83039, "lat": 22.44803, "serial": 3708, "isUnique": 1, "field_11": null, "field_12": null, "field_13": null, "field_14": null }, "geometry": { "type": "Point", "coordinates": [ 91.83039, 22.44803 ] } },
{ "type": "Feature", "properties": { "inst_name": "HAZRAT AKBAR SHAH SUNNIYA DAKHIL MADRASA", "eiin": 104449, "inst_type": "Madrasha", "district": "CHITTAGONG", "thana": "HATHAZARI", "mauza": "MADHYA MADARSHA", "long": 91.83058, "lat": 22.42264, "serial": 3709, "isUnique": 1, "field_11": null, "field_12": null, "field_13": null, "field_14": null }, "geometry": { "type": "Point", "coordinates": [ 91.83058, 22.42264 ] } },
{ "type": "Feature", "properties": { "inst_name": "KATIRHAT MOFIDUL ISLAM FAZIL MADRASAH", "eiin": 104450, "inst_type": "Madrasha", "district": "CHITTAGONG", "thana": "HATHAZARI", "mauza": "PASCHIM DHALAI", "long": 91.82997, "lat": 22.42297, "serial": 3710, "isUnique": 1, "field_11": null, "field_12": null, "field_13": null, "field_14": null }, "geometry": { "type": "Point", "coordinates": [ 91.82997, 22.42297 ] } },
{ "type": "Feature", "properties": { "inst_name": "AHMADIA TAJBIDUL QURAN MOHILA DAKHIL MADRASAH", "eiin": 104445, "inst_type": "Madrasha", "district": "CHITTAGONG", "thana": "HATHAZARI", "mauza": "PASCHIM DHALAI", "long": 91.85956, "lat": 22.55472, "serial": 3711, "isUnique": 1, "field_11": null, "field_12": null, "field_13": null, "field_14": null }, "geometry": { "type": "Point", "coordinates": [ 91.85956, 22.55472 ] } },
{ "type": "Feature", "properties": { "inst_name": "FATEHPUR M I SENIOR MADRASAH", "eiin": 104454, "inst_type": "Madrasha", "district": "CHITTAGONG", "thana": "HATHAZARI", "mauza": "MAIZPATTY (FATEHPUR)", "long": 91.79375, "lat": 22.59944, "serial": 3712, "isUnique": 1, "field_11": null, "field_12": null, "field_13": null, "field_14": null }, "geometry": { "type": "Point", "coordinates": [ 91.79375, 22.59944 ] } },
{ "type": "Feature", "properties": { "inst_name": "GUMAN MARDAN PESHKARHAT ISLAMIA SUNNIA DAKHIL MADRASA", "eiin": 104448, "inst_type": "Madrasha", "district": "CHITTAGONG", "thana": "HATHAZARI", "mauza": "GUMANMARDAN", "long": 91.81464, "lat": 22.47425, "serial": 3713, "isUnique": 1, "field_11": null, "field_12": null, "field_13": null, "field_14": null }, "geometry": { "type": "Point", "coordinates": [ 91.81464, 22.47425 ] } },
{ "type": "Feature", "properties": { "inst_name": "JAMEA ADUDIA SUNNIA FAZIL MADRASHA", "eiin": 104451, "inst_type": "Madrasha", "district": "CHITTAGONG", "thana": "HATHAZARI", "mauza": "DEWANNAGAR", "long": 91.85975, "lat": 22.49861, "serial": 3714, "isUnique": 1, "field_11": null, "field_12": null, "field_13": null, "field_14": null }, "geometry": { "type": "Point", "coordinates": [ 91.85975, 22.49861 ] } },
{ "type": "Feature", "properties": { "inst_name": "HATHAZARI ANWARRUL ULUM NOMANIA ALIM MADRASHA", "eiin": 104460, "inst_type": "Madrasha", "district": "CHITTAGONG", "thana": "HATHAZARI", "mauza": "FATIKA", "long": 91.82786, "lat": 22.57131, "serial": 3715, "isUnique": 1, "field_11": null, "field_12": null, "field_13": null, "field_14": null }, "geometry": { "type": "Point", "coordinates": [ 91.82786, 22.57131 ] } },
{ "type": "Feature", "properties": { "inst_name": "MIRZAPUR JAINUL ULUM ALIM MADRASAH", "eiin": 104444, "inst_type": "Madrasha", "district": "CHITTAGONG", "thana": "HATHAZARI", "mauza": "MIRZAPUR", "long": 91.84769, "lat": 22.48214, "serial": 3716, "isUnique": 1, "field_11": null, "field_12": null, "field_13": null, "field_14": null }, "geometry": { "type": "Point", "coordinates": [ 91.84769, 22.48214 ] } },
{ "type": "Feature", "properties": { "inst_name": "MIRZAPUR  GOWSIA  BAKERIA  MOHILA  DAKHIL  MADRASHA", "eiin": 104459, "inst_type": "Madrasha", "district": "CHITTAGONG", "thana": "HATHAZARI", "mauza": "DEWANNAGAR", "long": 91.80039, "lat": 22.52142, "serial": 3717, "isUnique": 1, "field_11": null, "field_12": null, "field_13": null, "field_14": null }, "geometry": { "type": "Point", "coordinates": [ 91.80039, 22.52142 ] } },
{ "type": "Feature", "properties": { "inst_name": "NANGAL MORA SAMSUL ULUM FAZIL MADRASHA", "eiin": 104453, "inst_type": "Madrasha", "district": "CHITTAGONG", "thana": "HATHAZARI", "mauza": "NANGALMORA", "long": 91.79497, "lat": 22.53097, "serial": 3718, "isUnique": 1, "field_11": null, "field_12": null, "field_13": null, "field_14": null }, "geometry": { "type": "Point", "coordinates": [ 91.79497, 22.53097 ] } },
{ "type": "Feature", "properties": { "inst_name": "MOHAMMADIA HASHEMIA SUNNIA DAKHIL MADRASHA", "eiin": 131856, "inst_type": "Madrasha", "district": "CHITTAGONG", "thana": "HATHAZARI", "mauza": "UTTAR MADARSA", "long": 91.83767, "lat": 22.42258, "serial": 3719, "isUnique": 1, "field_11": null, "field_12": null, "field_13": null, "field_14": null }, "geometry": { "type": "Point", "coordinates": [ 91.83767, 22.42258 ] } },
{ "type": "Feature", "properties": { "inst_name": "AMUCHIA SHAH MAZIDIA DAKHIL MADRASHA", "eiin": 104148, "inst_type": "Madrasha", "district": "CHITTAGONG", "thana": "BOALKHALI", "mauza": "AMUCHIA", "long": 91.85944, "lat": 22.47483, "serial": 3720, "isUnique": 1, "field_11": null, "field_12": null, "field_13": null, "field_14": null }, "geometry": { "type": "Point", "coordinates": [ 91.85944, 22.47483 ] } },
{ "type": "Feature", "properties": { "inst_name": "CHARANDWIP RAJAVIA ISLAMIA FAZIL MADRASHA", "eiin": 104139, "inst_type": "Madrasha", "district": "CHITTAGONG", "thana": "BOALKHALI", "mauza": "CHARANDWIP", "long": 91.97978, "lat": 22.36111, "serial": 3721, "isUnique": 1, "field_11": null, "field_12": null, "field_13": null, "field_14": null }, "geometry": { "type": "Point", "coordinates": [ 91.97978, 22.36111 ] } },
{ "type": "Feature", "properties": { "inst_name": "MUHAMMADIA ISLAMIA DAKHIL MADRASHA", "eiin": 104147, "inst_type": "Madrasha", "district": "CHITTAGONG", "thana": "BOALKHALI", "mauza": "CHARANDWIP", "long": 91.96839, "lat": 22.38367, "serial": 3722, "isUnique": 1, "field_11": null, "field_12": null, "field_13": null, "field_14": null }, "geometry": { "type": "Point", "coordinates": [ 91.96839, 22.38367 ] } },
{ "type": "Feature", "properties": { "inst_name": "PURBA  GOMDANDI  AHMADIA  AZIZIA  SUNNIA  DAKHIL MADRASHA", "eiin": 104151, "inst_type": "Madrasha", "district": "CHITTAGONG", "thana": "BOALKHALI", "mauza": "PURBA GOMDANDI", "long": 91.96906, "lat": 22.38447, "serial": 3723, "isUnique": 1, "field_11": null, "field_12": null, "field_13": null, "field_14": null }, "geometry": { "type": "Point", "coordinates": [ 91.96906, 22.38447 ] } },
{ "type": "Feature", "properties": { "inst_name": "HAZRAT AYESHA (R) MAHILA DAKHIL MADRASHA", "eiin": 104149, "inst_type": "Madrasha", "district": "CHITTAGONG", "thana": "BOALKHALI", "mauza": "PURBA GOMDANDI", "long": 91.93411, "lat": 22.41731, "serial": 3724, "isUnique": 1, "field_11": null, "field_12": null, "field_13": null, "field_14": null }, "geometry": { "type": "Point", "coordinates": [ 91.93411, 22.41731 ] } },
{ "type": "Feature", "properties": { "inst_name": "GOMDONDI ISLAMIA DAKHIL MADRASAH", "eiin": 104138, "inst_type": "Madrasha", "district": "CHITTAGONG", "thana": "BOALKHALI", "mauza": "PURBA GOMDANDI", "long": 91.92286, "lat": 22.41378, "serial": 3725, "isUnique": 1, "field_11": null, "field_12": null, "field_13": null, "field_14": null }, "geometry": { "type": "Point", "coordinates": [ 91.92286, 22.41378 ] } },
{ "type": "Feature", "properties": { "inst_name": "AL QURAN ACADEMY", "eiin": 131864, "inst_type": "Madrasha", "district": "CHITTAGONG", "thana": "BOALKHALI", "mauza": "KANDHURKHIL", "long": 91.91719, "lat": 22.37503, "serial": 3726, "isUnique": 1, "field_11": null, "field_12": null, "field_13": null, "field_14": null }, "geometry": { "type": "Point", "coordinates": [ 91.91719, 22.37503 ] } },
{ "type": "Feature", "properties": { "inst_name": "HAWLA KUTUBIA SENIOR (ALIM) MADRASHA", "eiin": 104142, "inst_type": "Madrasha", "district": "CHITTAGONG", "thana": "BOALKHALI", "mauza": "AKUPDANDI", "long": 91.92881, "lat": 22.38242, "serial": 3727, "isUnique": 1, "field_11": null, "field_12": null, "field_13": null, "field_14": null }, "geometry": { "type": "Point", "coordinates": [ 91.92881, 22.38242 ] } },
{ "type": "Feature", "properties": { "inst_name": "KHITAPCHAR  AZIZIA  MABUDIA  ALIM MADRASAH", "eiin": 104141, "inst_type": "Madrasha", "district": "CHITTAGONG", "thana": "BOALKHALI", "mauza": "KHITAPCHAR", "long": 91.96431, "lat": 22.40081, "serial": 3728, "isUnique": 1, "field_11": null, "field_12": null, "field_13": null, "field_14": null }, "geometry": { "type": "Point", "coordinates": [ 91.96431, 22.40081 ] } },
{ "type": "Feature", "properties": { "inst_name": "Bengura Senior Madrasah", "eiin": 104137, "inst_type": "Madrasha", "district": "CHITTAGONG", "thana": "BOALKHALI", "mauza": "BENGURA", "long": 91.95653, "lat": 22.39244, "serial": 3729, "isUnique": 1, "field_11": null, "field_12": null, "field_13": null, "field_14": null }, "geometry": { "type": "Point", "coordinates": [ 91.95653, 22.39244 ] } },
{ "type": "Feature", "properties": { "inst_name": "SHAKPURA  DARUSSUNNAT KAMIL MADRASHA", "eiin": 104144, "inst_type": "Madrasha", "district": "CHITTAGONG", "thana": "BOALKHALI", "mauza": "SAKPURA", "long": 91.937, "lat": 22.39253, "serial": 3730, "isUnique": 1, "field_11": null, "field_12": null, "field_13": null, "field_14": null }, "geometry": { "type": "Point", "coordinates": [ 91.937, 22.39253 ] } },
{ "type": "Feature", "properties": { "inst_name": "SHAKPURA HAZRAT RABAYA BASRI GIRLS DAKIL MADRASHA", "eiin": 104146, "inst_type": "Madrasha", "district": "CHITTAGONG", "thana": "BOALKHALI", "mauza": "SAKPURA", "long": 91.94197, "lat": 22.36631, "serial": 3731, "isUnique": 1, "field_11": null, "field_12": null, "field_13": null, "field_14": null }, "geometry": { "type": "Point", "coordinates": [ 91.94197, 22.36631 ] } },
{ "type": "Feature", "properties": { "inst_name": "WEST SHAKPURA TAZADIA AMINIA DAKHIL MADRASHA", "eiin": 104145, "inst_type": "Madrasha", "district": "CHITTAGONG", "thana": "BOALKHALI", "mauza": "SAKPURA", "long": 91.96458, "lat": 22.34989, "serial": 3732, "isUnique": 1, "field_11": null, "field_12": null, "field_13": null, "field_14": null }, "geometry": { "type": "Point", "coordinates": [ 91.96458, 22.34989 ] } },
{ "type": "Feature", "properties": { "inst_name": "JAISTAPURA ISLAMIA HAMEDIA DAKHIL MADRASHA", "eiin": 104140, "inst_type": "Madrasha", "district": "CHITTAGONG", "thana": "BOALKHALI", "mauza": "JAISTHAPURA", "long": 91.93408, "lat": 22.35194, "serial": 3733, "isUnique": 1, "field_11": null, "field_12": null, "field_13": null, "field_14": null }, "geometry": { "type": "Point", "coordinates": [ 91.93408, 22.35194 ] } },
{ "type": "Feature", "properties": { "inst_name": "ZORARJONG  ISLAMIA DAKHIL MADRASAH", "eiin": 131880, "inst_type": "Madrasha", "district": "CHITTAGONG", "thana": "MIRSHARAI", "mauza": "SONAPAHAR", "long": 91.98317, "lat": 22.39969, "serial": 3735, "isUnique": 1, "field_11": null, "field_12": null, "field_13": null, "field_14": null }, "geometry": { "type": "Point", "coordinates": [ 91.98317, 22.39969 ] } },
{ "type": "Feature", "properties": { "inst_name": "HINGULI KADAMTALA ISLAMIA DAKHIL MADRASAH", "eiin": 104642, "inst_type": "Madrasha", "district": "CHITTAGONG", "thana": "MIRSHARAI", "mauza": "PURBA HINGULI", "long": 91.91253, "lat": 22.35297, "serial": 3736, "isUnique": 1, "field_11": null, "field_12": null, "field_13": null, "field_14": null }, "geometry": { "type": "Point", "coordinates": [ 91.91253, 22.35297 ] } },
{ "type": "Feature", "properties": { "inst_name": "MANDER  BARIA  SHAH  OLIA  GIRLS  DAKHIL MADRASHA", "eiin": 104648, "inst_type": "Madrasha", "district": "CHITTAGONG", "thana": "MIRSHARAI", "mauza": "KISMAT JAFARABAD", "long": 91.53583, "lat": 22.89578, "serial": 3737, "isUnique": 1, "field_11": null, "field_12": null, "field_13": null, "field_14": null }, "geometry": { "type": "Point", "coordinates": [ 91.53583, 22.89578 ] } },
{ "type": "Feature", "properties": { "inst_name": "NAHERPUR RAHMANIA  ISLAMIA DAKHIL MADRASHA", "eiin": 104643, "inst_type": "Madrasha", "district": "CHITTAGONG", "thana": "MIRSHARAI", "mauza": "NAHERPUR", "long": 91.51675, "lat": 22.88783, "serial": 3738, "isUnique": 1, "field_11": null, "field_12": null, "field_13": null, "field_14": null }, "geometry": { "type": "Point", "coordinates": [ 91.51675, 22.88783 ] } },
{ "type": "Feature", "properties": { "inst_name": "SHANTER HAT ISLAMIA ALIM MADRASHA", "eiin": 104640, "inst_type": "Madrasha", "district": "CHITTAGONG", "thana": "MIRSHARAI", "mauza": "JAMALPUR", "long": 91.57161, "lat": 22.77608, "serial": 3739, "isUnique": 1, "field_11": null, "field_12": null, "field_13": null, "field_14": null }, "geometry": { "type": "Point", "coordinates": [ 91.57161, 22.77608 ] } },
{ "type": "Feature", "properties": { "inst_name": "TATAIYA DAWATUL ISLAMIA DAKHIL MADRASHA", "eiin": 104646, "inst_type": "Madrasha", "district": "CHITTAGONG", "thana": "MIRSHARAI", "mauza": "TEMUHANI MURADPUR", "long": 91.55569, "lat": 22.79042, "serial": 3740, "isUnique": 1, "field_11": null, "field_12": null, "field_13": null, "field_14": null }, "geometry": { "type": "Point", "coordinates": [ 91.55569, 22.79042 ] } },
{ "type": "Feature", "properties": { "inst_name": "JAMEA RAHMANIA FAZIL MADRASAH", "eiin": 104645, "inst_type": "Madrasha", "district": "CHITTAGONG", "thana": "MIRSHARAI", "mauza": "GOPALPUR", "long": 91.50342, "lat": 22.89322, "serial": 3741, "isUnique": 1, "field_11": null, "field_12": null, "field_13": null, "field_14": null }, "geometry": { "type": "Point", "coordinates": [ 91.50342, 22.89322 ] } },
{ "type": "Feature", "properties": { "inst_name": "MADBARHAT ISLAMIA SENIOR FAZIL  MADRASHA", "eiin": 104634, "inst_type": "Madrasha", "district": "CHITTAGONG", "thana": "MIRSHARAI", "mauza": "UTTAR ICHHAKHALI", "long": 91.54758, "lat": 22.83694, "serial": 3742, "isUnique": 1, "field_11": null, "field_12": null, "field_13": null, "field_14": null }, "geometry": { "type": "Point", "coordinates": [ 91.54758, 22.83694 ] } },
{ "type": "Feature", "properties": { "inst_name": "ABURHAT RAHMANIA  DAKHIL MADRASHA", "eiin": 104654, "inst_type": "Madrasha", "district": "CHITTAGONG", "thana": "MIRSHARAI", "mauza": "UTTAR ICHHAKHALI", "long": 91.57911, "lat": 22.71217, "serial": 3743, "isUnique": 1, "field_11": null, "field_12": null, "field_13": null, "field_14": null }, "geometry": { "type": "Point", "coordinates": [ 91.57911, 22.71217 ] } },
{ "type": "Feature", "properties": { "inst_name": "GONIATUL ULUM HOSSAINIA ALIM MADRASAH", "eiin": 104641, "inst_type": "Madrasha", "district": "CHITTAGONG", "thana": "MIRSHARAI", "mauza": "CHHATTARUA", "long": 91.49078, "lat": 22.83903, "serial": 3744, "isUnique": 1, "field_11": null, "field_12": null, "field_13": null, "field_14": null }, "geometry": { "type": "Point", "coordinates": [ 91.49078, 22.83903 ] } },
{ "type": "Feature", "properties": { "inst_name": "CHISTIA BAZAL AHMED ISLAMIA SUNNIA DAKHIL MADRASHA", "eiin": 131827, "inst_type": "Madrasha", "district": "CHITTAGONG", "thana": "MIRSHARAI", "mauza": "JOYPUR PURBA JOAR", "long": 91.48056, "lat": 22.82017, "serial": 3745, "isUnique": 1, "field_11": null, "field_12": null, "field_13": null, "field_14": null }, "geometry": { "type": "Point", "coordinates": [ 91.48056, 22.82017 ] } },
{ "type": "Feature", "properties": { "inst_name": "BARIA  KHALI  MOULANA  LOKIAT  ULLAH  ISLAMIA  DAKHIL MADRASHA", "eiin": 104644, "inst_type": "Madrasha", "district": "CHITTAGONG", "thana": "MIRSHARAI", "mauza": "BARIN KHALI", "long": 91.55403, "lat": 22.93017, "serial": 3746, "isUnique": 1, "field_11": null, "field_12": null, "field_13": null, "field_14": null }, "geometry": { "type": "Point", "coordinates": [ 91.55403, 22.93017 ] } },
{ "type": "Feature", "properties": { "inst_name": "MIRSARAI LATIFIA KAMIL MADRASHA", "eiin": 104636, "inst_type": "Madrasha", "district": "CHITTAGONG", "thana": "MIRSHARAI", "mauza": "PURBA MAGHADIA (PART)", "long": 91.59028, "lat": 22.75083, "serial": 3747, "isUnique": 1, "field_11": null, "field_12": null, "field_13": null, "field_14": null }, "geometry": { "type": "Point", "coordinates": [ 91.59028, 22.75083 ] } },
{ "type": "Feature", "properties": { "inst_name": "MITHACHARA ISLAMIA FAZIL MADRASAH", "eiin": 104635, "inst_type": "Madrasha", "district": "CHITTAGONG", "thana": "MIRSHARAI", "mauza": "MOTBARIA", "long": 91.55753, "lat": 22.74617, "serial": 3748, "isUnique": 1, "field_11": null, "field_12": null, "field_13": null, "field_14": null }, "geometry": { "type": "Point", "coordinates": [ 91.55753, 22.74617 ] } },
{ "type": "Feature", "properties": { "inst_name": "BARATAKIA ZAHEDIA DAKHIL MADRASHA", "eiin": 104657, "inst_type": "Madrasha", "district": "CHITTAGONG", "thana": "MIRSHARAI", "mauza": "HASADYN PURBA MAGHADIA (PART)", "long": 91.54214, "lat": 22.73422, "serial": 3749, "isUnique": 1, "field_11": null, "field_12": null, "field_13": null, "field_14": null }, "geometry": { "type": "Point", "coordinates": [ 91.54214, 22.73422 ] } },
{ "type": "Feature", "properties": { "inst_name": "SUFIA NURIA FAZIL MADRASHA", "eiin": 104637, "inst_type": "Madrasha", "district": "CHITTAGONG", "thana": "MIRSHARAI", "mauza": "MITHANALA RAJAPUR", "long": 91.55656, "lat": 22.78931, "serial": 3750, "isUnique": 1, "field_11": null, "field_12": null, "field_13": null, "field_14": null }, "geometry": { "type": "Point", "coordinates": [ 91.55656, 22.78931 ] } },
{ "type": "Feature", "properties": { "inst_name": "BAMON  SUNDAR  FARIKIA  DAKHIL MADRASHA", "eiin": 104656, "inst_type": "Madrasha", "district": "CHITTAGONG", "thana": "MIRSHARAI", "mauza": "BAMAN SUNDAR", "long": 91.55753, "lat": 22.80456, "serial": 3751, "isUnique": 1, "field_11": null, "field_12": null, "field_13": null, "field_14": null }, "geometry": { "type": "Point", "coordinates": [ 91.55753, 22.80456 ] } },
{ "type": "Feature", "properties": { "inst_name": "SYEDPUR  SUFINUR  MOHAMMADIA SIDDQUIA  DAKHIL  MADRASHA", "eiin": 104650, "inst_type": "Madrasha", "district": "CHITTAGONG", "thana": "MIRSHARAI", "mauza": "SAIDPUR", "long": 91.58675, "lat": 22.75697, "serial": 3752, "isUnique": 1, "field_11": null, "field_12": null, "field_13": null, "field_14": null }, "geometry": { "type": "Point", "coordinates": [ 91.58675, 22.75697 ] } },
{ "type": "Feature", "properties": { "inst_name": "BAHER  CHOWDHORY  NORIA  DAKHIL  MADRASHA", "eiin": 104655, "inst_type": "Madrasha", "district": "CHITTAGONG", "thana": "MIRSHARAI", "mauza": "MADHYA MAGHADIA", "long": 91.57283, "lat": 22.77811, "serial": 3753, "isUnique": 1, "field_11": null, "field_12": null, "field_13": null, "field_14": null }, "geometry": { "type": "Point", "coordinates": [ 91.57283, 22.77811 ] } },
{ "type": "Feature", "properties": { "inst_name": "ABUTORAB FAJIL MADRASHA", "eiin": 104639, "inst_type": "Madrasha", "district": "CHITTAGONG", "thana": "MIRSHARAI", "mauza": "MADHYA MAGHADIA", "long": 91.51678, "lat": 22.78106, "serial": 3754, "isUnique": 1, "field_11": null, "field_12": null, "field_13": null, "field_14": null }, "geometry": { "type": "Point", "coordinates": [ 91.51678, 22.78106 ] } },
{ "type": "Feature", "properties": { "inst_name": "OSMANPUR  NURIA  ISLAMIA  DAKHIL MADRASHA", "eiin": 104651, "inst_type": "Madrasha", "district": "CHITTAGONG", "thana": "MIRSHARAI", "mauza": "OSMANPUR", "long": 91.54531, "lat": 22.78642, "serial": 3755, "isUnique": 1, "field_11": null, "field_12": null, "field_13": null, "field_14": null }, "geometry": { "type": "Point", "coordinates": [ 91.54531, 22.78642 ] } },
{ "type": "Feature", "properties": { "inst_name": "KHEAR HAT NURIA SIDDIQUIA DAKHIL MADRASAH", "eiin": 104649, "inst_type": "Madrasha", "district": "CHITTAGONG", "thana": "MIRSHARAI", "mauza": "DOMKHALI", "long": 91.57064, "lat": 22.7775, "serial": 3756, "isUnique": 1, "field_11": null, "field_12": null, "field_13": null, "field_14": null }, "geometry": { "type": "Point", "coordinates": [ 91.57064, 22.7775 ] } },
{ "type": "Feature", "properties": { "inst_name": "AHMADIA HABIBIA GONIA DAKHIL MADRASHA", "eiin": 104647, "inst_type": "Madrasha", "district": "CHITTAGONG", "thana": "MIRSHARAI", "mauza": "SAHERKHALI", "long": 91.53061, "lat": 22.75911, "serial": 3757, "isUnique": 1, "field_11": null, "field_12": null, "field_13": null, "field_14": null }, "geometry": { "type": "Point", "coordinates": [ 91.53061, 22.75911 ] } },
{ "type": "Feature", "properties": { "inst_name": "NURUL  ULUM  IDRISIA  DAKHIL MADRASHA", "eiin": 131821, "inst_type": "Madrasha", "district": "CHITTAGONG", "thana": "MIRSHARAI", "mauza": "DOMKHALI", "long": 91.48433, "lat": 22.84533, "serial": 3758, "isUnique": 1, "field_11": null, "field_12": null, "field_13": null, "field_14": null }, "geometry": { "type": "Point", "coordinates": [ 91.48433, 22.84533 ] } },
{ "type": "Feature", "properties": { "inst_name": "MIRZABAZAR ISLAMIA DAKHIL MADRASHA", "eiin": 104638, "inst_type": "Madrasha", "district": "CHITTAGONG", "thana": "MIRSHARAI", "mauza": "WAHEDPUR", "long": 91.48603, "lat": 22.86083, "serial": 3759, "isUnique": 1, "field_11": null, "field_12": null, "field_13": null, "field_14": null }, "geometry": { "type": "Point", "coordinates": [ 91.48603, 22.86083 ] } },
{ "type": "Feature", "properties": { "inst_name": "MOULOVI NAZIR AHMAD IDEAL DAKHIL MADRSHA", "eiin": 131835, "inst_type": "Madrasha", "district": "CHITTAGONG", "thana": "MIRSHARAI", "mauza": "AZAMNAGAR (PART)", "long": 91.57175, "lat": 22.69342, "serial": 3760, "isUnique": 1, "field_11": null, "field_12": null, "field_13": null, "field_14": null }, "geometry": { "type": "Point", "coordinates": [ 91.57175, 22.69342 ] } },
{ "type": "Feature", "properties": { "inst_name": "SITALPUR GAUSIA ISLAMIA DAKHIL MADRASHA", "eiin": 105104, "inst_type": "Madrasha", "district": "CHITTAGONG", "thana": "SITAKUNDA", "mauza": "SITALPUR", "long": 91.61403, "lat": 22.64569, "serial": 3761, "isUnique": 1, "field_11": null, "field_12": null, "field_13": null, "field_14": null }, "geometry": { "type": "Point", "coordinates": [ 91.61403, 22.64569 ] } },
{ "type": "Feature", "properties": { "inst_name": "HAZRAT KHAZA KALUSHA (R) SUNNIA ALIM MADRASAh", "eiin": 105101, "inst_type": "Madrasha", "district": "CHITTAGONG", "thana": "SITAKUNDA", "mauza": "UTTAR SALIMPUR", "long": 91.594, "lat": 22.6565, "serial": 3762, "isUnique": 1, "field_11": null, "field_12": null, "field_13": null, "field_14": null }, "geometry": { "type": "Point", "coordinates": [ 91.594, 22.6565 ] } },
{ "type": "Feature", "properties": { "inst_name": "MURAD PUR BAITNNUR DAKHIL MADRASA", "eiin": 131859, "inst_type": "Madrasha", "district": "CHITTAGONG", "thana": "SITAKUNDA", "mauza": "MURADPUR", "long": 91.75361, "lat": 22.40954, "serial": 3763, "isUnique": 1, "field_11": null, "field_12": null, "field_13": null, "field_14": null }, "geometry": { "type": "Point", "coordinates": [ 91.75361, 22.40954 ] } },
{ "type": "Feature", "properties": { "inst_name": "HAZRAT OMAR FARUK (R) DAKHIL MADRASHA", "eiin": 105095, "inst_type": "Madrasha", "district": "CHITTAGONG", "thana": "SITAKUNDA", "mauza": "GOLABARIA", "long": 91.73194, "lat": 22.45417, "serial": 3764, "isUnique": 1, "field_11": null, "field_12": null, "field_13": null, "field_14": null }, "geometry": { "type": "Point", "coordinates": [ 91.73194, 22.45417 ] } },
{ "type": "Feature", "properties": { "inst_name": "AL AMIN ISLAMIA SUNNIA DAKHIL MADRASHA", "eiin": 105096, "inst_type": "Madrasha", "district": "CHITTAGONG", "thana": "SITAKUNDA", "mauza": "UTTAR SONAICHHARI", "long": 91.76033, "lat": 22.39047, "serial": 3765, "isUnique": 1, "field_11": null, "field_12": null, "field_13": null, "field_14": null }, "geometry": { "type": "Point", "coordinates": [ 91.76033, 22.39047 ] } },
{ "type": "Feature", "properties": { "inst_name": "MADRASHA-A- MOHAMMADIA AHMODIA SUNNIA  D\/MAD.", "eiin": 105107, "inst_type": "Madrasha", "district": "CHITTAGONG", "thana": "SITAKUNDA", "mauza": "BHATIARI", "long": 91.64517, "lat": 22.61108, "serial": 3766, "isUnique": 1, "field_11": null, "field_12": null, "field_13": null, "field_14": null }, "geometry": { "type": "Point", "coordinates": [ 91.64517, 22.61108 ] } },
{ "type": "Feature", "properties": { "inst_name": "KADAMRASUL GHOWSIA TAYABIA SUNNIA DAKHIL MADRASHA", "eiin": 131787, "inst_type": "Madrasha", "district": "CHITTAGONG", "thana": "SITAKUNDA", "mauza": "JAHANABAD", "long": 91.71294, "lat": 22.49944, "serial": 3767, "isUnique": 1, "field_11": null, "field_12": null, "field_13": null, "field_14": null }, "geometry": { "type": "Point", "coordinates": [ 91.71294, 22.49944 ] } },
{ "type": "Feature", "properties": { "inst_name": "LALA NAGAR ISLAMIA DAKHIL MADRASHA", "eiin": 105109, "inst_type": "Madrasha", "district": "CHITTAGONG", "thana": "SITAKUNDA", "mauza": "DAKSHIN TERAIL", "long": 91.70339, "lat": 22.52136, "serial": 3768, "isUnique": 1, "field_11": null, "field_12": null, "field_13": null, "field_14": null }, "geometry": { "type": "Point", "coordinates": [ 91.70339, 22.52136 ] } },
{ "type": "Feature", "properties": { "inst_name": "MUJADDADIA NURIA ISLAMIA DAKHIL MADRASHA", "eiin": 105110, "inst_type": "Madrasha", "district": "CHITTAGONG", "thana": "SITAKUNDA", "mauza": "KATGHAR", "long": 91.74889, "lat": 22.42356, "serial": 3769, "isUnique": 1, "field_11": null, "field_12": null, "field_13": null, "field_14": null }, "geometry": { "type": "Point", "coordinates": [ 91.74889, 22.42356 ] } },
{ "type": "Feature", "properties": { "inst_name": "BARO DAROGA HAT S U I D MADRASHA", "eiin": 105102, "inst_type": "Madrasha", "district": "CHITTAGONG", "thana": "SITAKUNDA", "mauza": "FARADPUR", "long": 91.61386, "lat": 22.65833, "serial": 3770, "isUnique": 1, "field_11": null, "field_12": null, "field_13": null, "field_14": null }, "geometry": { "type": "Point", "coordinates": [ 91.61386, 22.65833 ] } },
{ "type": "Feature", "properties": { "inst_name": "KAZI PARA BAITUN NUR DAKHIL MADRASHA", "eiin": 131808, "inst_type": "Madrasha", "district": "CHITTAGONG", "thana": "SITAKUNDA", "mauza": "NODALIA", "long": 91.68519, "lat": 22.58019, "serial": 3771, "isUnique": 1, "field_11": null, "field_12": null, "field_13": null, "field_14": null }, "geometry": { "type": "Point", "coordinates": [ 91.68519, 22.58019 ] } },
{ "type": "Feature", "properties": { "inst_name": "JUBAIDIA ISLAMIA MOHILA ALIM MADRASAH", "eiin": 105097, "inst_type": "Madrasha", "district": "CHITTAGONG", "thana": "SITAKUNDA", "mauza": "DAKSHIN EDILPUR", "long": 91.62639, "lat": 22.68144, "serial": 3772, "isUnique": 1, "field_11": null, "field_12": null, "field_13": null, "field_14": null }, "geometry": { "type": "Point", "coordinates": [ 91.62639, 22.68144 ] } },
{ "type": "Feature", "properties": { "inst_name": "BANSH BARIA ISLAMIA DAKHIL MADRASHA", "eiin": 105103, "inst_type": "Madrasha", "district": "CHITTAGONG", "thana": "SITAKUNDA", "mauza": "BANSHBARIA", "long": 91.62464, "lat": 22.68094, "serial": 3773, "isUnique": 1, "field_11": null, "field_12": null, "field_13": null, "field_14": null }, "geometry": { "type": "Point", "coordinates": [ 91.62464, 22.68094 ] } },
{ "type": "Feature", "properties": { "inst_name": "SITAKUND  KAMIL MADRASAH", "eiin": 105099, "inst_type": "Madrasha", "district": "CHITTAGONG", "thana": "SITAKUNDA", "mauza": "DAKSHIN MOHADEBPUR", "long": 91.67136, "lat": 22.58636, "serial": 3774, "isUnique": 1, "field_11": null, "field_12": null, "field_13": null, "field_14": null }, "geometry": { "type": "Point", "coordinates": [ 91.67136, 22.58636 ] } },
{ "type": "Feature", "properties": { "inst_name": "PANTICHILLA ISLAMIA DAKHIL MADRASHA", "eiin": 105098, "inst_type": "Madrasha", "district": "CHITTAGONG", "thana": "SITAKUNDA", "mauza": "MADHYA YAKUBNAGAR (PART)", "long": 91.66161, "lat": 22.61719, "serial": 3775, "isUnique": 1, "field_11": null, "field_12": null, "field_13": null, "field_14": null }, "geometry": { "type": "Point", "coordinates": [ 91.66161, 22.61719 ] } },
{ "type": "Feature", "properties": { "inst_name": "CHARLAKSHA  SIRAJUL MAMUN  Y.Z  DAKHIL MADRASHA", "eiin": 104765, "inst_type": "Madrasha", "district": "CHITTAGONG", "thana": "PATIYA", "mauza": "CHAR LAKSHYA", "long": 91.65856, "lat": 22.62106, "serial": 3776, "isUnique": 1, "field_11": null, "field_12": null, "field_13": null, "field_14": null }, "geometry": { "type": "Point", "coordinates": [ 91.65856, 22.62106 ] } },
{ "type": "Feature", "properties": { "inst_name": "SAHCHAND AOWLIA KAMIL MADRASHA", "eiin": 104757, "inst_type": "Madrasha", "district": "CHITTAGONG", "thana": "PATIYA", "mauza": "BAHULI", "long": 91.84472, "lat": 22.30944, "serial": 3777, "isUnique": 1, "field_11": null, "field_12": null, "field_13": null, "field_14": null }, "geometry": { "type": "Point", "coordinates": [ 91.84472, 22.30944 ] } },
{ "type": "Feature", "properties": { "inst_name": "HAIDGAON  GOBINDERKHIL   GOWSIA  SOBHANIA  ADARSHA  DAKHIL  MADRASHA", "eiin": 131819, "inst_type": "Madrasha", "district": "CHITTAGONG", "thana": "PATIYA", "mauza": "GOBINDARKHIL UTTOR", "long": 91.98097, "lat": 22.29369, "serial": 3778, "isUnique": 1, "field_11": null, "field_12": null, "field_13": null, "field_14": null }, "geometry": { "type": "Point", "coordinates": [ 91.98097, 22.29369 ] } },
{ "type": "Feature", "properties": { "inst_name": "PATIYA AMIRUL ANOWALIA SONNIA DKAHIL MADRASAHA", "eiin": 104756, "inst_type": "Madrasha", "district": "CHITTAGONG", "thana": "PATIYA", "mauza": "ALLAI", "long": 91.98097, "lat": 22.29269, "serial": 3779, "isUnique": 1, "field_11": null, "field_12": null, "field_13": null, "field_14": null }, "geometry": { "type": "Point", "coordinates": [ 91.98097, 22.29269 ] } },
{ "type": "Feature", "properties": { "inst_name": "SOUTH ASHIYA GOUSIA SUNNIA DAKHIL MADRASHA", "eiin": 131833, "inst_type": "Madrasha", "district": "CHITTAGONG", "thana": "PATIYA", "mauza": "ASIA", "long": 91.98411, "lat": 22.29017, "serial": 3780, "isUnique": 1, "field_11": null, "field_12": null, "field_13": null, "field_14": null }, "geometry": { "type": "Point", "coordinates": [ 91.98411, 22.29017 ] } },
{ "type": "Feature", "properties": { "inst_name": "BARALIA SHAH SAYED ABDUSSALAM AULIA DAKHIL MADRASAH", "eiin": 131831, "inst_type": "Madrasha", "district": "CHITTAGONG", "thana": "PATIYA", "mauza": "BARALIA", "long": 91.98986, "lat": 22.30356, "serial": 3781, "isUnique": 1, "field_11": null, "field_12": null, "field_13": null, "field_14": null }, "geometry": { "type": "Point", "coordinates": [ 91.98986, 22.30356 ] } },
{ "type": "Feature", "properties": { "inst_name": "OKANNYRA MOHAMMADIA SUNNIA DHAKIL MADRASHA", "eiin": 104758, "inst_type": "Madrasha", "district": "CHITTAGONG", "thana": "PATIYA", "mauza": "OKAINAYRA", "long": 91.94242, "lat": 22.27411, "serial": 3782, "isUnique": 1, "field_11": null, "field_12": null, "field_13": null, "field_14": null }, "geometry": { "type": "Point", "coordinates": [ 91.94242, 22.27411 ] } },
{ "type": "Feature", "properties": { "inst_name": "H. MIRZA ALILEDU S. M. DAKHIL MADRASHA", "eiin": 104775, "inst_type": "Madrasha", "district": "CHITTAGONG", "thana": "PATIYA", "mauza": "BHATIKHAIN", "long": 91.92681, "lat": 22.29814, "serial": 3783, "isUnique": 1, "field_11": null, "field_12": null, "field_13": null, "field_14": null }, "geometry": { "type": "Point", "coordinates": [ 91.92681, 22.29814 ] } },
{ "type": "Feature", "properties": { "inst_name": "HAZRAT CHIKON KHALIFA SIDDIQUE AHMED DAKHIL MADRASHA", "eiin": 104754, "inst_type": "Madrasha", "district": "CHITTAGONG", "thana": "PATIYA", "mauza": "CHANHARA", "long": 91.84853, "lat": 22.2775, "serial": 3784, "isUnique": 1, "field_11": null, "field_12": null, "field_13": null, "field_14": null }, "geometry": { "type": "Point", "coordinates": [ 91.84853, 22.2775 ] } },
{ "type": "Feature", "properties": { "inst_name": "RAHMANIA  MUHAMMADIA  QUADERIA   DAKHIL MADRASHA", "eiin": 104774, "inst_type": "Madrasha", "district": "CHITTAGONG", "thana": "PATIYA", "mauza": "KARANKHAIN", "long": 91.98131, "lat": 22.25258, "serial": 3785, "isUnique": 1, "field_11": null, "field_12": null, "field_13": null, "field_14": null }, "geometry": { "type": "Point", "coordinates": [ 91.98131, 22.25258 ] } },
{ "type": "Feature", "properties": { "inst_name": "HULAIN  HAZRAT  YASIN  AOLIA  HAMIDA  ABEDIA  S\/MAD", "eiin": 104767, "inst_type": "Madrasha", "district": "CHITTAGONG", "thana": "PATIYA", "mauza": "HULAIN", "long": 91.94089, "lat": 22.34022, "serial": 3786, "isUnique": 1, "field_11": null, "field_12": null, "field_13": null, "field_14": null }, "geometry": { "type": "Point", "coordinates": [ 91.94089, 22.34022 ] } },
{ "type": "Feature", "properties": { "inst_name": "SHAH AKBARIYA  DAKHIL MADRASHA", "eiin": 131817, "inst_type": "Madrasha", "district": "CHITTAGONG", "thana": "PATIYA", "mauza": "HAIDGAON", "long": 91.90164, "lat": 22.33075, "serial": 3787, "isUnique": 1, "field_11": null, "field_12": null, "field_13": null, "field_14": null },