{
"type": "FeatureCollection",
"crs": { "type": "name", "properties": { "name": "urn:ogc:def:crs:OGC:1.3:CRS84" } },
"features": [
{ "type": "Feature", "properties": { "inst name": "BELKA DEGREE COLLEGE", "eiin": 121759, "inst_type": "College", "district": "GAIBANDHA", "thana": "SUNDARGANJ", "mauza": "BELKA", "long": 89.576096, "lat": 25.526882, "serial": 685, "isUnique": 1, "field_11": null }, "geometry": { "type": "Point", "coordinates": [ 89.576096, 25.526882 ] } },
{ "type": "Feature", "properties": { "inst name": "HAJI OSMAN GANI COLLEGE", "eiin": 121186, "inst_type": "College", "district": "GAIBANDHA", "thana": "GAIBANDHA SADAR", "mauza": "DARIAPUR", "long": 89.540634, "lat": 25.330786, "serial": 686, "isUnique": 1, "field_11": null }, "geometry": { "type": "Point", "coordinates": [ 89.540634, 25.330786 ] } },
{ "type": "Feature", "properties": { "inst name": "GAIBANDHA GOVT. COLLEGE", "eiin": 121184, "inst_type": "College", "district": "GAIBANDHA", "thana": "GAIBANDHA SADAR", "mauza": "PASCHIM GOBINDAPUR", "long": 89.56011, "lat": 25.43089, "serial": 687, "isUnique": 1, "field_11": null }, "geometry": { "type": "Point", "coordinates": [ 89.56011, 25.43089 ] } },
{ "type": "Feature", "properties": { "inst name": "GAIBANDA ADARSHA COLLEGE", "eiin": 121185, "inst_type": "College", "district": "GAIBANDHA", "thana": "GAIBANDHA SADAR", "mauza": "MADHA GOBINDAPUR", "long": 89.52933, "lat": 25.32144, "serial": 688, "isUnique": 1, "field_11": null }, "geometry": { "type": "Point", "coordinates": [ 89.52933, 25.32144 ] } },
{ "type": "Feature", "properties": { "inst name": "LENGA BAZAR IDEAL COLLEGE", "eiin": 121188, "inst_type": "College", "district": "GAIBANDHA", "thana": "GAIBANDHA SADAR", "mauza": "MALIBARI", "long": 89.54292, "lat": 25.33336, "serial": 690, "isUnique": 1, "field_11": null }, "geometry": { "type": "Point", "coordinates": [ 89.54292, 25.33336 ] } },
{ "type": "Feature", "properties": { "inst name": "TULSHI GHAT SHAMSUL HAQUE DEGREE COLLEGE", "eiin": 121182, "inst_type": "College", "district": "GAIBANDHA", "thana": "GAIBANDHA SADAR", "mauza": "TULSHIGHAT", "long": 89.51417, "lat": 25.27686, "serial": 691, "isUnique": 1, "field_11": null }, "geometry": { "type": "Point", "coordinates": [ 89.51417, 25.27686 ] } },
{ "type": "Feature", "properties": { "inst name": "HARINABARI COLLEGE", "eiin": 121429, "inst_type": "College", "district": "GAIBANDHA", "thana": "PALASHBARI", "mauza": "HARINABARI", "long": 89.48319, "lat": 25.24025, "serial": 692, "isUnique": 1, "field_11": null }, "geometry": { "type": "Point", "coordinates": [ 89.48319, 25.24025 ] } },
{ "type": "Feature", "properties": { "inst name": "MARIRHAT MODEL COLLEGE", "eiin": 121430, "inst_type": "College", "district": "GAIBANDHA", "thana": "PALASHBARI", "mauza": "LAKSHMIPUR", "long": 89.48931, "lat": 25.23503, "serial": 693, "isUnique": 1, "field_11": null }, "geometry": { "type": "Point", "coordinates": [ 89.48931, 25.23503 ] } },
{ "type": "Feature", "properties": { "inst name": "FAKIRHAT SHAHID SMRITI DEGREE COLLEGE", "eiin": 121427, "inst_type": "College", "district": "GAIBANDHA", "thana": "PALASHBARI", "mauza": "BALA BAMANIA", "long": 89.44533, "lat": 25.26797, "serial": 694, "isUnique": 1, "field_11": null }, "geometry": { "type": "Point", "coordinates": [ 89.44533, 25.26797 ] } },
{ "type": "Feature", "properties": { "inst name": "PALASHBARI GOVT.COLLEGE gaibandha", "eiin": 121426, "inst_type": "College", "district": "GAIBANDHA", "thana": "PALASHBARI", "mauza": "NURPUR", "long": 89.35133, "lat": 25.28222, "serial": 695, "isUnique": 1, "field_11": null }, "geometry": { "type": "Point", "coordinates": [ 89.35133, 25.28222 ] } },
{ "type": "Feature", "properties": { "inst name": "PALASH BARI ADARSHA DEGREE COLLEGE", "eiin": 121425, "inst_type": "College", "district": "GAIBANDHA", "thana": "PALASHBARI", "mauza": "GIRIDHARIPUR", "long": 89.34761, "lat": 25.26814, "serial": 696, "isUnique": 1, "field_11": null }, "geometry": { "type": "Point", "coordinates": [ 89.34761, 25.26814 ] } },
{ "type": "Feature", "properties": { "inst name": "PALASH  BARI   MAHILA  COLLEGE", "eiin": 121428, "inst_type": "College", "district": "GAIBANDHA", "thana": "PALASHBARI", "mauza": "NUNIAGARI", "long": 89.35633, "lat": 25.293, "serial": 697, "isUnique": 1, "field_11": null }, "geometry": { "type": "Point", "coordinates": [ 89.35633, 25.293 ] } },
{ "type": "Feature", "properties": { "inst name": "JOYEN PUR ADARSHA COLLEGE", "eiin": 121543, "inst_type": "College", "district": "GAIBANDHA", "thana": "SADULLAPUR", "mauza": "JAYENPUR", "long": 89.49136, "lat": 25.38136, "serial": 698, "isUnique": 1, "field_11": null }, "geometry": { "type": "Point", "coordinates": [ 89.49136, 25.38136 ] } },
{ "type": "Feature", "properties": { "inst name": "SADULLAPUR DEGREE COLLEGE", "eiin": 121539, "inst_type": "College", "district": "GAIBANDHA", "thana": "SADULLAPUR", "mauza": "SADULLAHPUR", "long": 89.46611, "lat": 25.35461, "serial": 699, "isUnique": 1, "field_11": null }, "geometry": { "type": "Point", "coordinates": [ 89.46611, 25.35461 ] } },
{ "type": "Feature", "properties": { "inst name": "SADULLAPUR GIRLS COLLEGE", "eiin": 121542, "inst_type": "College", "district": "GAIBANDHA", "thana": "SADULLAPUR", "mauza": "SADULLAHPUR", "long": 89.46608, "lat": 25.39403, "serial": 700, "isUnique": 1, "field_11": null }, "geometry": { "type": "Point", "coordinates": [ 89.46608, 25.39403 ] } },
{ "type": "Feature", "properties": { "inst name": "SHAH ASGAR ALI DEGREE COLLEGE", "eiin": 121537, "inst_type": "College", "district": "GAIBANDHA", "thana": "SADULLAPUR", "mauza": "GOBINDAPUR", "long": 89.39069, "lat": 25.3645, "serial": 701, "isUnique": 1, "field_11": null }, "geometry": { "type": "Point", "coordinates": [ 89.39069, 25.3645 ] } },
{ "type": "Feature", "properties": { "inst name": "MOHIPUR BAZAR COLLEGE", "eiin": 121540, "inst_type": "College", "district": "GAIBANDHA", "thana": "SADULLAPUR", "mauza": "MAHIPUR", "long": 89.36106, "lat": 25.30686, "serial": 702, "isUnique": 1, "field_11": null }, "geometry": { "type": "Point", "coordinates": [ 89.36106, 25.30686 ] } },
{ "type": "Feature", "properties": { "inst name": "KAMAR PARA COLLEGE", "eiin": 121541, "inst_type": "College", "district": "GAIBANDHA", "thana": "SADULLAPUR", "mauza": "KESALIDANGA", "long": 89.42475, "lat": 25.33067, "serial": 703, "isUnique": 1, "field_11": null }, "geometry": { "type": "Point", "coordinates": [ 89.42475, 25.33067 ] } },
{ "type": "Feature", "properties": { "inst name": "NALDANGA DEGREE COLLEGE", "eiin": 121538, "inst_type": "College", "district": "GAIBANDHA", "thana": "SADULLAPUR", "mauza": "NALDANGA", "long": 89.47167, "lat": 25.48303, "serial": 704, "isUnique": 1, "field_11": null }, "geometry": { "type": "Point", "coordinates": [ 89.47167, 25.48303 ] } },
{ "type": "Feature", "properties": { "inst name": "FULCHARI DEGREE COLLEGE", "eiin": 121099, "inst_type": "College", "district": "GAIBANDHA", "thana": "FULCHHARI", "mauza": "GAZARIA", "long": 89.40856, "lat": 25.45269, "serial": 705, "isUnique": 1, "field_11": null }, "geometry": { "type": "Point", "coordinates": [ 89.40856, 25.45269 ] } },
{ "type": "Feature", "properties": { "inst name": "KANCHIPARA DEHREE COLLEGE", "eiin": 121098, "inst_type": "College", "district": "GAIBANDHA", "thana": "FULCHHARI", "mauza": "GHOLDAHA", "long": 89.60725, "lat": 25.32594, "serial": 706, "isUnique": 1, "field_11": null }, "geometry": { "type": "Point", "coordinates": [ 89.60725, 25.32594 ] } },
{ "type": "Feature", "properties": { "inst name": "UDAKHALI MODEL COLLEGE", "eiin": 121096, "inst_type": "College", "district": "GAIBANDHA", "thana": "FULCHHARI", "mauza": "BURAIL", "long": 89.58622, "lat": 25.30892, "serial": 707, "isUnique": 1, "field_11": null }, "geometry": { "type": "Point", "coordinates": [ 89.58622, 25.30892 ] } },
{ "type": "Feature", "properties": { "inst name": "UDAKHALI WOMEN'S COLLEGE", "eiin": 121097, "inst_type": "College", "district": "GAIBANDHA", "thana": "FULCHHARI", "mauza": "UDAKHALI", "long": 89.57142, "lat": 25.24786, "serial": 708, "isUnique": 1, "field_11": null }, "geometry": { "type": "Point", "coordinates": [ 89.57142, 25.24786 ] } },
{ "type": "Feature", "properties": { "inst name": "BONARPARA DEGREE COLLEGE", "eiin": 121610, "inst_type": "College", "district": "GAIBANDHA", "thana": "SAGHATA", "mauza": "RAGHABPUR", "long": 89.52031, "lat": 25.16628, "serial": 709, "isUnique": 1, "field_11": null }, "geometry": { "type": "Point", "coordinates": [ 89.52031, 25.16628 ] } },
{ "type": "Feature", "properties": { "inst name": "SHAGHATA DEGREE COLLEGE", "eiin": 121609, "inst_type": "College", "district": "GAIBANDHA", "thana": "SAGHATA", "mauza": "GHURIDAHA", "long": 89.56942, "lat": 25.08908, "serial": 710, "isUnique": 1, "field_11": null }, "geometry": { "type": "Point", "coordinates": [ 89.56942, 25.08908 ] } },
{ "type": "Feature", "properties": { "inst name": "JUMARBARI ADARSHA COLLEGE", "eiin": 121611, "inst_type": "College", "district": "GAIBANDHA", "thana": "SAGHATA", "mauza": "CHAND PARA", "long": 89.55497, "lat": 25.05192, "serial": 711, "isUnique": 1, "field_11": null }, "geometry": { "type": "Point", "coordinates": [ 89.55497, 25.05192 ] } },
{ "type": "Feature", "properties": { "inst name": "KAMALER PARA COLLEGE", "eiin": 121612, "inst_type": "College", "district": "GAIBANDHA", "thana": "SAGHATA", "mauza": "KAMALER PARA", "long": 89.54867, "lat": 25.07603, "serial": 712, "isUnique": 1, "field_11": null }, "geometry": { "type": "Point", "coordinates": [ 89.54867, 25.07603 ] } },
{ "type": "Feature", "properties": { "inst name": "UDAYAN WOMEN'S COLLEGE", "eiin": 121608, "inst_type": "College", "district": "GAIBANDHA", "thana": "SAGHATA", "mauza": "PUTIMARI", "long": 89.57375, "lat": 25.15603, "serial": 713, "isUnique": 1, "field_11": null }, "geometry": { "type": "Point", "coordinates": [ 89.57375, 25.15603 ] } },
{ "type": "Feature", "properties": { "inst name": "SUNDARFANJ DEGREE WOMENS COLLEGE", "eiin": 121757, "inst_type": "College", "district": "GAIBANDHA", "thana": "SUNDARGANJ", "mauza": "BAMANJAL (PART)", "long": 89.50011, "lat": 25.59389, "serial": 714, "isUnique": 1, "field_11": null }, "geometry": { "type": "Point", "coordinates": [ 89.50011, 25.59389 ] } },
{ "type": "Feature", "properties": { "inst name": "SUNDARGAJ D.W DEGREE COLLEGE", "eiin": 121755, "inst_type": "College", "district": "GAIBANDHA", "thana": "SUNDARGANJ", "mauza": "SUNDARGANJ (PART)", "long": 89.5275, "lat": 25.56492, "serial": 715, "isUnique": 1, "field_11": null }, "geometry": { "type": "Point", "coordinates": [ 89.5275, 25.56492 ] } },
{ "type": "Feature", "properties": { "inst name": "DHUBNI KANCHIBARI COLLEGE", "eiin": 121760, "inst_type": "College", "district": "GAIBANDHA", "thana": "SUNDARGANJ", "mauza": "KANCHIBARI", "long": 89.51136, "lat": 25.55875, "serial": 716, "isUnique": 1, "field_11": null }, "geometry": { "type": "Point", "coordinates": [ 89.51136, 25.55875 ] } },
{ "type": "Feature", "properties": { "inst name": "BAMANDANGA ABDUL HAQUE COLLEGE", "eiin": 121756, "inst_type": "College", "district": "GAIBANDHA", "thana": "SUNDARGANJ", "mauza": "MANMATHA", "long": 89.42444, "lat": 25.56275, "serial": 717, "isUnique": 1, "field_11": null }, "geometry": { "type": "Point", "coordinates": [ 89.42444, 25.56275 ] } },
{ "type": "Feature", "properties": { "inst name": "RAMDEB SHAIKH KHABIR UDDIN COLLEGE", "eiin": 121753, "inst_type": "College", "district": "GAIBANDHA", "thana": "SUNDARGANJ", "mauza": "TALUK RAMDEB", "long": 89.45603, "lat": 25.56083, "serial": 718, "isUnique": 1, "field_11": null }, "geometry": { "type": "Point", "coordinates": [ 89.45603, 25.56083 ] } },
{ "type": "Feature", "properties": { "inst name": "SHOBHAGANJ WOMEN'S MODEL COLLEGE", "eiin": 121763, "inst_type": "College", "district": "GAIBANDHA", "thana": "SUNDARGANJ", "mauza": "KHAMAR PANCHGACHHI", "long": 89.56228, "lat": 25.48233, "serial": 719, "isUnique": 1, "field_11": null }, "geometry": { "type": "Point", "coordinates": [ 89.56228, 25.48233 ] } },
{ "type": "Feature", "properties": { "inst name": "SOBHAGANJ DEGREE COLLEGE", "eiin": 121758, "inst_type": "College", "district": "GAIBANDHA", "thana": "SUNDARGANJ", "mauza": "UTTAR MARUADAHA", "long": 89.55075, "lat": 25.50031, "serial": 720, "isUnique": 1, "field_11": null }, "geometry": { "type": "Point", "coordinates": [ 89.55075, 25.50031 ] } },
{ "type": "Feature", "properties": { "inst name": "DUBNI MOHILA COLLEGE", "eiin": 121761, "inst_type": "College", "district": "GAIBANDHA", "thana": "SUNDARGANJ", "mauza": "SATIRJAN", "long": 89.62567, "lat": 25.51497, "serial": 721, "isUnique": 1, "field_11": null }, "geometry": { "type": "Point", "coordinates": [ 89.62567, 25.51497 ] } },
{ "type": "Feature", "properties": { "inst name": "BAZARPARA COLLEGE", "eiin": 121762, "inst_type": "College", "district": "GAIBANDHA", "thana": "SUNDARGANJ", "mauza": "BAZAR PARA", "long": 89.5255, "lat": 25.48431, "serial": 722, "isUnique": 1, "field_11": null }, "geometry": { "type": "Point", "coordinates": [ 89.5255, 25.48431 ] } },
{ "type": "Feature", "properties": { "inst name": "DHARMAPUR ABDUL JABBAR DEGREE COLLEGE", "eiin": 121754, "inst_type": "College", "district": "GAIBANDHA", "thana": "SUNDARGANJ", "mauza": "DHARMAPUR", "long": 89.59925, "lat": 25.4585, "serial": 723, "isUnique": 1, "field_11": null }, "geometry": { "type": "Point", "coordinates": [ 89.59925, 25.4585 ] } },
{ "type": "Feature", "properties": { "inst name": "DHARMAPUR WOMENS COLLEGE", "eiin": 131930, "inst_type": "College", "district": "GAIBANDHA", "thana": "SUNDARGANJ", "mauza": "DHARMAPUR", "long": 89.62489, "lat": 25.42222, "serial": 724, "isUnique": 1, "field_11": null }, "geometry": { "type": "Point", "coordinates": [ 89.62489, 25.42222 ] } },
{ "type": "Feature", "properties": { "inst name": "GOBINDAGANJ  MAHILA COLLEGE", "eiin": 121349, "inst_type": "College", "district": "GAIBANDHA", "thana": "GOBINDAGANJ", "mauza": "BOALIA", "long": 89.36531, "lat": 25.10872, "serial": 725, "isUnique": 1, "field_11": null }, "geometry": { "type": "Point", "coordinates": [ 89.36531, 25.10872 ] } },
{ "type": "Feature", "properties": { "inst name": "GOBINDA GONJ COLLEGE", "eiin": 121347, "inst_type": "College", "district": "GAIBANDHA", "thana": "GOBINDAGANJ", "mauza": "BARDHAN KUTHI", "long": 89.40317, "lat": 25.12464, "serial": 726, "isUnique": 1, "field_11": null }, "geometry": { "type": "Point", "coordinates": [ 89.40317, 25.12464 ] } },
{ "type": "Feature", "properties": { "inst name": "FULPUKURIYA  COLLEGE", "eiin": 121353, "inst_type": "College", "district": "GAIBANDHA", "thana": "GOBINDAGANJ", "mauza": "SREEPUR", "long": 89.34489, "lat": 25.11528, "serial": 727, "isUnique": 1, "field_11": null }, "geometry": { "type": "Point", "coordinates": [ 89.34489, 25.11528 ] } },
{ "type": "Feature", "properties": { "inst name": "EKRAMUL HAQUE IDEAL AND COMPUTER BIGGYAN COLLEGE", "eiin": 121354, "inst_type": "College", "district": "GAIBANDHA", "thana": "GOBINDAGANJ", "mauza": "MASTA", "long": 89.39219, "lat": 25.09639, "serial": 728, "isUnique": 1, "field_11": null }, "geometry": { "type": "Point", "coordinates": [ 89.39219, 25.09639 ] } },
{ "type": "Feature", "properties": { "inst name": "KAMDIA NURUL HAQUE DEGREE COLLEGE", "eiin": 121351, "inst_type": "College", "district": "GAIBANDHA", "thana": "GOBINDAGANJ", "mauza": "PAKA", "long": 89.24553, "lat": 25.20633, "serial": 729, "isUnique": 1, "field_11": null }, "geometry": { "type": "Point", "coordinates": [ 89.24553, 25.20633 ] } },
{ "type": "Feature", "properties": { "inst name": "MOHIMAGANJ  COLLEGE", "eiin": 121350, "inst_type": "College", "district": "GAIBANDHA", "thana": "GOBINDAGANJ", "mauza": "JIRAI", "long": 89.46106, "lat": 25.12747, "serial": 730, "isUnique": 1, "field_11": null }, "geometry": { "type": "Point", "coordinates": [ 89.46106, 25.12747 ] } },
{ "type": "Feature", "properties": { "inst name": "MAHIMAGANJ WOMEN'S COLLEGE", "eiin": 121346, "inst_type": "College", "district": "GAIBANDHA", "thana": "GOBINDAGANJ", "mauza": "SREEPATIPUR", "long": 89.48256, "lat": 25.13297, "serial": 731, "isUnique": 1, "field_11": null }, "geometry": { "type": "Point", "coordinates": [ 89.48256, 25.13297 ] } },
{ "type": "Feature", "properties": { "inst name": "NAKAI HAT COLLEGE", "eiin": 121344, "inst_type": "College", "district": "GAIBANDHA", "thana": "GOBINDAGANJ", "mauza": "NAKAI", "long": 89.46642, "lat": 25.23392, "serial": 732, "isUnique": 1, "field_11": null }, "geometry": { "type": "Point", "coordinates": [ 89.46642, 25.23392 ] } },
{ "type": "Feature", "properties": { "inst name": "SHAHARGACHHI ADARSA  DEGRKEE COLLEGE", "eiin": 121352, "inst_type": "College", "district": "GAIBANDHA", "thana": "GOBINDAGANJ", "mauza": "RAJAS", "long": 89.27989, "lat": 25.16442, "serial": 733, "isUnique": 1, "field_11": null }, "geometry": { "type": "Point", "coordinates": [ 89.27989, 25.16442 ] } },
{ "type": "Feature", "properties": { "inst name": "BADIAKHALI STATION ALIM MADRASha", "eiin": 121165, "inst_type": "Madrasha", "district": "GAIBANDHA", "thana": "GAIBANDHA SADAR", "mauza": "TALUK RIFAITPUR", "long": 89.525, "lat": 25.39308, "serial": 4742, "isUnique": 1, "field_11": null }, "geometry": { "type": "Point", "coordinates": [ 89.525, 25.39308 ] } },
{ "type": "Feature", "properties": { "inst name": "MODYA DHAN GHORA DAKHIL MADRASHA", "eiin": 121174, "inst_type": "Madrasha", "district": "GAIBANDHA", "thana": "GAIBANDHA SADAR", "mauza": "DHANGHARA (PART)", "long": 89.49356, "lat": 25.34803, "serial": 4743, "isUnique": 1, "field_11": null }, "geometry": { "type": "Point", "coordinates": [ 89.49356, 25.34803 ] } },
{ "type": "Feature", "properties": { "inst name": "BALLAMJHAR AMINIA DAKHIL MADRASHA", "eiin": 121164, "inst_type": "Madrasha", "district": "GAIBANDHA", "thana": "GAIBANDHA SADAR", "mauza": "BALLAMJHAR", "long": 89.50586, "lat": 25.32256, "serial": 4744, "isUnique": 1, "field_11": null }, "geometry": { "type": "Point", "coordinates": [ 89.50586, 25.32256 ] } },
{ "type": "Feature", "properties": { "inst name": "DARUL HUDA alim MADRASHA", "eiin": 121181, "inst_type": "Madrasha", "district": "GAIBANDHA", "thana": "GAIBANDHA SADAR", "mauza": "JOTGAUR SARKAR", "long": 89.62114, "lat": 25.36856, "serial": 4745, "isUnique": 1, "field_11": null }, "geometry": { "type": "Point", "coordinates": [ 89.62114, 25.36856 ] } },
{ "type": "Feature", "properties": { "inst name": "FOLIA PULBANDI DAKHIL MADRASHA", "eiin": 121161, "inst_type": "Madrasha", "district": "GAIBANDHA", "thana": "GAIBANDHA SADAR", "mauza": "PHALIA", "long": 89.56744, "lat": 25.28936, "serial": 4746, "isUnique": 1, "field_11": null }, "geometry": { "type": "Point", "coordinates": [ 89.56744, 25.28936 ] } },
{ "type": "Feature", "properties": { "inst name": "GHAGOA  ISLAMIA  DAKHIL  MADRASHA", "eiin": 121166, "inst_type": "Madrasha", "district": "GAIBANDHA", "thana": "GAIBANDHA SADAR", "mauza": "DAKSHIN GHAGOA", "long": 89.56942, "lat": 25.38919, "serial": 4747, "isUnique": 1, "field_11": null }, "geometry": { "type": "Point", "coordinates": [ 89.56942, 25.38919 ] } },
{ "type": "Feature", "properties": { "inst name": "KHOLAHATI KORBANIA SIDDIKIA DAKHIL MADRASA", "eiin": 121177, "inst_type": "Madrasha", "district": "GAIBANDHA", "thana": "GAIBANDHA SADAR", "mauza": "PURBA KAMARNAI (PART)", "long": 89.61992, "lat": 25.35853, "serial": 4748, "isUnique": 1, "field_11": null }, "geometry": { "type": "Point", "coordinates": [ 89.61992, 25.35853 ] } },
{ "type": "Feature", "properties": { "inst name": "GAIBANDHA SI. FAZIL MADRASHA", "eiin": 121163, "inst_type": "Madrasha", "district": "GAIBANDHA", "thana": "GAIBANDHA SADAR", "mauza": "DAKSHIN CHAK MOMRAJPU", "long": 89.63039, "lat": 25.39169, "serial": 4749, "isUnique": 1, "field_11": null }, "geometry": { "type": "Point", "coordinates": [ 89.63039, 25.39169 ] } },
{ "type": "Feature", "properties": { "inst name": "CHAPADAHA  ATIM  KHANA DAKHIL  MADRASHA", "eiin": 121172, "inst_type": "Madrasha", "district": "GAIBANDHA", "thana": "GAIBANDHA SADAR", "mauza": "CHAPADAHA", "long": 89.51014, "lat": 25.37756, "serial": 4750, "isUnique": 1, "field_11": null }, "geometry": { "type": "Point", "coordinates": [ 89.51014, 25.37756 ] } },
{ "type": "Feature", "properties": { "inst name": "KUPTALA  AMINIA  DAKHIL  MADRASHA", "eiin": 121162, "inst_type": "Madrasha", "district": "GAIBANDHA", "thana": "GAIBANDHA SADAR", "mauza": "KUPTALA", "long": 89.51703, "lat": 25.38356, "serial": 4751, "isUnique": 1, "field_11": null }, "geometry": { "type": "Point", "coordinates": [ 89.51703, 25.38356 ] } },
{ "type": "Feature", "properties": { "inst name": "RAMPRASAD ISLAMIA DAKHIL MADRAShA", "eiin": 121179, "inst_type": "Madrasha", "district": "GAIBANDHA", "thana": "GAIBANDHA SADAR", "mauza": "BERADANGA", "long": 89.52544, "lat": 25.39194, "serial": 4752, "isUnique": 1, "field_11": null }, "geometry": { "type": "Point", "coordinates": [ 89.52544, 25.39194 ] } },
{ "type": "Feature", "properties": { "inst name": "HAT  LAKMIPUR  ABUL  KASHEM  DAKHIL  MADRASHA", "eiin": 121170, "inst_type": "Madrasha", "district": "GAIBANDHA", "thana": "GAIBANDHA SADAR", "mauza": "GOBINDAPUR", "long": 89.53814, "lat": 25.32883, "serial": 4753, "isUnique": 1, "field_11": null }, "geometry": { "type": "Point", "coordinates": [ 89.53814, 25.32883 ] } },
{ "type": "Feature", "properties": { "inst name": "ADARSHA DE MUKHI DAKHIL MADRASHA", "eiin": 121176, "inst_type": "Madrasha", "district": "GAIBANDHA", "thana": "GAIBANDHA SADAR", "mauza": "DAVID CO. PARA", "long": 89.558, "lat": 25.432, "serial": 4754, "isUnique": 1, "field_11": null }, "geometry": { "type": "Point", "coordinates": [ 89.558, 25.432 ] } },
{ "type": "Feature", "properties": { "inst name": "LENGA BAZAR ADARASH DAKHIL MADRASAH", "eiin": 121178, "inst_type": "Madrasha", "district": "GAIBANDHA", "thana": "GAIBANDHA SADAR", "mauza": "MALIBARI", "long": 89.54925, "lat": 25.39833, "serial": 4755, "isUnique": 1, "field_11": null }, "geometry": { "type": "Point", "coordinates": [ 89.54925, 25.39833 ] } },
{ "type": "Feature", "properties": { "inst name": "NUTAN BANDAR GIRLS DAKHIL MADRASHA", "eiin": 121175, "inst_type": "Madrasha", "district": "GAIBANDHA", "thana": "GAIBANDHA SADAR", "mauza": "BARA BALDIA", "long": 89.54422, "lat": 25.33242, "serial": 4756, "isUnique": 1, "field_11": null }, "geometry": { "type": "Point", "coordinates": [ 89.54422, 25.33242 ] } },
{ "type": "Feature", "properties": { "inst name": "KAMARJANI BONIK FAZIL MADRASAH", "eiin": 121171, "inst_type": "Madrasha", "district": "GAIBANDHA", "thana": "GAIBANDHA SADAR", "mauza": "KISMAT MALIBARI DHARM", "long": 89.61867, "lat": 25.40494, "serial": 4757, "isUnique": 1, "field_11": null }, "geometry": { "type": "Point", "coordinates": [ 89.61867, 25.40494 ] } },
{ "type": "Feature", "properties": { "inst name": "KHIDIR SHARIF AL WAHEDI DAKHIL MADRASHA", "eiin": 121169, "inst_type": "Madrasha", "district": "GAIBANDHA", "thana": "GAIBANDHA SADAR", "mauza": "KHIDIR", "long": 89.5985, "lat": 25.41825, "serial": 4758, "isUnique": 1, "field_11": null }, "geometry": { "type": "Point", "coordinates": [ 89.5985, 25.41825 ] } },
{ "type": "Feature", "properties": { "inst name": "MATHER BAZAR ABU BAKER FAZIL degree MADRASA", "eiin": 121403, "inst_type": "Madrasha", "district": "GAIBANDHA", "thana": "PALASHBARI", "mauza": "CHHOTA BAULER PARA", "long": 89.38903, "lat": 25.24575, "serial": 4759, "isUnique": 1, "field_11": null }, "geometry": { "type": "Point", "coordinates": [ 89.38903, 25.24575 ] } },
{ "type": "Feature", "properties": { "inst name": "ROWSHON BAGH DIMUKHI DAKIL MAADRASHA", "eiin": 121411, "inst_type": "Madrasha", "district": "GAIBANDHA", "thana": "PALASHBARI", "mauza": "KRISHNAPUR", "long": 89.44703, "lat": 25.30417, "serial": 4760, "isUnique": 1, "field_11": null }, "geometry": { "type": "Point", "coordinates": [ 89.44703, 25.30417 ] } },
{ "type": "Feature", "properties": { "inst name": "HARINATHPUR POCHIMPARA DR.T.I.M  FAZLI RABBI DAKHIL MADRASHA", "eiin": 121414, "inst_type": "Madrasha", "district": "GAIBANDHA", "thana": "PALASHBARI", "mauza": "HARINATHPUR", "long": 89.46181, "lat": 25.30964, "serial": 4761, "isUnique": 1, "field_11": null }, "geometry": { "type": "Point", "coordinates": [ 89.46181, 25.30964 ] } },
{ "type": "Feature", "properties": { "inst name": "DOULATPUR B.L. ALIM MADRASHA", "eiin": 121410, "inst_type": "Madrasha", "district": "GAIBANDHA", "thana": "PALASHBARI", "mauza": "DAULATPUR", "long": 89.50514, "lat": 25.23892, "serial": 4762, "isUnique": 1, "field_11": null }, "geometry": { "type": "Point", "coordinates": [ 89.50514, 25.23892 ] } },
{ "type": "Feature", "properties": { "inst name": "MARIR HAT DEMUKHI FAZIL MADRASHA", "eiin": 121406, "inst_type": "Madrasha", "district": "GAIBANDHA", "thana": "PALASHBARI", "mauza": "LAKSHMIPUR", "long": 89.31064, "lat": 25.23119, "serial": 4763, "isUnique": 1, "field_11": null }, "geometry": { "type": "Point", "coordinates": [ 89.31064, 25.23119 ] } },
{ "type": "Feature", "properties": { "inst name": "ASMATPUR ADARSHA GIRLS DAKHIL MADRASHA", "eiin": 121402, "inst_type": "Madrasha", "district": "GAIBANDHA", "thana": "PALASHBARI", "mauza": "ASMATPUR", "long": 89.31625, "lat": 25.27508, "serial": 4764, "isUnique": 1, "field_11": null }, "geometry": { "type": "Point", "coordinates": [ 89.31625, 25.27508 ] } },
{ "type": "Feature", "properties": { "inst name": "PACH PIRER DARGAH DAKHIL MADRASHA", "eiin": 121412, "inst_type": "Madrasha", "district": "GAIBANDHA", "thana": "PALASHBARI", "mauza": "BUZRUK TENGRA", "long": 89.28347, "lat": 25.29339, "serial": 4765, "isUnique": 1, "field_11": null }, "geometry": { "type": "Point", "coordinates": [ 89.28347, 25.29339 ] } },
{ "type": "Feature", "properties": { "inst name": "PASHIM MIRJAPUR B.L FAZIL MADRASHA", "eiin": 121405, "inst_type": "Madrasha", "district": "GAIBANDHA", "thana": "PALASHBARI", "mauza": "PASCHIM MIRZAPUR", "long": 89.32492, "lat": 25.29583, "serial": 4766, "isUnique": 1, "field_11": null }, "geometry": { "type": "Point", "coordinates": [ 89.32492, 25.29583 ] } },
{ "type": "Feature", "properties": { "inst name": "CHAKBALA ALIMUDDIN DAKHIL MADASHA", "eiin": 121413, "inst_type": "Madrasha", "district": "GAIBANDHA", "thana": "PALASHBARI", "mauza": "CHAKBALA", "long": 89.30486, "lat": 25.25869, "serial": 4767, "isUnique": 1, "field_11": null }, "geometry": { "type": "Point", "coordinates": [ 89.30486, 25.25869 ] } },
{ "type": "Feature", "properties": { "inst name": "JALAgARI DARGAHPUR DAKHIL MADRASHA", "eiin": 121409, "inst_type": "Madrasha", "district": "GAIBANDHA", "thana": "PALASHBARI", "mauza": "JALAGARI DURGAPUR", "long": 89.27242, "lat": 25.27856, "serial": 4768, "isUnique": 1, "field_11": null }, "geometry": { "type": "Point", "coordinates": [ 89.27242, 25.27856 ] } },
{ "type": "Feature", "properties": { "inst name": "THOTIA PUKUR ALHAZZ AKRAM UDDIN DAKHIL MADRASHA", "eiin": 121416, "inst_type": "Madrasha", "district": "GAIBANDHA", "thana": "PALASHBARI", "mauza": "DAYAR PARA", "long": 89.33156, "lat": 25.22581, "serial": 4769, "isUnique": 1, "field_11": null }, "geometry": { "type": "Point", "coordinates": [ 89.33156, 25.22581 ] } },
{ "type": "Feature", "properties": { "inst name": "MONOHARPUR ADARSHA DAKHIL MADRASHA", "eiin": 121423, "inst_type": "Madrasha", "district": "GAIBANDHA", "thana": "PALASHBARI", "mauza": "MANOHARPUR", "long": 89.41044, "lat": 25.27103, "serial": 4770, "isUnique": 1, "field_11": null }, "geometry": { "type": "Point", "coordinates": [ 89.41044, 25.27103 ] } },
{ "type": "Feature", "properties": { "inst name": "ALLAHR DARGAH ISLAMIA DAKIL MADRASHA", "eiin": 121420, "inst_type": "Madrasha", "district": "GAIBANDHA", "thana": "PALASHBARI", "mauza": "BALA BAMANIA", "long": 89.49486, "lat": 25.26797, "serial": 4771, "isUnique": 1, "field_11": null }, "geometry": { "type": "Point", "coordinates": [ 89.49486, 25.26797 ] } },
{ "type": "Feature", "properties": { "inst name": "MAYMANTAPUR RUHUL AMIN BL le TAREL DAKHIL MADRSHA", "eiin": 121408, "inst_type": "Madrasha", "district": "GAIBANDHA", "thana": "PALASHBARI", "mauza": "MAYMANTAPUR", "long": 89.44806, "lat": 25.25219, "serial": 4772, "isUnique": 1, "field_11": null }, "geometry": { "type": "Point", "coordinates": [ 89.44806, 25.25219 ] } },
{ "type": "Feature", "properties": { "inst name": "GREEDHARIPUR DHAKIL MADRASHA", "eiin": 121417, "inst_type": "Madrasha", "district": "GAIBANDHA", "thana": "PALASHBARI", "mauza": "GIRIDHARIPUR", "long": 89.35175, "lat": 25.27903, "serial": 4773, "isUnique": 1, "field_11": null }, "geometry": { "type": "Point", "coordinates": [ 89.35175, 25.27903 ] } },
{ "type": "Feature", "properties": { "inst name": "PALASHBARI A A S B P GIRLS FAZIL MADRASHA", "eiin": 121404, "inst_type": "Madrasha", "district": "GAIBANDHA", "thana": "PALASHBARI", "mauza": "JAMALPUR", "long": 89.36372, "lat": 25.28431, "serial": 4774, "isUnique": 1, "field_11": null }, "geometry": { "type": "Point", "coordinates": [ 89.36372, 25.28431 ] } },
{ "type": "Feature", "properties": { "inst name": "MOHESHPUR DAKHIL MADRASah", "eiin": 121418, "inst_type": "Madrasha", "district": "GAIBANDHA", "thana": "PALASHBARI", "mauza": "MAHESHPUR", "long": 89.34775, "lat": 25.2815, "serial": 4775, "isUnique": 1, "field_11": null }, "geometry": { "type": "Point", "coordinates": [ 89.34775, 25.2815 ] } },
{ "type": "Feature", "properties": { "inst name": "PALASHBARI FAZIL (DEGREE ) MADRASHA", "eiin": 121407, "inst_type": "Madrasha", "district": "GAIBANDHA", "thana": "PALASHBARI", "mauza": "NUNIAGARI", "long": 89.34547, "lat": 25.29986, "serial": 4776, "isUnique": 1, "field_11": null }, "geometry": { "type": "Point", "coordinates": [ 89.34547, 25.29986 ] } },
{ "type": "Feature", "properties": { "inst name": "BADLAGARI PURBO PARA ADARSAH DAKHIL MADRASAH", "eiin": 121534, "inst_type": "Madrasha", "district": "GAIBANDHA", "thana": "SADULLAPUR", "mauza": "BADLAGARI", "long": 89.46775, "lat": 25.38903, "serial": 4777, "isUnique": 1, "field_11": null }, "geometry": { "type": "Point", "coordinates": [ 89.46775, 25.38903 ] } },
{ "type": "Feature", "properties": { "inst name": "ISLAMPUR GIRLS  DAKHIL MADRASAH", "eiin": 121536, "inst_type": "Madrasha", "district": "GAIBANDHA", "thana": "SADULLAPUR", "mauza": "ISLAMPUR", "long": 89.46114, "lat": 25.37058, "serial": 4778, "isUnique": 1, "field_11": null }, "geometry": { "type": "Point", "coordinates": [ 89.46114, 25.37058 ] } },
{ "type": "Feature", "properties": { "inst name": "SADULLAPUR GIRLS DAKHIL MADRASHA", "eiin": 121527, "inst_type": "Madrasha", "district": "GAIBANDHA", "thana": "SADULLAPUR", "mauza": "SADULLAHPUR", "long": 89.45139, "lat": 25.36236, "serial": 4779, "isUnique": 1, "field_11": null }, "geometry": { "type": "Point", "coordinates": [ 89.45139, 25.36236 ] } },
{ "type": "Feature", "properties": { "inst name": "JOYINPUR GARARMATH AZIZUL ISLAM DAKHIL MADRASHA", "eiin": 121513, "inst_type": "Madrasha", "district": "GAIBANDHA", "thana": "SADULLAPUR", "mauza": "JAYENPUR", "long": 89.46644, "lat": 25.39083, "serial": 4780, "isUnique": 1, "field_11": null }, "geometry": { "type": "Point", "coordinates": [ 89.46644, 25.39083 ] } },
{ "type": "Feature", "properties": { "inst name": "TRIMILON DARUL HUDA DAKHIL MADRASHA", "eiin": 121517, "inst_type": "Madrasha", "district": "GAIBANDHA", "thana": "SADULLAPUR", "mauza": "BHATGRAM", "long": 89.42361, "lat": 25.36425, "serial": 4781, "isUnique": 1, "field_11": null }, "geometry": { "type": "Point", "coordinates": [ 89.42361, 25.36425 ] } },
{ "type": "Feature", "properties": { "inst name": "KHORODRUHIA DARUL ULUM DAKHIL MADRASAH", "eiin": 121514, "inst_type": "Madrasha", "district": "GAIBANDHA", "thana": "SADULLAPUR", "mauza": "KHURDA RUHIA", "long": 89.46417, "lat": 25.38675, "serial": 4782, "isUnique": 1, "field_11": null }, "geometry": { "type": "Point", "coordinates": [ 89.46417, 25.38675 ] } },
{ "type": "Feature", "properties": { "inst name": "KRISNAPUR DIMOKI DAKHIL MADRASAH", "eiin": 121511, "inst_type": "Madrasha", "district": "GAIBANDHA", "thana": "SADULLAPUR", "mauza": "KRISHNAPUR", "long": 89.40817, "lat": 25.36214, "serial": 4783, "isUnique": 1, "field_11": null }, "geometry": { "type": "Point", "coordinates": [ 89.40817, 25.36214 ] } },
{ "type": "Feature", "properties": { "inst name": "NEYAMAT NAGAR N.U. SHAH S.R. FAZIL MADRASH", "eiin": 121508, "inst_type": "Madrasha", "district": "GAIBANDHA", "thana": "SADULLAPUR", "mauza": "JAMUDANGA", "long": 89.46586, "lat": 25.46011, "serial": 4784, "isUnique": 1, "field_11": null }, "geometry": { "type": "Point", "coordinates": [ 89.46586, 25.46011 ] } },
{ "type": "Feature", "properties": { "inst name": "JAMU DANGA ADARSHA BL DAKHIL MADRASHA", "eiin": 121528, "inst_type": "Madrasha", "district": "GAIBANDHA", "thana": "SADULLAPUR", "mauza": "JAMUDANGA", "long": 89.45517, "lat": 25.42572, "serial": 4785, "isUnique": 1, "field_11": null }, "geometry": { "type": "Point", "coordinates": [ 89.45517, 25.42572 ] } },
{ "type": "Feature", "properties": { "inst name": "KISHAMAT KHAJU G.M.B. BI-LATERAL DAKHIL MADRASAH", "eiin": 121510, "inst_type": "Madrasha", "district": "GAIBANDHA", "thana": "SADULLAPUR", "mauza": "KISMAT KHEJU", "long": 89.46875, "lat": 25.41542, "serial": 4786, "isUnique": 1, "field_11": null }, "geometry": { "type": "Point", "coordinates": [ 89.46875, 25.41542 ] } },
{ "type": "Feature", "properties": { "inst name": "PASCHIM DAMODARPUR DHAMUKI DAKHIL MADRASHA", "eiin": 121512, "inst_type": "Madrasha", "district": "GAIBANDHA", "thana": "SADULLAPUR", "mauza": "DAMODARPUR", "long": 89.46881, "lat": 25.41547, "serial": 4787, "isUnique": 1, "field_11": null }, "geometry": { "type": "Point", "coordinates": [ 89.46881, 25.41547 ] } },
{ "type": "Feature", "properties": { "inst name": "BOKSHIGONJ DEEMUKHI DAKHIL MADRASHA", "eiin": 121518, "inst_type": "Madrasha", "district": "GAIBANDHA", "thana": "SADULLAPUR", "mauza": "BOALIDAHA", "long": 89.38406, "lat": 25.36186, "serial": 4788, "isUnique": 1, "field_11": null }, "geometry": { "type": "Point", "coordinates": [ 89.38406, 25.36186 ] } },
{ "type": "Feature", "properties": { "inst name": "MADHYA PARA DAKHIL MADRASHA", "eiin": 121524, "inst_type": "Madrasha", "district": "GAIBANDHA", "thana": "SADULLAPUR", "mauza": "MADHYAPARA", "long": 89.36917, "lat": 25.34317, "serial": 4790, "isUnique": 2, "field_11": null }, "geometry": { "type": "Point", "coordinates": [ 89.36917, 25.34317 ] } },
{ "type": "Feature", "properties": { "inst name": "SAIGARI GOBINDPUR DAKHIL MADRASHA", "eiin": 121501, "inst_type": "Madrasha", "district": "GAIBANDHA", "thana": "SADULLAPUR", "mauza": "GOBINDAPUR", "long": 89.36917, "lat": 25.34317, "serial": 4791, "isUnique": 2, "field_11": null }, "geometry": { "type": "Point", "coordinates": [ 89.36917, 25.34317 ] } },
{ "type": "Feature", "properties": { "inst name": "ISABPUR B.L ISLAMIA DHAKIL MADRASHA", "eiin": 121496, "inst_type": "Madrasha", "district": "GAIBANDHA", "thana": "SADULLAPUR", "mauza": "ISABPUR", "long": 89.34917, "lat": 25.35906, "serial": 4792, "isUnique": 1, "field_11": null }, "geometry": { "type": "Point", "coordinates": [ 89.34917, 25.35906 ] } },
{ "type": "Feature", "properties": { "inst name": "SHAHZALAL DAKHIL MADRASA", "eiin": 121519, "inst_type": "Madrasha", "district": "GAIBANDHA", "thana": "SADULLAPUR", "mauza": "MAHESHPUR", "long": 89.40542, "lat": 25.37356, "serial": 4793, "isUnique": 1, "field_11": null }, "geometry": { "type": "Point", "coordinates": [ 89.40542, 25.37356 ] } },
{ "type": "Feature", "properties": { "inst name": "DHARAI sarifunnesa DAKHKIL MADRASAh", "eiin": 121504, "inst_type": "Madrasha", "district": "GAIBANDHA", "thana": "SADULLAPUR", "mauza": "DHARAI", "long": 89.39231, "lat": 25.32803, "serial": 4794, "isUnique": 1, "field_11": null }, "geometry": { "type": "Point", "coordinates": [ 89.39231, 25.32803 ] } },
{ "type": "Feature", "properties": { "inst name": "EDILPUR DIMUKHI DAKHIL MADRASHA", "eiin": 121497, "inst_type": "Madrasha", "district": "GAIBANDHA", "thana": "SADULLAPUR", "mauza": "IDILPUR", "long": 89.39181, "lat": 25.30989, "serial": 4795, "isUnique": 1, "field_11": null }, "geometry": { "type": "Point", "coordinates": [ 89.39181, 25.30989 ] } },
{ "type": "Feature", "properties": { "inst name": "KUNJA  MOHIPUR  BALIKA  DAHKIL  MADRSHA", "eiin": 121506, "inst_type": "Madrasha", "district": "GAIBANDHA", "thana": "SADULLAPUR", "mauza": "KUNJA MAHIPUR", "long": 89.38269, "lat": 25.31064, "serial": 4796, "isUnique": 1, "field_11": null }, "geometry": { "type": "Point", "coordinates": [ 89.38269, 25.31064 ] } },
{ "type": "Feature", "properties": { "inst name": "TARAF SADULLA SAFARIA DE MUKHI DAKHIL MADRASHA", "eiin": 121505, "inst_type": "Madrasha", "district": "GAIBANDHA", "thana": "SADULLAPUR", "mauza": "TARAF SADULLAH", "long": 89.36969, "lat": 25.32414, "serial": 4797, "isUnique": 1, "field_11": null }, "geometry": { "type": "Point", "coordinates": [ 89.36969, 25.32414 ] } },
{ "type": "Feature", "properties": { "inst name": "MOHIPUR BAZER A K BALIK  DDHKIL  MADRSHA", "eiin": 121507, "inst_type": "Madrasha", "district": "GAIBANDHA", "thana": "SADULLAPUR", "mauza": "MAHIPUR", "long": 89.38283, "lat": 25.31169, "serial": 4798, "isUnique": 1, "field_11": null }, "geometry": { "type": "Point", "coordinates": [ 89.38283, 25.31169 ] } },
{ "type": "Feature", "properties": { "inst name": "BARA JAMALPUR SENIOR MADRASHA", "eiin": 121515, "inst_type": "Madrasha", "district": "GAIBANDHA", "thana": "SADULLAPUR", "mauza": "BARA JAMALPUR", "long": 89.38283, "lat": 25.31075, "serial": 4799, "isUnique": 1, "field_11": null }, "geometry": { "type": "Point", "coordinates": [ 89.38283, 25.31075 ] } },
{ "type": "Feature", "properties": { "inst name": "CHALK SHALAI PUR SINIOR ALIM MADRASAH", "eiin": 121522, "inst_type": "Madrasha", "district": "GAIBANDHA", "thana": "SADULLAPUR", "mauza": "GOPALPUR", "long": 89.41994, "lat": 25.40358, "serial": 4800, "isUnique": 1, "field_11": null }, "geometry": { "type": "Point", "coordinates": [ 89.41994, 25.40358 ] } },
{ "type": "Feature", "properties": { "inst name": "BUZRUK RASHULPUR DAKHIL MADRASHA", "eiin": 121529, "inst_type": "Madrasha", "district": "GAIBANDHA", "thana": "SADULLAPUR", "mauza": "BUZRUK RASULPUR", "long": 89.44108, "lat": 25.39547, "serial": 4801, "isUnique": 1, "field_11": null }, "geometry": { "type": "Point", "coordinates": [ 89.44108, 25.39547 ] } },
{ "type": "Feature", "properties": { "inst name": "DHOL BHANGA BL DDAKHIL MADRASA", "eiin": 121500, "inst_type": "Madrasha", "district": "GAIBANDHA", "thana": "SADULLAPUR", "mauza": "BARA GOPALPUR", "long": 89.43203, "lat": 25.41639, "serial": 4802, "isUnique": 1, "field_11": null }, "geometry": { "type": "Point", "coordinates": [ 89.43203, 25.41639 ] } },
{ "type": "Feature", "properties": { "inst name": "KHORDA KUMARPUR HAMIDA CHOWDHURY DAKHIL MADRASA", "eiin": 121521, "inst_type": "Madrasha", "district": "GAIBANDHA", "thana": "SADULLAPUR", "mauza": "KHORDA KAMARPUR", "long": 89.43525, "lat": 25.42092, "serial": 4803, "isUnique": 1, "field_11": null }, "geometry": { "type": "Point", "coordinates": [ 89.43525, 25.42092 ] } },
{ "type": "Feature", "properties": { "inst name": "DAKKIN HAT BAMONI N.I. DHAKHIL MADRASHA", "eiin": 121516, "inst_type": "Madrasha", "district": "GAIBANDHA", "thana": "SADULLAPUR", "mauza": "HATBAMNI", "long": 89.42525, "lat": 25.32867, "serial": 4804, "isUnique": 1, "field_11": null }, "geometry": { "type": "Point", "coordinates": [ 89.42525, 25.32867 ] } },
{ "type": "Feature", "properties": { "inst name": "KISHAMAT BAGCHI SIDDIQUIA DI-MUKHI SENIOR MADRASHA", "eiin": 121499, "inst_type": "Madrasha", "district": "GAIBANDHA", "thana": "SADULLAPUR", "mauza": "KESALIDANGA", "long": 89.41914, "lat": 25.30175, "serial": 4805, "isUnique": 1, "field_11": null }, "geometry": { "type": "Point", "coordinates": [ 89.41914, 25.30175 ] } },
{ "type": "Feature", "properties": { "inst name": "KHAMAR DASLIA  SENIOR ALIM  MADRASHA", "eiin": 121498, "inst_type": "Madrasha", "district": "GAIBANDHA", "thana": "SADULLAPUR", "mauza": "KHAMAR DASALIA", "long": 89.49836, "lat": 25.41736, "serial": 4806, "isUnique": 1, "field_11": null }, "geometry": { "type": "Point", "coordinates": [ 89.49836, 25.41736 ] } },
{ "type": "Feature", "properties": { "inst name": "NALDANGA DAKHIL MADRASHA", "eiin": 121509, "inst_type": "Madrasha", "district": "GAIBANDHA", "thana": "SADULLAPUR", "mauza": "KHAMAR DASALIA", "long": 89.49858, "lat": 25.4175, "serial": 4807, "isUnique": 1, "field_11": null }, "geometry": { "type": "Point", "coordinates": [ 89.49858, 25.4175 ] } },
{ "type": "Feature", "properties": { "inst name": "RASULPUR ISLAMIA DHAKIL MADRASHA", "eiin": 121502, "inst_type": "Madrasha", "district": "GAIBANDHA", "thana": "SADULLAPUR", "mauza": "RASULPUR", "long": 89.46614, "lat": 25.35442, "serial": 4808, "isUnique": 1, "field_11": null }, "geometry": { "type": "Point", "coordinates": [ 89.46614, 25.35442 ] } },
{ "type": "Feature", "properties": { "inst name": "BASANIA PARA  AYEN MALLIK  DAKHIL MADRASAH", "eiin": 121533, "inst_type": "Madrasha", "district": "GAIBANDHA", "thana": "SADULLAPUR", "mauza": "RASULPUR", "long": 89.42086, "lat": 25.43336, "serial": 4809, "isUnique": 1, "field_11": null }, "geometry": { "type": "Point", "coordinates": [ 89.42086, 25.43336 ] } },
{ "type": "Feature", "properties": { "inst name": "TARAF KAMAL ADARSH SINIOR (ALIM) MADRASHA", "eiin": 121531, "inst_type": "Madrasha", "district": "GAIBANDHA", "thana": "SADULLAPUR", "mauza": "TARAF KAMAL", "long": 89.428, "lat": 25.46453, "serial": 4810, "isUnique": 1, "field_11": null }, "geometry": { "type": "Point", "coordinates": [ 89.428, 25.46453 ] } },
{ "type": "Feature", "properties": { "inst name": "FULCHARI SENIOR ALIM MADRASHA", "eiin": 121091, "inst_type": "Madrasha", "district": "GAIBANDHA", "thana": "FULCHHARI", "mauza": "GAZARIA", "long": 89.41653, "lat": 25.43864, "serial": 4811, "isUnique": 1, "field_11": null }, "geometry": { "type": "Point", "coordinates": [ 89.41653, 25.43864 ] } },
{ "type": "Feature", "properties": { "inst name": "KANCHI PARA KHABIRIA dhakil MADRASAH", "eiin": 121088, "inst_type": "Madrasha", "district": "GAIBANDHA", "thana": "FULCHHARI", "mauza": "KANCHI PARA", "long": 89.59281, "lat": 25.18728, "serial": 4812, "isUnique": 1, "field_11": null }, "geometry": { "type": "Point", "coordinates": [ 89.59281, 25.18728 ] } },
{ "type": "Feature", "properties": { "inst name": "DAKKIN BURAIL ADARSHA DAKHIL MADRASHA", "eiin": 121090, "inst_type": "Madrasha", "district": "GAIBANDHA", "thana": "FULCHHARI", "mauza": "BURAIL", "long": 89.60011, "lat": 25.31458, "serial": 4813, "isUnique": 1, "field_11": null }, "geometry": { "type": "Point", "coordinates": [ 89.60011, 25.31458 ] } },
{ "type": "Feature", "properties": { "inst name": "CHIKIRPATAL RAHAMANIA DAKHIL MADRASAH", "eiin": 121092, "inst_type": "Madrasha", "district": "GAIBANDHA", "thana": "FULCHHARI", "mauza": "KALASONA", "long": 89.57581, "lat": 25.25053, "serial": 4814, "isUnique": 1, "field_11": null }, "geometry": { "type": "Point", "coordinates": [ 89.57581, 25.25053 ] } },
{ "type": "Feature", "properties": { "inst name": "RATANPUR RAHMANIA DAKHIL MADRASHA", "eiin": 121093, "inst_type": "Madrasha", "district": "GAIBANDHA", "thana": "FULCHHARI", "mauza": "RATANPUR", "long": 89.57906, "lat": 25.27283, "serial": 4815, "isUnique": 1, "field_11": null }, "geometry": { "type": "Point", "coordinates": [ 89.57906, 25.27283 ] } },
{ "type": "Feature", "properties": { "inst name": "TENGRA KANDI M A SABUR DAKHIL MADRASHA", "eiin": 121089, "inst_type": "Madrasha", "district": "GAIBANDHA", "thana": "FULCHHARI", "mauza": "TENGRAKANDI", "long": 89.57192, "lat": 25.25114, "serial": 4816, "isUnique": 1, "field_11": null }, "geometry": { "type": "Point", "coordinates": [ 89.57192, 25.25114 ] } },
{ "type": "Feature", "properties": { "inst name": "KHATIAMARI NAZATIA DHAKIL MADRASAH", "eiin": 121087, "inst_type": "Madrasha", "district": "GAIBANDHA", "thana": "FULCHHARI", "mauza": "KHATIAMARI", "long": 89.60339, "lat": 25.2585, "serial": 4817, "isUnique": 1, "field_11": null }, "geometry": { "type": "Point", "coordinates": [ 89.60339, 25.2585 ] } },
{ "type": "Feature", "properties": { "inst name": "CHITHULIA DIGHAR MUHIYA SUNNAH ALIM MADRASH", "eiin": 121173, "inst_type": "Madrasha", "district": "GAIBANDHA", "thana": "GAIBANDHA SADAR", "mauza": "CHITHALIA DIGAR", "long": 89.59883, "lat": 25.252, "serial": 4818, "isUnique": 1, "field_11": null }, "geometry": { "type": "Point", "coordinates": [ 89.59883, 25.252 ] } },
{ "type": "Feature", "properties": { "inst name": "BONAR PARA M U ALIM MADRASHA", "eiin": 121592, "inst_type": "Madrasha", "district": "GAIBANDHA", "thana": "SAGHATA", "mauza": "SHIMULTARI (UZ.H.Q.)", "long": 89.56653, "lat": 25.21492, "serial": 4819, "isUnique": 1, "field_11": null }, "geometry": { "type": "Point", "coordinates": [ 89.56653, 25.21492 ] } },
{ "type": "Feature", "properties": { "inst name": "CHINIR POTAL MOHILA DAKHIL MADRASAH", "eiin": 121607, "inst_type": "Madrasha", "district": "GAIBANDHA", "thana": "SAGHATA", "mauza": "CHINIRPATAL", "long": 89.57167, "lat": 25.12175, "serial": 4820, "isUnique": 1, "field_11": null }, "geometry": { "type": "Point", "coordinates": [ 89.57167, 25.12175 ] } },
{ "type": "Feature", "properties": { "inst name": "MATHERPARA DAKHIL  MADRASAH", "eiin": 121593, "inst_type": "Madrasha", "district": "GAIBANDHA", "thana": "SAGHATA", "mauza": "MATHAR PARA", "long": 89.55494, "lat": 25.13625, "serial": 4821, "isUnique": 1, "field_11": null }, "geometry": { "type": "Point", "coordinates": [ 89.55494, 25.13625 ] } },
{ "type": "Feature", "properties": { "inst name": "GOBINDAPUR DAKHIL MADRASAH", "eiin": 121601, "inst_type": "Madrasha", "district": "GAIBANDHA", "thana": "SAGHATA", "mauza": "GOBINDAPUR", "long": 89.57094, "lat": 25.13075, "serial": 4822, "isUnique": 1, "field_11": null }, "geometry": { "type": "Point", "coordinates": [ 89.57094, 25.13075 ] } },
{ "type": "Feature", "properties": { "inst name": "KANAIPARA DAKHIL MADRASHA", "eiin": 121588, "inst_type": "Madrasha", "district": "GAIBANDHA", "thana": "SAGHATA", "mauza": "HALDIA", "long": 89.54214, "lat": 25.13383, "serial": 4823, "isUnique": 1, "field_11": null }, "geometry": { "type": "Point", "coordinates": [ 89.54214, 25.13383 ] } },
{ "type": "Feature", "properties": { "inst name": "THAIKARER PARA DAKHIL MADRASAH", "eiin": 121606, "inst_type": "Madrasha", "district": "GAIBANDHA", "thana": "SAGHATA", "mauza": "THAIKARER PARA", "long": 89.55797, "lat": 25.08272, "serial": 4824, "isUnique": 1, "field_11": null }, "geometry": { "type": "Point", "coordinates": [ 89.55797, 25.08272 ] } },
{ "type": "Feature", "properties": { "inst name": "JUMaR BARI JANGAILA DAKHIL MADRASAH", "eiin": 121599, "inst_type": "Madrasha", "district": "GAIBANDHA", "thana": "SAGHATA", "mauza": "CHAND PARA", "long": 89.56361, "lat": 25.06008, "serial": 4825, "isUnique": 1, "field_11": null }, "geometry": { "type": "Point", "coordinates": [ 89.56361, 25.06008 ] } },
{ "type": "Feature", "properties": { "inst name": "GASABARI PURBO PARA DAKHIL MADRASHA", "eiin": 131596, "inst_type": "Madrasha", "district": "GAIBANDHA", "thana": "SAGHATA", "mauza": "BURUNGI", "long": 89.51597, "lat": 25.11569, "serial": 4826, "isUnique": 1, "field_11": null }, "geometry": { "type": "Point", "coordinates": [ 89.51597, 25.11569 ] } },
{ "type": "Feature", "properties": { "inst name": "KACHUA ALIM MADRASHA", "eiin": 121595, "inst_type": "Madrasha", "district": "GAIBANDHA", "thana": "SAGHATA", "mauza": "KACHUA", "long": 89.49114, "lat": 25.15256, "serial": 4827, "isUnique": 1, "field_11": null }, "geometry": { "type": "Point", "coordinates": [ 89.49114, 25.15256 ] } },
{ "type": "Feature", "properties": { "inst name": "SATITALA DAKhIL MADRASHA", "eiin": 121596, "inst_type": "Madrasha", "district": "GAIBANDHA", "thana": "SAGHATA", "mauza": "SATITALA", "long": 89.59325, "lat": 25.13706, "serial": 4828, "isUnique": 1, "field_11": null }, "geometry": { "type": "Point", "coordinates": [ 89.59325, 25.13706 ] } },
{ "type": "Feature", "properties": { "inst name": "OSMANERPARA DAKHIL MADRASHA", "eiin": 121600, "inst_type": "Madrasha", "district": "GAIBANDHA", "thana": "SAGHATA", "mauza": "OSMANER PARA", "long": 89.53203, "lat": 25.13264, "serial": 4829, "isUnique": 1, "field_11": null }, "geometry": { "type": "Point", "coordinates": [ 89.53203, 25.13264 ] } },
{ "type": "Feature", "properties": { "inst name": "ULASONATALA AFZALUR RABBI DAKHIL MADRASHA", "eiin": 121602, "inst_type": "Madrasha", "district": "GAIBANDHA", "thana": "SAGHATA", "mauza": "ULIA SONATALA", "long": 89.53167, "lat": 25.13397, "serial": 4830, "isUnique": 1, "field_11": null }, "geometry": { "type": "Point", "coordinates": [ 89.53167, 25.13397 ] } },
{ "type": "Feature", "properties": { "inst name": "FOLIA DIGOR BOTTOLA DAKHIL MADRASAH", "eiin": 121590, "inst_type": "Madrasha", "district": "GAIBANDHA", "thana": "SAGHATA", "mauza": "PHALIA DIGAR", "long": 89.51261, "lat": 25.10028, "serial": 4831, "isUnique": 1, "field_11": null }, "geometry": { "type": "Point", "coordinates": [ 89.51261, 25.10028 ] } },
{ "type": "Feature", "properties": { "inst name": "MONGLAR PARA DAKHIL MADRASHA", "eiin": 121594, "inst_type": "Madrasha", "district": "GAIBANDHA", "thana": "SAGHATA", "mauza": "KAICHARA", "long": 89.51264, "lat": 25.11356, "serial": 4832, "isUnique": 1, "field_11": null }, "geometry": { "type": "Point", "coordinates": [ 89.51264, 25.11356 ] } },
{ "type": "Feature", "properties": { "inst name": "SUZAL PUR ADARSHA MOHILA DAKHIL MADRASAH", "eiin": 121586, "inst_type": "Madrasha", "district": "GAIBANDHA", "thana": "SAGHATA", "mauza": "SUJALPUR", "long": 89.52997, "lat": 25.12889, "serial": 4833, "isUnique": 1, "field_11": null }, "geometry": { "type": "Point", "coordinates": [ 89.52997, 25.12889 ] } },
{ "type": "Feature", "properties": { "inst name": "SHAGHATA HEAD QUARTER DR SELIMA SAYED DAKIL MADRASHA", "eiin": 121587, "inst_type": "Madrasha", "district": "GAIBANDHA", "thana": "SAGHATA", "mauza": "SAGHATA", "long": 89.55203, "lat": 25.21753, "serial": 4834, "isUnique": 2, "field_11": null }, "geometry": { "type": "Point", "coordinates": [ 89.55203, 25.21753 ] } },
{ "type": "Feature", "properties": { "inst name": "KHAMAR DHANARuHA DAKHIL MADRASHA", "eiin": 121591, "inst_type": "Madrasha", "district": "GAIBANDHA", "thana": "SAGHATA", "mauza": "KHAMAR DHANARUHA", "long": 89.58694, "lat": 25.16847, "serial": 4835, "isUnique": 1, "field_11": null }, "geometry": { "type": "Point", "coordinates": [ 89.58694, 25.16847 ] } },
{ "type": "Feature", "properties": { "inst name": "NASIR UDDIN PRODHAN DAKHIL MADRASHA", "eiin": 121598, "inst_type": "Madrasha", "district": "GAIBANDHA", "thana": "SAGHATA", "mauza": "SHYAMPUR", "long": 89.57428, "lat": 25.14822, "serial": 4836, "isUnique": 1, "field_11": null }, "geometry": { "type": "Point", "coordinates": [ 89.57428, 25.14822 ] } },
{ "type": "Feature", "properties": { "inst name": "CHACHIA MIRGONJ A.R. ASHRAFIA DAKHIL MADRASA", "eiin": 121722, "inst_type": "Madrasha", "district": "GAIBANDHA", "thana": "SUNDARGANJ", "mauza": "CHACHIA MIRGANJ (PART)", "long": 89.57375, "lat": 25.14539, "serial": 4837, "isUnique": 1, "field_11": null }, "geometry": { "type": "Point", "coordinates": [ 89.57375, 25.14539 ] } },
{ "type": "Feature", "properties": { "inst name": "CHACHIA MIRGONJ BALIKA DAKHIL MADRASA", "eiin": 121733, "inst_type": "Madrasha", "district": "GAIBANDHA", "thana": "SUNDARGANJ", "mauza": "CHACHIA MIRGANJ (PART)", "long": 89.54983, "lat": 25.16042, "serial": 4838, "isUnique": 1, "field_11": null }, "geometry": { "type": "Point", "coordinates": [ 89.54983, 25.16042 ] } },
{ "type": "Feature", "properties": { "inst name": "SUNDARGANJ SADAR bahumukhi DAKHIL MADRASHA", "eiin": 121737, "inst_type": "Madrasha", "district": "GAIBANDHA", "thana": "SUNDARGANJ", "mauza": "SUNDARGANJ (PART)", "long": 89.50625, "lat": 25.59361, "serial": 4839, "isUnique": 1, "field_11": null }, "geometry": { "type": "Point", "coordinates": [ 89.50625, 25.59361 ] } },
{ "type": "Feature", "properties": { "inst name": "SUNDAR GONJ SADAR MOHILA  DHAKIL MADRASHA", "eiin": 121751, "inst_type": "Madrasha", "district": "GAIBANDHA", "thana": "SUNDARGANJ", "mauza": "HURABHAYA KHAN (PART)", "long": 89.52117, "lat": 25.56897, "serial": 4840, "isUnique": 1, "field_11": null }, "geometry": { "type": "Point", "coordinates": [ 89.52117, 25.56897 ] } },
{ "type": "Feature", "properties": { "inst name": "BHURARGHAT M.U. BOHUMUKHI FAZIL MADRASHA", "eiin": 121703, "inst_type": "Madrasha", "district": "GAIBANDHA", "thana": "SUNDARGANJ", "mauza": "BAMANJAL (PART)", "long": 89.51114, "lat": 25.60694, "serial": 4841, "isUnique": 1, "field_11": null }, "geometry": { "type": "Point", "coordinates": [ 89.51114, 25.60694 ] } },
{ "type": "Feature", "properties": { "inst name": "DHUMAITARI SIDDIQIA FAZIL MADRASAH", "eiin": 121701, "inst_type": "Madrasha", "district": "GAIBANDHA", "thana": "SUNDARGANJ", "mauza": "DHUMAITARI (PART)", "long": 89.50981, "lat": 25.55494, "serial": 4842, "isUnique": 1, "field_11": null }, "geometry": { "type": "Point", "coordinates": [ 89.50981, 25.55494 ] } },
{ "type": "Feature", "properties": { "inst name": "FALGACHHA R.U.DAKHIL MADRASA", "eiin": 121700, "inst_type": "Madrasha", "district": "GAIBANDHA", "thana": "SUNDARGANJ", "mauza": "PHALGACHHA", "long": 89.44256, "lat": 25.58053, "serial": 4843, "isUnique": 1, "field_11": null }, "geometry": { "type": "Point", "coordinates": [ 89.44256, 25.58053 ] } },
{ "type": "Feature", "properties": { "inst name": "BAMONDANGA SARKERPARA AL-HIKMAH M. A. DAKHIL MADRASHA", "eiin": 121750, "inst_type": "Madrasha", "district": "GAIBANDHA", "thana": "SUNDARGANJ", "mauza": "TALUK PHALGACHHA", "long": 89.45636, "lat": 25.57228, "serial": 4844, "isUnique": 1, "field_11": null }, "geometry": { "type": "Point", "coordinates": [ 89.45636, 25.57228 ] } },
{ "type": "Feature", "properties": { "inst name": "MONIRAM PURBO PARA AHMMEDIA DIMOKHE DAKHIL MADRASHA", "eiin": 121731, "inst_type": "Madrasha", "district": "GAIBANDHA", "thana": "SUNDARGANJ", "mauza": "MANIRAM", "long": 89.44919, "lat": 25.56544, "serial": 4845, "isUnique": 1, "field_11": null }, "geometry": { "type": "Point", "coordinates": [ 89.44919, 25.56544 ] } },
{ "type": "Feature", "properties": { "inst name": "RAHAMANIA A.B.H. ISLAMIA DAKHIL MADRASA", "eiin": 121716, "inst_type": "Madrasha", "district": "GAIBANDHA", "thana": "SUNDARGANJ", "mauza": "RAMDHAN", "long": 89.47303, "lat": 25.57722, "serial": 4846, "isUnique": 1, "field_11": null }, "geometry": { "type": "Point", "coordinates": [ 89.47303, 25.57722 ] } },
{ "type": "Feature", "properties": { "inst name": "SATGIRI DAKHIL MADRASHA", "eiin": 121725, "inst_type": "Madrasha", "district": "GAIBANDHA", "thana": "SUNDARGANJ", "mauza": "SATGIRI", "long": 89.46139, "lat": 25.58147, "serial": 4847, "isUnique": 1, "field_11": null }, "geometry": { "type": "Point", "coordinates": [ 89.46139, 25.58147 ] } },
{ "type": "Feature", "properties": { "inst name": "BELKA BOTTALA DHAKIL MADRASHA", "eiin": 121741, "inst_type": "Madrasha", "district": "GAIBANDHA", "thana": "SUNDARGANJ", "mauza": "BELKA", "long": 89.42475, "lat": 25.56167, "serial": 4848, "isUnique": 1, "field_11": null }, "geometry": { "type": "Point", "coordinates": [ 89.42475, 25.56167 ] } },
{ "type": "Feature", "properties": { "inst name": "CHANDIPUR A.G.M. SENIOR MADRASHA", "eiin": 121717, "inst_type": "Madrasha", "district": "GAIBANDHA", "thana": "SUNDARGANJ", "mauza": "CHANDIPUR", "long": 89.58147, "lat": 25.52203, "serial": 4849, "isUnique": 1, "field_11": null }, "geometry": { "type": "Point", "coordinates": [ 89.58147, 25.52203 ] } },
{ "type": "Feature", "properties": { "inst name": "SICHA KABARATIA NASIRAN NESA DHAKIL MADRASHA", "eiin": 121726, "inst_type": "Madrasha", "district": "GAIBANDHA", "thana": "SUNDARGANJ", "mauza": "SICHA", "long": 89.63225, "lat": 25.494, "serial": 4850, "isUnique": 1, "field_11": null }, "geometry": { "type": "Point", "coordinates": [ 89.63225, 25.494 ] } },
{ "type": "Feature", "properties": { "inst name": "UZAN BOCHAGARI ELIAS KHAN M.DAKHIL MADRASHA", "eiin": 121718, "inst_type": "Madrasha", "district": "GAIBANDHA", "thana": "SUNDARGANJ", "mauza": "UJAN BOCHAGARI", "long": 89.63483, "lat": 25.50658, "serial": 4851, "isUnique": 1, "field_11": null }, "geometry": { "type": "Point", "coordinates": [ 89.63483, 25.50658 ] } },
{ "type": "Feature", "properties": { "inst name": "MORUADAHA H.M.K. DAKHIL MADRASHA", "eiin": 121707, "inst_type": "Madrasha", "district": "GAIBANDHA", "thana": "SUNDARGANJ", "mauza": "DAKSHIN MARUADAHA", "long": 89.55669, "lat": 25.47639, "serial": 4852, "isUnique": 1, "field_11": null }, "geometry": { "type": "Point", "coordinates": [ 89.55669, 25.47639 ] } },
{ "type": "Feature", "properties": { "inst name": "MORUADHA BAGANER GAHAT ADARSHA GIRLS DAKHIL MADMRASH", "eiin": 121740, "inst_type": "Madrasha", "district": "GAIBANDHA", "thana": "SUNDARGANJ", "mauza": "DAKSHIN MARUADAHA", "long": 89.54331, "lat": 25.48592, "serial": 4853, "isUnique": 1, "field_11": null }, "geometry": { "type": "Point", "coordinates": [ 89.54331, 25.48592 ] } },
{ "type": "Feature", "properties": { "inst name": "DHAPACHILA M.U. DAKHIL MADRASHA", "eiin": 121715, "inst_type": "Madrasha", "district": "GAIBANDHA", "thana": "SUNDARGANJ", "mauza": "DAKSHIN MARUADAHA", "long": 89.55706, "lat": 25.50075, "serial": 4854, "isUnique": 1, "field_11": null }, "geometry": { "type": "Point", "coordinates": [ 89.55706, 25.50075 ] } },
{ "type": "Feature", "properties": { "inst name": "SHOVA GONJ HAZY PARA ADARSHA DAKHIL MADRASA", "eiin": 121749, "inst_type": "Madrasha", "district": "GAIBANDHA", "thana": "SUNDARGANJ", "mauza": "KHAMAR PANCHGACHHI", "long": 89.55831, "lat": 25.45828, "serial": 4855, "isUnique": 1, "field_11": null }, "geometry": { "type": "Point", "coordinates": [ 89.55831, 25.45828 ] } },
{ "type": "Feature", "properties": { "inst name": "KAMAR PANCH GACHHI DAKHIL MADRASHA", "eiin": 121714, "inst_type": "Madrasha", "district": "GAIBANDHA", "thana": "SUNDARGANJ", "mauza": "KHAMAR PANCHGACHHI", "long": 89.55425, "lat": 25.49797, "serial": 4856, "isUnique": 1, "field_11": null }, "geometry": { "type": "Point", "coordinates": [ 89.55425, 25.49797 ] } },
{ "type": "Feature", "properties": { "inst name": "PURBA SAPARHATI ISLAMIA DAKHIL MADRASHA", "eiin": 121748, "inst_type": "Madrasha", "district": "GAIBANDHA", "thana": "SUNDARGANJ", "mauza": "PURBA CHHAPARHATI", "long": 89.53661, "lat": 25.48406, "serial": 4857, "isUnique": 1, "field_11": null }, "geometry": { "type": "Point", "coordinates": [ 89.53661, 25.48406 ] } },
{ "type": "Feature", "properties": { "inst name": "KUSTARY M.H DIMUKHI DAKHIL MADRASHA", "eiin": 121732, "inst_type": "Madrasha", "district": "GAIBANDHA", "thana": "SUNDARGANJ", "mauza": "PASCHIM CHHAPARHATI", "long": 89.55558, "lat": 25.48581, "serial": 4858, "isUnique": 1, "field_11": null }, "geometry": { "type": "Point", "coordinates": [ 89.55558, 25.48581 ] } },
{ "type": "Feature", "properties": { "inst name": "BAZRA HOLDIA DHAKIL MADRASHA", "eiin": 121704, "inst_type": "Madrasha", "district": "GAIBANDHA", "thana": "SUNDARGANJ", "mauza": "BAZRA HALDIA", "long": 89.51464, "lat": 25.4745, "serial": 4859, "isUnique": 1, "field_11": null }, "geometry": { "type": "Point", "coordinates": [ 89.51464, 25.4745 ] } },
{ "type": "Feature", "properties": { "inst name": "DHOPADANGA AKANDAPARA IDEAL DAKHIL MADRASAH", "eiin": 121698, "inst_type": "Madrasha", "district": "GAIBANDHA", "thana": "SUNDARGANJ", "mauza": "UTTAR DHOPADANGA", "long": 89.52772, "lat": 25.45278, "serial": 4860, "isUnique": 1, "field_11": null }, "geometry": { "type": "Point", "coordinates": [ 89.52772, 25.45278 ] } },
{ "type": "Feature", "properties": { "inst name": "NAZIMABAD ALIM  MADRASHA", "eiin": 121713, "inst_type": "Madrasha", "district": "GAIBANDHA", "thana": "SUNDARGANJ", "mauza": "LAKHIR PARA (KHORPARA", "long": 89.61086, "lat": 25.56822, "serial": 4861, "isUnique": 1, "field_11": null }, "geometry": { "type": "Point", "coordinates": [ 89.61086, 25.56822 ] } },
{ "type": "Feature", "properties": { "inst name": "BANGLA BAZAR SIDD. DAKHIL MADRASA", "eiin": 121720, "inst_type": "Madrasha", "district": "GAIBANDHA", "thana": "SUNDARGANJ", "mauza": "CHAR HARIPUR", "long": 89.60967, "lat": 25.47978, "serial": 4862, "isUnique": 1, "field_11": null }, "geometry": { "type": "Point", "coordinates": [ 89.60967, 25.47978 ] } },
{ "type": "Feature", "properties": { "inst name": "BAZRA KANCHIBARI MAZIDIA DAKHIL MADRASHA", "eiin": 121711, "inst_type": "Madrasha", "district": "GAIBANDHA", "thana": "SUNDARGANJ", "mauza": "BAJRA KANCHIBARI", "long": 89.6135, "lat": 25.56725, "serial": 4863, "isUnique": 1, "field_11": null }, "geometry": { "type": "Point", "coordinates": [ 89.6135, 25.56725 ] } },
{ "type": "Feature", "properties": { "inst name": "DHUBNI KANCHIBARI ABDUL HAFIZ DAKHIL MADRASHA", "eiin": 121738, "inst_type": "Madrasha", "district": "GAIBANDHA", "thana": "SUNDARGANJ", "mauza": "KANCHIBARI", "long": 89.61064, "lat": 25.45556, "serial": 4864, "isUnique": 1, "field_11": null }, "geometry": { "type": "Point", "coordinates": [ 89.61064, 25.45556 ] } },
{ "type": "Feature", "properties": { "inst name": "BAZARPARA KAKAI KASHDAHA DAKHIL MADRASA", "eiin": 121710, "inst_type": "Madrasha", "district": "GAIBANDHA", "thana": "SUNDARGANJ", "mauza": "BAZAR PARA", "long": 89.50781, "lat": 25.49608, "serial": 4865, "isUnique": 1, "field_11": null }, "geometry": { "type": "Point", "coordinates": [ 89.50781, 25.49608 ] } },
{ "type": "Feature", "properties": { "inst name": "NIZPARA ADARSHA ISLAMIA GIRLS DAKHIL MADRASA", "eiin": 121739, "inst_type": "Madrasha", "district": "GAIBANDHA", "thana": "SUNDARGANJ", "mauza": "RAMJIBAN", "long": 89.51547, "lat": 25.50964, "serial": 4866, "isUnique": 1, "field_11": null }, "geometry": { "type": "Point", "coordinates": [ 89.51547, 25.50964 ] } },
{ "type": "Feature", "properties": { "inst name": "RAMJIBON ISLAMIA DAKHIL MADRASHA", "eiin": 121706, "inst_type": "Madrasha", "district": "GAIBANDHA", "thana": "SUNDARGANJ", "mauza": "RAMJIBAN", "long": 89.49989, "lat": 25.50725, "serial": 4867, "isUnique": 1, "field_11": null }, "geometry": { "type": "Point", "coordinates": [ 89.49989, 25.50725 ] } },
{ "type": "Feature", "properties": { "inst name": "PANCHGACHI SANTIRAM BALIKA DAKHIL MADRASAH", "eiin": 121744, "inst_type": "Madrasha", "district": "GAIBANDHA", "thana": "SUNDARGANJ", "mauza": "PANCHGACHHI SHANTIRAM", "long": 89.56894, "lat": 25.50764, "serial": 4868, "isUnique": 1, "field_11": null }, "geometry": { "type": "Point", "coordinates": [ 89.56894, 25.50764 ] } },
{ "type": "Feature", "properties": { "inst name": "PARAN KASAR ALI DAKHIL MADRASHA", "eiin": 121728, "inst_type": "Madrasha", "district": "GAIBANDHA", "thana": "SUNDARGANJ", "mauza": "PARAN", "long": 89.57758, "lat": 25.48189, "serial": 4869, "isUnique": 1, "field_11": null }, "geometry": { "type": "Point", "coordinates": [ 89.57758, 25.48189 ] } },
{ "type": "Feature", "properties": { "inst name": "SANTIRAM DAKIL MADRASHA", "eiin": 121708, "inst_type": "Madrasha", "district": "GAIBANDHA", "thana": "SUNDARGANJ", "mauza": "SHANTIRAM", "long": 89.54197, "lat": 25.51003, "serial": 4870, "isUnique": 1, "field_11": null }, "geometry": { "type": "Point", "coordinates": [ 89.54197, 25.51003 ] } },
{ "type": "Feature", "properties": { "inst name": "AMGANJ K.T. HOSSAIN SENIOR MADRASHA", "eiin": 121721, "inst_type": "Madrasha", "district": "GAIBANDHA", "thana": "SUNDARGANJ", "mauza": "BACHH HATI", "long": 89.55339, "lat": 25.51047, "serial": 4871, "isUnique": 1, "field_11": null }, "geometry": { "type": "Point", "coordinates": [ 89.55339, 25.51047 ] } },
{ "type": "Feature", "properties": { "inst name": "AZEPARA DAKHIL MADRASAH", "eiin": 121709, "inst_type": "Madrasha", "district": "GAIBANDHA", "thana": "SUNDARGANJ", "mauza": "TALUK SAHABAJ", "long": 89.58686, "lat": 25.51269, "serial": 4872, "isUnique": 1, "field_11": null }, "geometry": { "type": "Point", "coordinates": [ 89.58686, 25.51269 ] } },
{ "type": "Feature", "properties": { "inst name": "TALUK SARBANANDA K. I. DAKHIL MADRASHA", "eiin": 121719, "inst_type": "Madrasha", "district": "GAIBANDHA", "thana": "SUNDARGANJ", "mauza": "TALUK SARBANANDA", "long": 89.47267, "lat": 25.51817, "serial": 4873, "isUnique": 1, "field_11": null }, "geometry": { "type": "Point", "coordinates": [ 89.47267, 25.51817 ] } },
{ "type": "Feature", "properties": { "inst name": "KHANBARI M.U. DAKHIL MADRASA", "eiin": 121712, "inst_type": "Madrasha", "district": "GAIBANDHA", "thana": "SUNDARGANJ", "mauza": "TALUK RAMBHADRA", "long": 89.44586, "lat": 25.50175, "serial": 4874, "isUnique": 1, "field_11": null }, "geometry": { "type": "Point", "coordinates": [ 89.44586, 25.50175 ] } },
{ "type": "Feature", "properties": { "inst name": "SONARHAT DARUL ULUM DAKHIL MADRASA", "eiin": 121705, "inst_type": "Madrasha", "district": "GAIBANDHA", "thana": "SUNDARGANJ", "mauza": "SONAROY", "long": 89.46597, "lat": 25.53694, "serial": 4875, "isUnique": 1, "field_11": null }, "geometry": { "type": "Point", "coordinates": [ 89.46597, 25.53694 ] } },
{ "type": "Feature", "properties": { "inst name": "BOALI DARUL ULUM FAZIL MADRASAH", "eiin": 121702, "inst_type": "Madrasha", "district": "GAIBANDHA", "thana": "SUNDARGANJ", "mauza": "BOALIA", "long": 89.48486, "lat": 25.56853, "serial": 4876, "isUnique": 1, "field_11": null }, "geometry": { "type": "Point", "coordinates": [ 89.48486, 25.56853 ] } },
{ "type": "Feature", "properties": { "inst name": "DAKHIN SREEPUR SAKHER BAZAR DAKHIL MADRASA", "eiin": 121743, "inst_type": "Madrasha", "district": "GAIBANDHA", "thana": "SUNDARGANJ", "mauza": "DAKSHIN SREEPUR", "long": 89.48658, "lat": 25.54961, "serial": 4877, "isUnique": 1, "field_11": null }, "geometry": { "type": "Point", "coordinates": [ 89.48658, 25.54961 ] } },
{ "type": "Feature", "properties": { "inst name": "DAKHIN SHIRIPUR KURUBADA ISLAMIA GIRLS DHAKIL MADRASHA", "eiin": 121745, "inst_type": "Madrasha", "district": "GAIBANDHA", "thana": "SUNDARGANJ", "mauza": "DAKSHIN SREEPUR", "long": 89.58483, "lat": 25.46133, "serial": 4878, "isUnique": 1, "field_11": null }, "geometry": { "type": "Point", "coordinates": [ 89.58483, 25.46133 ] } },
{ "type": "Feature", "properties": { "inst name": "DHARMAPUR MATHERHAT AL-HERA DHAKIL MADRASHA", "eiin": 121723, "inst_type": "Madrasha", "district": "GAIBANDHA", "thana": "SUNDARGANJ", "mauza": "DHARMAPUR", "long": 89.58539, "lat": 25.4615, "serial": 4879, "isUnique": 1, "field_11": null }, "geometry": { "type": "Point", "coordinates": [ 89.58539, 25.4615 ] } },
{ "type": "Feature", "properties": { "inst name": "SARA KUTI AL-WAHEDIA BL. DAKHIL MADRASAH", "eiin": 121730, "inst_type": "Madrasha", "district": "GAIBANDHA", "thana": "SUNDARGANJ", "mauza": "DHARMAPUR", "long": 89.61058, "lat": 25.42939, "serial": 4880, "isUnique": 1, "field_11": null }, "geometry": { "type": "Point", "coordinates": [ 89.61058, 25.42939 ] } },
{ "type": "Feature", "properties": { "inst name": "UTTAR SREEPUR A.SATTAR DAKHIL MADRASHA", "eiin": 121727, "inst_type": "Madrasha", "district": "GAIBANDHA", "thana": "SUNDARGANJ", "mauza": "UTTAR SREEPUR", "long": 89.60689, "lat": 25.43097, "serial": 4881, "isUnique": 1, "field_11": null }, "geometry": { "type": "Point", "coordinates": [ 89.60689, 25.43097 ] } },
{ "type": "Feature", "properties": { "inst name": "GOLAPBAG ALIM MADRASHA", "eiin": 121303, "inst_type": "Madrasha", "district": "GAIBANDHA", "thana": "GOBINDAGANJ", "mauza": "GOBINDAPUR DAKSHIN", "long": 89.51936, "lat": 25.59022, "serial": 4882, "isUnique": 1, "field_11": null }, "geometry": { "type": "Point", "coordinates": [ 89.51936, 25.59022 ] } },
{ "type": "Feature", "properties": { "inst name": "KHALSHI DAKHIL MADRASHA", "eiin": 121320, "inst_type": "Madrasha", "district": "GAIBANDHA", "thana": "GOBINDAGANJ", "mauza": "KHALSI UTTAR", "long": 89.39028, "lat": 25.15236, "serial": 4883, "isUnique": 1, "field_11": null }, "geometry": { "type": "Point", "coordinates": [ 89.39028, 25.15236 ] } },
{ "type": "Feature", "properties": { "inst name": "GOLAPBAG MOHILA DAKHIL MADRASHA", "eiin": 121330, "inst_type": "Madrasha", "district": "GAIBANDHA", "thana": "GOBINDAGANJ", "mauza": "BARDHAN KUTHI", "long": 89.38733, "lat": 25.13436, "serial": 4884, "isUnique": 1, "field_11": null }, "geometry": { "type": "Point", "coordinates": [ 89.38733, 25.13436 ] } },
{ "type": "Feature", "properties": { "inst name": "BISHU BARI DAKHIL MADRASA", "eiin": 121305, "inst_type": "Madrasha", "district": "GAIBANDHA", "thana": "GOBINDAGANJ", "mauza": "BISUBARI", "long": 89.33769, "lat": 25.20642, "serial": 4885, "isUnique": 1, "field_11": null }, "geometry": { "type": "Point", "coordinates": [ 89.33769, 25.20642 ] } },
{ "type": "Feature", "properties": { "inst name": "GOBINDA PUR MOKABBERA  B L DIMUKHI DAKHIL MADRASAH", "eiin": 121297, "inst_type": "Madrasha", "district": "GAIBANDHA", "thana": "GOBINDAGANJ", "mauza": "NALDANGA GOBINDAPUR", "long": 89.37156, "lat": 25.23761, "serial": 4886, "isUnique": 1, "field_11": null }, "geometry": { "type": "Point", "coordinates": [ 89.37156, 25.23761 ] } },
{ "type": "Feature", "properties": { "inst name": "FULBARI DHAKHIL MADRASHA", "eiin": 121333, "inst_type": "Madrasha", "district": "GAIBANDHA", "thana": "GOBINDAGANJ", "mauza": "DIGHALI PHULBARI", "long": 89.36483, "lat": 25.23583, "serial": 4887, "isUnique": 1, "field_11": null }, "geometry": { "type": "Point", "coordinates": [ 89.36483, 25.23583 ] } },
{ "type": "Feature", "properties": { "inst name": "FULPUKURIA M.U. ALIM MADRASAH", "eiin": 121298, "inst_type": "Madrasha", "district": "GAIBANDHA", "thana": "GOBINDAGANJ", "mauza": "CHAK KOCHMARI", "long": 89.39711, "lat": 25.16975, "serial": 4888, "isUnique": 1, "field_11": null }, "geometry": { "type": "Point", "coordinates": [ 89.39711, 25.16975 ] } },
{ "type": "Feature", "properties": { "inst name": "KRISNAPUR CHAYGHARIA SHAH HANNANIA DAKHIL MADRASHA", "eiin": 121311, "inst_type": "Madrasha", "district": "GAIBANDHA", "thana": "GOBINDAGANJ", "mauza": "KRISHNAPUR CHHAYGHARI", "long": 89.30933, "lat": 25.12772, "serial": 4889, "isUnique": 1, "field_11": null }, "geometry": { "type": "Point", "coordinates": [ 89.30933, 25.12772 ] } },
{ "type": "Feature", "properties": { "inst name": "SUNDARKOL HAZRAT FATIMA(R) BALIKA DAKIL MADRASHA", "eiin": 121329, "inst_type": "Madrasha", "district": "GAIBANDHA", "thana": "GOBINDAGANJ", "mauza": "SUNDARKOL", "long": 89.36433, "lat": 25.14619, "serial": 4890, "isUnique": 1, "field_11": null }, "geometry": { "type": "Point", "coordinates": [ 89.36433, 25.14619 ] } },
{ "type": "Feature", "properties": { "inst name": "BARADAH DAKHIL MADRASAH", "eiin": 121335, "inst_type": "Madrasha", "district": "GAIBANDHA", "thana": "GOBINDAGANJ", "mauza": "BARADAHA", "long": 89.46897, "lat": 25.19128, "serial": 4891, "isUnique": 1, "field_11": null }, "geometry": { "type": "Point", "coordinates": [ 89.46897, 25.19128 ] } },
{ "type": "Feature", "properties": { "inst name": "HORIPUR SHOUR VINIA DAKHIL MADRASAH", "eiin": 121313, "inst_type": "Madrasha", "district": "GAIBANDHA", "thana": "GOBINDAGANJ", "mauza": "UTTAR HARIPUR", "long": 89.46864, "lat": 25.1915, "serial": 4892, "isUnique": 1, "field_11": null }, "geometry": { "type": "Point", "coordinates": [ 89.46864, 25.1915 ] } },
{ "type": "Feature", "properties": { "inst name": "CHAND PARA  SENIOR MADRASHA", "eiin": 121289, "inst_type": "Madrasha", "district": "GAIBANDHA", "thana": "GOBINDAGANJ", "mauza": "CHAND PARA", "long": 89.48247, "lat": 25.19989, "serial": 4893, "isUnique": 1, "field_11": null }, "geometry": { "type": "Point", "coordinates": [ 89.48247, 25.19989 ] } },
{ "type": "Feature", "properties": { "inst name": "CHAPRI GONJ S. M. FAZIL MADRASAH", "eiin": 121283, "inst_type": "Madrasha", "district": "GAIBANDHA", "thana": "GOBINDAGANJ", "mauza": "KAMARDAHA", "long": 89.45339, "lat": 25.19058, "serial": 4894, "isUnique": 1, "field_11": null }, "geometry": { "type": "Point", "coordinates": [ 89.45339, 25.19058 ] } },
{ "type": "Feature", "properties": { "inst name": "MOGOLTOLY SHADAWON BALIKA DAKHIL MADRASHA", "eiin": 121315, "inst_type": "Madrasha", "district": "GAIBANDHA", "thana": "GOBINDAGANJ", "mauza": "BARNA CHANDRA SEKHAR", "long": 89.46633, "lat": 25.21239, "serial": 4895, "isUnique": 1, "field_11": null }, "geometry": { "type": "Point", "coordinates": [ 89.46633, 25.21239 ] } },
{ "type": "Feature", "properties": { "inst name": "MASTA SHAMSUL HAQ DAKHIL MADRASAH", "eiin": 121334, "inst_type": "Madrasha", "district": "GAIBANDHA", "thana": "GOBINDAGANJ", "mauza": "MASTA", "long": 89.38069, "lat": 25.09094, "serial": 4896, "isUnique": 1, "field_11": null }, "geometry": { "type": "Point", "coordinates": [ 89.38069, 25.09094 ] } },
{ "type": "Feature", "properties": { "inst name": "KAMIDIA D.U.S. ALIM MADRASAH", "eiin": 121280, "inst_type": "Madrasha", "district": "GAIBANDHA", "thana": "GOBINDAGANJ", "mauza": "KAMDIA", "long": 89.38647, "lat": 25.08914, "serial": 4897, "isUnique": 1, "field_11": null }, "geometry": { "type": "Point", "coordinates": [ 89.38647, 25.08914 ] } },
{ "type": "Feature", "properties": { "inst name": "AL-HAZ AHMAD ALI DAKHIL MADRASHA", "eiin": 121327, "inst_type": "Madrasha", "district": "GAIBANDHA", "thana": "GOBINDAGANJ", "mauza": "TEGHARA", "long": 89.38278, "lat": 25.09311, "serial": 4898, "isUnique": 1, "field_11": null }, "geometry": { "type": "Point", "coordinates": [ 89.38278, 25.09311 ] } },
{ "type": "Feature", "properties": { "inst name": "BOGDOHO ISLMIA B.L. DAKHIL MADRASAH", "eiin": 121323, "inst_type": "Madrasha", "district": "GAIBANDHA", "thana": "GOBINDAGANJ", "mauza": "BOGDAHA", "long": 89.21453, "lat": 25.20981, "serial": 4899, "isUnique": 1, "field_11": null }, "geometry": { "type": "Point", "coordinates": [ 89.21453, 25.20981 ] } },
{ "type": "Feature", "properties": { "inst name": "KATHAL BARI MOSTAFIA B.L SENIOR FAZIL MADRASHA", "eiin": 121290, "inst_type": "Madrasha", "district": "GAIBANDHA", "thana": "GOBINDAGANJ", "mauza": "KANTHALBARI", "long": 89.22483, "lat": 25.20433, "serial": 4900, "isUnique": 1, "field_11": null }, "geometry": { "type": "Point", "coordinates": [ 89.22483, 25.20433 ] } },
{ "type": "Feature", "properties": { "inst name": "NASIRABAD ADARSHA DAKHIL MADRASHA", "eiin": 121342, "inst_type": "Madrasha", "district": "GAIBANDHA", "thana": "GOBINDAGANJ", "mauza": "KATABARI", "long": 89.27592, "lat": 25.19981, "serial": 4901, "isUnique": 1, "field_11": null }, "geometry": { "type": "Point", "coordinates": [ 89.27592, 25.19981 ] } },
{ "type": "Feature", "properties": { "inst name": "AFROZA ANAR DAKHIL MADRASAH", "eiin": 121331, "inst_type": "Madrasha", "district": "GAIBANDHA", "thana": "GOBINDAGANJ", "mauza": "ARAZI SAHAPUR", "long": 89.44603, "lat": 25.17392, "serial": 4902, "isUnique": 1, "field_11": null }, "geometry": { "type": "Point", "coordinates": [ 89.44603, 25.17392 ] } },
{ "type": "Feature", "properties": { "inst name": "HARIPUR ISLAMIA DAKHIL MADRASA", "eiin": 121325, "inst_type": "Madrasha", "district": "GAIBANDHA", "thana": "GOBINDAGANJ", "mauza": "HARIPUR", "long": 89.41378, "lat": 25.09236, "serial": 4903, "isUnique": 1, "field_11": null }, "geometry": { "type": "Point", "coordinates": [ 89.41378, 25.09236 ] } },
{ "type": "Feature", "properties": { "inst name": "DHARMAPUR ISLAMIA DAKHIL MADRASHA", "eiin": 121285, "inst_type": "Madrasha", "district": "GAIBANDHA", "thana": "GOBINDAGANJ", "mauza": "DHARMAPUR", "long": 89.39992, "lat": 25.08872, "serial": 4904, "isUnique": 1, "field_11": null }, "geometry": { "type": "Point", "coordinates": [ 89.39992, 25.08872 ] } },
{ "type": "Feature", "properties": { "inst name": "JAGANNATHPUR DAKHIL MADRASHA", "eiin": 121312, "inst_type": "Madrasha", "district": "GAIBANDHA", "thana": "GOBINDAGANJ", "mauza": "JAGANNATHPUR", "long": 89.39803, "lat": 25.08883, "serial": 4905, "isUnique": 1, "field_11": null }, "geometry": { "type": "Point", "coordinates": [ 89.39803, 25.08883 ] } },
{ "type": "Feature", "properties": { "inst name": "PANCHA GRAM RAISIA DAKHIL MADRASAH", "eiin": 121304, "inst_type": "Madrasha", "district": "GAIBANDHA", "thana": "GOBINDAGANJ", "mauza": "PEPULIA", "long": 89.43431, "lat": 25.07578, "serial": 4906, "isUnique": 1, "field_11": null }, "geometry": { "type": "Point", "coordinates": [ 89.43431, 25.07578 ] } },
{ "type": "Feature", "properties": { "inst name": "BALUA TAMIZ UDDIN AHMADIA DAKHIL MADRASHA", "eiin": 121307, "inst_type": "Madrasha", "district": "GAIBANDHA", "thana": "GOBINDAGANJ", "mauza": "BALUA", "long": 89.48458, "lat": 25.13111, "serial": 4907, "isUnique": 1, "field_11": null }, "geometry": { "type": "Point", "coordinates": [ 89.48458, 25.13111 ] } },
{ "type": "Feature", "properties": { "inst name": "ALHAZ ASAB ALI KAMIL MADRASHA", "eiin": 121316, "inst_type": "Madrasha", "district": "GAIBANDHA", "thana": "GOBINDAGANJ", "mauza": "JAGADISHPUR", "long": 89.49183, "lat": 25.1035, "serial": 4908, "isUnique": 1, "field_11": null }, "geometry": { "type": "Point", "coordinates": [ 89.49183, 25.1035 ] } },
{ "type": "Feature", "properties": { "inst name": "MAHIMAGONJ KAMIL MADRASHA", "eiin": 121277, "inst_type": "Madrasha", "district": "GAIBANDHA", "thana": "GOBINDAGANJ", "mauza": "JIRAI", "long": 89.48089, "lat": 25.11186, "serial": 4909, "isUnique": 1, "field_11": null }, "geometry": { "type": "Point", "coordinates": [ 89.48089, 25.11186 ] } },
{ "type": "Feature", "properties": { "inst name": "PUNTAIR AGPARA MOHILA DHAKIL MADRASHA", "eiin": 121321, "inst_type": "Madrasha", "district": "GAIBANDHA", "thana": "GOBINDAGANJ", "mauza": "PANTAIR", "long": 89.48728, "lat": 25.10742, "serial": 4910, "isUnique": 1, "field_11": null }, "geometry": { "type": "Point", "coordinates": [ 89.48728, 25.10742 ] } },
{ "type": "Feature", "properties": { "inst name": "DUMUR GASHA SIDDKIA B\/ L DAKHIL MADRASHA", "eiin": 121301, "inst_type": "Madrasha", "district": "GAIBANDHA", "thana": "GOBINDAGANJ", "mauza": "DUMURGACHHA", "long": 89.48769, "lat": 25.11072, "serial": 4911, "isUnique": 1, "field_11": null }, "geometry": { "type": "Point", "coordinates": [ 89.48769, 25.11072 ] } },
{ "type": "Feature", "properties": { "inst name": "KHUKSHIA BL  DAKHIL MADRASHA", "eiin": 121309, "inst_type": "Madrasha", "district": "GAIBANDHA", "thana": "GOBINDAGANJ", "mauza": "KHUKSIA", "long": 89.47847, "lat": 25.10772, "serial": 4912, "isUnique": 1, "field_11": null }, "geometry": { "type": "Point", "coordinates": [ 89.47847, 25.10772 ] } },
{ "type": "Feature", "properties": { "inst name": "POGAIL B.L. DAKHIL MADRASAH", "eiin": 121300, "inst_type": "Madrasha", "district": "GAIBANDHA", "thana": "GOBINDAGANJ", "mauza": "POGAIL", "long": 89.45433, "lat": 25.21331, "serial": 4913, "isUnique": 1, "field_11": null }, "geometry": { "type": "Point", "coordinates": [ 89.45433, 25.21331 ] } },
{ "type": "Feature", "properties": { "inst name": "RAZA BIRAT B L  DAKHIL MADRASHA", "eiin": 121328, "inst_type": "Madrasha", "district": "GAIBANDHA", "thana": "GOBINDAGANJ", "mauza": "BARATTA", "long": 89.44103, "lat": 25.19825, "serial": 4914, "isUnique": 1, "field_11": null }, "geometry": { "type": "Point", "coordinates": [ 89.44103, 25.19825 ] } },
{ "type": "Feature", "properties": { "inst name": "BANESWAR BAHARUL ULUM NOMANIA DAKHIL MADRASHA", "eiin": 121286, "inst_type": "Madrasha", "district": "GAIBANDHA", "thana": "GOBINDAGANJ", "mauza": "BANESHWAR", "long": 89.24811, "lat": 25.14942, "serial": 4915, "isUnique": 1, "field_11": null }, "geometry": { "type": "Point", "coordinates": [ 89.24811, 25.14942 ] } },
{ "type": "Feature", "properties": { "inst name": "BEUR GRAM DAKHIL MADRSHA", "eiin": 121302, "inst_type": "Madrasha", "district": "GAIBANDHA", "thana": "GOBINDAGANJ", "mauza": "BEURGRAM", "long": 89.45392, "lat": 25.21094, "serial": 4916, "isUnique": 1, "field_11": null }, "geometry": { "type": "Point", "coordinates": [ 89.45392, 25.21094 ] } },
{ "type": "Feature", "properties": { "inst name": "DHANIAL LATIFIA DAKHIL MADRASHA", "eiin": 121291, "inst_type": "Madrasha", "district": "GAIBANDHA", "thana": "GOBINDAGANJ", "mauza": "DHANIAL", "long": 89.26894, "lat": 25.12053, "serial": 4917, "isUnique": 1, "field_11": null }, "geometry": { "type": "Point", "coordinates": [ 89.26894, 25.12053 ] } },
{ "type": "Feature", "properties": { "inst name": "PANITALHAT ISLAMIA DAKHIL MADRASHA", "eiin": 121278, "inst_type": "Madrasha", "district": "GAIBANDHA", "thana": "GOBINDAGANJ", "mauza": "SIHIPUR", "long": 89.28178, "lat": 25.10547, "serial": 4918, "isUnique": 2, "field_11": null }, "geometry": { "type": "Point", "coordinates": [ 89.28178, 25.10547 ] } },
{ "type": "Feature", "properties": { "inst name": "DOGHARIA DARUS SUNNAH MOZIDIA DAKHIL MADRASHA", "eiin": 121296, "inst_type": "Madrasha", "district": "GAIBANDHA", "thana": "GOBINDAGANJ", "mauza": "DOGHARIA", "long": 89.24289, "lat": 25.147, "serial": 4919, "isUnique": 1, "field_11": null }, "geometry": { "type": "Point", "coordinates": [ 89.24289, 25.147 ] } },
{ "type": "Feature", "properties": { "inst name": "CHOTO AVIRAMPUR PASCHIM PARA DAKHIL MADRASHA", "eiin": 121326, "inst_type": "Madrasha", "district": "GAIBANDHA", "thana": "GOBINDAGANJ", "mauza": "CHHOTA ABHIRAMPUR", "long": 89.29169, "lat": 25.12631, "serial": 4920, "isUnique": 1, "field_11": null }, "geometry": { "type": "Point", "coordinates": [ 89.29169, 25.12631 ] } },
{ "type": "Feature", "properties": { "inst name": "RAKHAL  BURUZE MUNSHIRHAT KERAMOTIA ALIM MADRASHA", "eiin": 121281, "inst_type": "Madrasha", "district": "GAIBANDHA", "thana": "GOBINDAGANJ", "mauza": "RAKHAL BURUZ", "long": 89.45825, "lat": 25.15086, "serial": 4921, "isUnique": 1, "field_11": null }, "geometry": { "type": "Point", "coordinates": [ 89.45825, 25.15086 ] } },
{ "type": "Feature", "properties": { "inst name": "KAZLA MOHILA DAKHIL MADRASHA", "eiin": 121337, "inst_type": "Madrasha", "district": "GAIBANDHA", "thana": "GOBINDAGANJ", "mauza": "KAJLA", "long": 89.47192, "lat": 25.15089, "serial": 4922, "isUnique": 1, "field_11": null }, "geometry": { "type": "Point", "coordinates": [ 89.47192, 25.15089 ] } },
{ "type": "Feature", "properties": { "inst name": "BAROPAIKA DAKHIL MADRASAH", "eiin": 121310, "inst_type": "Madrasha", "district": "GAIBANDHA", "thana": "GOBINDAGANJ", "mauza": "BARA PAIKA", "long": 89.45992, "lat": 25.14914, "serial": 4923, "isUnique": 1, "field_11": null }, "geometry": { "type": "Point", "coordinates": [ 89.45992, 25.14914 ] } },
{ "type": "Feature", "properties": { "inst name": "SHAKAHATI DAKHIL  MADRASHA", "eiin": 121314, "inst_type": "Madrasha", "district": "GAIBANDHA", "thana": "GOBINDAGANJ", "mauza": "SAKHAHATI", "long": 89.45569, "lat": 25.17928, "serial": 4924, "isUnique": 1, "field_11": null }, "geometry": { "type": "Point", "coordinates": [ 89.45569, 25.17928 ] } },
{ "type": "Feature", "properties": { "inst name": "SHAPMARA DARUS SALAM DAKHIL MADRASHA", "eiin": 121319, "inst_type": "Madrasha", "district": "GAIBANDHA", "thana": "GOBINDAGANJ", "mauza": "SAPMARA", "long": 89.47808, "lat": 25.07597, "serial": 4925, "isUnique": 1, "field_11": null }, "geometry": { "type": "Point", "coordinates": [ 89.47808, 25.07597 ] } },
{ "type": "Feature", "properties": { "inst name": "PONDITPUR sirajul ULUM hamidia DAKHIL MADRASHA", "eiin": 121294, "inst_type": "Madrasha", "district": "GAIBANDHA", "thana": "GOBINDAGANJ", "mauza": "PANDITPUR", "long": 89.28447, "lat": 25.16475, "serial": 4926, "isUnique": 1, "field_11": null }, "geometry": { "type": "Point", "coordinates": [ 89.28447, 25.16475 ] } },
{ "type": "Feature", "properties": { "inst name": "ALIGRAM AHAMMADIA  DAKHIL MADRASHA", "eiin": 121293, "inst_type": "Madrasha", "district": "GAIBANDHA", "thana": "GOBINDAGANJ", "mauza": "ALIGAON", "long": 89.34308, "lat": 25.16819, "serial": 4927, "isUnique": 1, "field_11": null }, "geometry": { "type": "Point", "coordinates": [ 89.34308, 25.16819 ] } },
{ "type": "Feature", "properties": { "inst name": "AYEZABAD MAZIDIA FAZIL MADRASHA", "eiin": 121295, "inst_type": "Madrasha", "district": "GAIBANDHA", "thana": "GOBINDAGANJ", "mauza": "AYABHANGI", "long": 89.30075, "lat": 25.15286, "serial": 4928, "isUnique": 1, "field_11": null }, "geometry": { "type": "Point", "coordinates": [ 89.30075, 25.15286 ] } },
{ "type": "Feature", "properties": { "inst name": "BAIRAGIRHAT BAT TALA DAKHIL MADRASHA", "eiin": 121332, "inst_type": "Madrasha", "district": "GAIBANDHA", "thana": "GOBINDAGANJ", "mauza": "BATTALA", "long": 89.27356, "lat": 25.16589, "serial": 4929, "isUnique": 1, "field_11": null }, "geometry": { "type": "Point", "coordinates": [ 89.27356, 25.16589 ] } },
{ "type": "Feature", "properties": { "inst name": "KHARITA DAKHIL MADRASHA", "eiin": 121287, "inst_type": "Madrasha", "district": "GAIBANDHA", "thana": "GOBINDAGANJ", "mauza": "HAITAR", "long": 89.26875, "lat": 25.14322, "serial": 4930, "isUnique": 1, "field_11": null }, "geometry": { "type": "Point", "coordinates": [ 89.26875, 25.14322 ] } },
{ "type": "Feature", "properties": { "inst name": "DASHLAL M.U B L.   DAKHIL MADRASHA", "eiin": 121292, "inst_type": "Madrasha", "district": "GAIBANDHA", "thana": "GOBINDAGANJ", "mauza": "DASNAL", "long": 89.20933, "lat": 25.17931, "serial": 4931, "isUnique": 1, "field_11": null }, "geometry": { "type": "Point", "coordinates": [ 89.20933, 25.17931 ] } },
{ "type": "Feature", "properties": { "inst name": "SHAHARGACHI ADARSHA  ALIM MADRASHA", "eiin": 121324, "inst_type": "Madrasha", "district": "GAIBANDHA", "thana": "GOBINDAGANJ", "mauza": "RAJAS", "long": 89.29189, "lat": 25.134, "serial": 4932, "isUnique": 1, "field_11": null }, "geometry": { "type": "Point", "coordinates": [ 89.29189, 25.134 ] } },
{ "type": "Feature", "properties": { "inst name": "SHIBPUR FOZORIA FAZIL MADRASHA", "eiin": 121284, "inst_type": "Madrasha", "district": "GAIBANDHA", "thana": "GOBINDAGANJ", "mauza": "SHIBPUR", "long": 89.25397, "lat": 25.14975, "serial": 4933, "isUnique": 1, "field_11": null }, "geometry": { "type": "Point", "coordinates": [ 89.25397, 25.14975 ] } },
{ "type": "Feature", "properties": { "inst name": "SOLAGARI EIDGHA ALIM   MADRASHA", "eiin": 121299, "inst_type": "Madrasha", "district": "GAIBANDHA", "thana": "GOBINDAGANJ", "mauza": "UTTAR SOLAGARI", "long": 89.25328, "lat": 25.15072, "serial": 4934, "isUnique": 1, "field_11": null }, "geometry": { "type": "Point", "coordinates": [ 89.25328, 25.15072 ] } },
{ "type": "Feature", "properties": { "inst name": "BAHADURPUR D.U GIRLS DAKHIL MADRASAH", "eiin": 121318, "inst_type": "Madrasha", "district": "GAIBANDHA", "thana": "GOBINDAGANJ", "mauza": "BAHADURPUR", "long": 89.42475, "lat": 25.11114, "serial": 4935, "isUnique": 1, "field_11": null }, "geometry": { "type": "Point", "coordinates": [ 89.42475, 25.11114 ] } },
{ "type": "Feature", "properties": { "inst name": "CHOTO NARICHAGARI HAMMADIA  FAZIL MADRASHA", "eiin": 121279, "inst_type": "Madrasha", "district": "GAIBANDHA", "thana": "GOBINDAGANJ", "mauza": "HHOTA NARICHAGARI", "long": 89.388, "lat": 25.18669, "serial": 4936, "isUnique": 1, "field_11": null }, "geometry": { "type": "Point", "coordinates": [ 89.388, 25.18669 ] } },
{ "type": "Feature", "properties": { "inst name": "GAIBANDHA ISLAMIA HIGH SCHOOL", "eiin": 121103, "inst_type": "School", "district": "GAIBANDHA", "thana": "GAIBANDHA SADAR", "mauza": "MADHYA PARA", "long": 88.96556, "lat": 25.64583, "serial": 14702, "isUnique": 1, "field_11": null }, "geometry": { "type": "Point", "coordinates": [ 88.96556, 25.64583 ] } },
{ "type": "Feature", "properties": { "inst name": "GAIBANDHA N H MODERN HIGH SCHOOL", "eiin": 121113, "inst_type": "School", "district": "GAIBANDHA", "thana": "GAIBANDHA SADAR", "mauza": "PURBA KAMARNAI (PART)", "long": 88.91694, "lat": 25.655, "serial": 14703, "isUnique": 1, "field_11": null }, "geometry": { "type": "Point", "coordinates": [ 88.91694, 25.655 ] } },
{ "type": "Feature", "properties": { "inst name": "KONArPARA  HIGH  SCHOOL", "eiin": 121138, "inst_type": "School", "district": "GAIBANDHA", "thana": "GAIBANDHA SADAR", "mauza": "DAKSHIN DHANGHARA", "long": 88.9075, "lat": 25.66444, "serial": 14704, "isUnique": 1, "field_11": null }, "geometry": { "type": "Point", "coordinates": [ 88.9075, 25.66444 ] } },
{ "type": "Feature", "properties": { "inst name": "POLICE LINES  HIGH SCHOOL", "eiin": 131011, "inst_type": "School", "district": "GAIBANDHA", "thana": "GAIBANDHA SADAR", "mauza": "THANSINPUR (PART)", "long": 88.92194, "lat": 25.64722, "serial": 14705, "isUnique": 1, "field_11": null }, "geometry": { "type": "Point", "coordinates": [ 88.92194, 25.64722 ] } },
{ "type": "Feature", "properties": { "inst name": "KUPTALA GIRLS HIGH SCHOOL", "eiin": 121150, "inst_type": "School", "district": "GAIBANDHA", "thana": "GAIBANDHA SADAR", "mauza": "KUPTALA", "long": 89.54619, "lat": 25.32764, "serial": 14706, "isUnique": 1, "field_11": null }, "geometry": { "type": "Point", "coordinates": [ 89.54619, 25.32764 ] } },
{ "type": "Feature", "properties": { "inst name": "RAHIMA KHATUN SIDDIKA MEMORIAL GIRLS HIGH SCHOOL", "eiin": 121158, "inst_type": "School", "district": "GAIBANDHA", "thana": "GAIBANDHA SADAR", "mauza": "CHAK BARUL", "long": 89.58622, "lat": 25.33839, "serial": 14707, "isUnique": 1, "field_11": null }, "geometry": { "type": "Point", "coordinates": [ 89.58622, 25.33839 ] } },
{ "type": "Feature", "properties": { "inst name": "PURATON BADIAKHALI HIGH SCHOOL", "eiin": 121137, "inst_type": "School", "district": "GAIBANDHA", "thana": "GAIBANDHA SADAR", "mauza": "RIFAITPUR", "long": 89.54764, "lat": 25.31878, "serial": 14708, "isUnique": 1, "field_11": null }, "geometry": { "type": "Point", "coordinates": [ 89.54764, 25.31878 ] } },
{ "type": "Feature", "properties": { "inst name": "BADIAKAHLI HIGH SCHOOL", "eiin": 121112, "inst_type": "School", "district": "GAIBANDHA", "thana": "GAIBANDHA SADAR", "mauza": "TALUK RIFAITPUR", "long": 89.54128, "lat": 25.30597, "serial": 14709, "isUnique": 1, "field_11": null }, "geometry": { "type": "Point", "coordinates": [ 89.54128, 25.30597 ] } },
{ "type": "Feature", "properties": { "inst name": "BALLAMJHAR GIRLS HIGH SCHOOL", "eiin": 121139, "inst_type": "School", "district": "GAIBANDHA", "thana": "GAIBANDHA SADAR", "mauza": "BALLAMJHAR", "long": 89.54853, "lat": 25.32058, "serial": 14710, "isUnique": 1, "field_11": null }, "geometry": { "type": "Point", "coordinates": [ 89.54853, 25.32058 ] } },
{ "type": "Feature", "properties": { "inst name": "JHINASWAR HIGH SCHOOL", "eiin": 121156, "inst_type": "School", "district": "GAIBANDHA", "thana": "GAIBANDHA SADAR", "mauza": "JINASAR", "long": 89.53758, "lat": 25.24189, "serial": 14711, "isUnique": 1, "field_11": null }, "geometry": { "type": "Point", "coordinates": [ 89.53758, 25.24189 ] } },
{ "type": "Feature", "properties": { "inst name": "GIDARAI  B.L  HIGH SCHOOL", "eiin": 121115, "inst_type": "School", "district": "GAIBANDHA", "thana": "GAIBANDHA SADAR", "mauza": "DAKSHIN GIDARI", "long": 89.55781, "lat": 25.24356, "serial": 14712, "isUnique": 2, "field_11": null }, "geometry": { "type": "Point", "coordinates": [ 89.55781, 25.24356 ] } },
{ "type": "Feature", "properties": { "inst name": "RAGHUNATHPUR M. A. HIGH SCHOOL", "eiin": 121109, "inst_type": "School", "district": "GAIBANDHA", "thana": "GAIBANDHA SADAR", "mauza": "KHOLABARI", "long": 89.54444, "lat": 25.23931, "serial": 14713, "isUnique": 1, "field_11": null }, "geometry": { "type": "Point", "coordinates": [ 89.54444, 25.23931 ] } },
{ "type": "Feature", "properties": { "inst name": "MODHYA DHANGHORA HIGH SCHOOL", "eiin": 121141, "inst_type": "School", "district": "GAIBANDHA", "thana": "GAIBANDHA SADAR", "mauza": "DHANGHARA (PART)", "long": 89.54133, "lat": 25.23447, "serial": 14714, "isUnique": 1, "field_11": null }, "geometry": { "type": "Point", "coordinates": [ 89.54133, 25.23447 ] } },
{ "type": "Feature", "properties": { "inst name": "GAIBANDHA GOVT. GIRLS HIGH SCHOOL", "eiin": 121102, "inst_type": "School", "district": "GAIBANDHA", "thana": "GAIBANDHA SADAR", "mauza": "UTTAR MASTER PARA", "long": 89.49839, "lat": 25.34753, "serial": 14715, "isUnique": 1, "field_11": null }, "geometry": { "type": "Point", "coordinates": [ 89.49839, 25.34753 ] } },
{ "type": "Feature", "properties": { "inst name": "FoLIA GIRLS HIGH SCHOOL", "eiin": 121129, "inst_type": "School", "district": "GAIBANDHA", "thana": "GAIBANDHA SADAR", "mauza": "PASCHIM BRIDGE ROAD", "long": 89.51369, "lat": 25.33383, "serial": 14716, "isUnique": 1, "field_11": null }, "geometry": { "type": "Point", "coordinates": [ 89.51369, 25.33383 ] } },
{ "type": "Feature", "properties": { "inst name": "BOALI HIGH SCHOOL", "eiin": 121157, "inst_type": "School", "district": "GAIBANDHA", "thana": "GAIBANDHA SADAR", "mauza": "BOALI", "long": 89.51197, "lat": 25.33492, "serial": 14717, "isUnique": 1, "field_11": null }, "geometry": { "type": "Point", "coordinates": [ 89.51197, 25.33492 ] } },
{ "type": "Feature", "properties": { "inst name": "SAHEB ULLAH SARKER HIGH SCHOOL", "eiin": 121148, "inst_type": "School", "district": "GAIBANDHA", "thana": "GAIBANDHA SADAR", "mauza": "THANSINPUR (PART)", "long": 89.48872, "lat": 25.34942, "serial": 14718, "isUnique": 1, "field_11": null }, "geometry": { "type": "Point", "coordinates": [ 89.48872, 25.34942 ] } },
{ "type": "Feature", "properties": { "inst name": "PEARAPUR HIGH SCHOOL", "eiin": 121106, "inst_type": "School", "district": "GAIBANDHA", "thana": "GAIBANDHA SADAR", "mauza": "PEARAPUR", "long": 89.54331, "lat": 25.3, "serial": 14719, "isUnique": 1, "field_11": null }, "geometry": { "type": "Point", "coordinates": [ 89.54331, 25.3 ] } },
{ "type": "Feature", "properties": { "inst name": "ABDUL HAI AKBAR  ALI KHAN HIGH SCHOOL", "eiin": 121143, "inst_type": "School", "district": "GAIBANDHA", "thana": "GAIBANDHA SADAR", "mauza": "MADHA GOBINDAPUR", "long": 89.54783, "lat": 25.32828, "serial": 14720, "isUnique": 1, "field_11": null }, "geometry": { "type": "Point", "coordinates": [ 89.54783, 25.32828 ] } },
{ "type": "Feature", "properties": { "inst name": "SOUTH KAMAR JANI HIGH SCHOOL", "eiin": 121114, "inst_type": "School", "district": "GAIBANDHA", "thana": "GAIBANDHA SADAR", "mauza": "PHALIA", "long": 89.56603, "lat": 25.31875, "serial": 14721, "isUnique": 1, "field_11": null }, "geometry": { "type": "Point", "coordinates": [ 89.56603, 25.31875 ] } },
{ "type": "Feature", "properties": { "inst name": "DARIAPUR AMAN ULLAH. HIGH SCHOOL", "eiin": 121111, "inst_type": "School", "district": "GAIBANDHA", "thana": "GAIBANDHA SADAR", "mauza": "DARIAPUR", "long": 89.54481, "lat": 25.27756, "serial": 14722, "isUnique": 1, "field_11": null }, "geometry": { "type": "Point", "coordinates": [ 89.54481, 25.27756 ] } },
{ "type": "Feature", "properties": { "inst name": "DARIAPUR KIAMOTHULLA MEMORIAL GIRLS HIGH SCHOOL", "eiin": 121140, "inst_type": "School", "district": "GAIBANDHA", "thana": "GAIBANDHA SADAR", "mauza": "DARIAPUR", "long": 89.56489, "lat": 25.33089, "serial": 14723, "isUnique": 1, "field_11": null }, "geometry": { "type": "Point", "coordinates": [ 89.56489, 25.33089 ] } },
{ "type": "Feature", "properties": { "inst name": "GHAGOA M.B HIGH SCHOOL", "eiin": 121118, "inst_type": "School", "district": "GAIBANDHA", "thana": "GAIBANDHA SADAR", "mauza": "UTTAR GHAGOA", "long": 89.56417, "lat": 25.32725, "serial": 14724, "isUnique": 1, "field_11": null }, "geometry": { "type": "Point", "coordinates": [ 89.56417, 25.32725 ] } },
{ "type": "Feature", "properties": { "inst name": "FAKIR PARA HIGH SCHOOL", "eiin": 121146, "inst_type": "School", "district": "GAIBANDHA", "thana": "GAIBANDHA SADAR", "mauza": "KUPTALA", "long": 89.54847, "lat": 25.31539, "serial": 14725, "isUnique": 1, "field_11": null }, "geometry": { "type": "Point", "coordinates": [ 89.54847, 25.31539 ] } },
{ "type": "Feature", "properties": { "inst name": "BAGURIA HIGH SCHOOL", "eiin": 121124, "inst_type": "School", "district": "GAIBANDHA", "thana": "GAIBANDHA SADAR", "mauza": "KISMAT FALIA", "long": 89.55056, "lat": 25.32675, "serial": 14726, "isUnique": 1, "field_11": null }, "geometry": { "type": "Point", "coordinates": [ 89.55056, 25.32675 ] } },
{ "type": "Feature", "properties": { "inst name": "UTTAR GIDRI DEE MUKHI HIGH SHCOOL", "eiin": 121155, "inst_type": "School", "district": "GAIBANDHA", "thana": "GAIBANDHA SADAR", "mauza": "UTTAR GIDARI", "long": 89.56731, "lat": 25.39056, "serial": 14727, "isUnique": 1, "field_11": null }, "geometry": { "type": "Point", "coordinates": [ 89.56731, 25.39056 ] } },
{ "type": "Feature", "properties": { "inst name": "KAMARJANI MERCHANTS HIGH SCHOOL", "eiin": 121108, "inst_type": "School", "district": "GAIBANDHA", "thana": "GAIBANDHA SADAR", "mauza": "GOGHAT", "long": 89.59481, "lat": 25.35261, "serial": 14729, "isUnique": 1, "field_11": null }, "geometry": { "type": "Point", "coordinates": [ 89.59481, 25.35261 ] } },
{ "type": "Feature", "properties": { "inst name": "KAMARJANI BANIK GIRLS HIGH SCHOOL", "eiin": 121135, "inst_type": "School", "district": "GAIBANDHA", "thana": "GAIBANDHA SADAR", "mauza": "GOGHAT", "long": 89.59789, "lat": 25.33439, "serial": 14730, "isUnique": 1, "field_11": null }, "geometry": { "type": "Point", "coordinates": [ 89.59789, 25.33439 ] } },
{ "type": "Feature", "properties": { "inst name": "KHOLAHATI HIGH SCHOOL", "eiin": 121130, "inst_type": "School", "district": "GAIBANDHA", "thana": "GAIBANDHA SADAR", "mauza": "KHOLAHATI", "long": 89.60111, "lat": 25.39083, "serial": 14731, "isUnique": 1, "field_11": null }, "geometry": { "type": "Point", "coordinates": [ 89.60111, 25.39083 ] } },
{ "type": "Feature", "properties": { "inst name": "KHOLAHATI JUNIOR GIRLS HIGH SCHOOL", "eiin": 121149, "inst_type": "School", "district": "GAIBANDHA", "thana": "GAIBANDHA SADAR", "mauza": "KHOLAHATI", "long": 89.61928, "lat": 25.35617, "serial": 14732, "isUnique": 1, "field_11": null }, "geometry": { "type": "Point", "coordinates": [ 89.61928, 25.35617 ] } },
{ "type": "Feature", "properties": { "inst name": "CHAPADAHA  BALUA  GIRLS  HIGH  SCHOOL", "eiin": 121151, "inst_type": "School", "district": "GAIBANDHA", "thana": "GAIBANDHA SADAR", "mauza": "CHAPADAHA", "long": 89.554, "lat": 25.35644, "serial": 14733, "isUnique": 1, "field_11": null }, "geometry": { "type": "Point", "coordinates": [ 89.554, 25.35644 ] } },
{ "type": "Feature", "properties": { "inst name": "JATOS DURGAPUR GIRLS HIGH SCHOOL", "eiin": 121142, "inst_type": "School", "district": "GAIBANDHA", "thana": "GAIBANDHA SADAR", "mauza": "DURGAPUR", "long": 89.53625, "lat": 25.33383, "serial": 14735, "isUnique": 1, "field_11": null }, "geometry": { "type": "Point", "coordinates": [ 89.53625, 25.33383 ] } },
{ "type": "Feature", "properties": { "inst name": "DHARMATALA  HIGH  SCHOOL", "eiin": 121154, "inst_type": "School", "district": "GAIBANDHA", "thana": "GAIBANDHA SADAR", "mauza": "KUPTALA", "long": 89.53503, "lat": 25.33436, "serial": 14736, "isUnique": 1, "field_11": null }, "geometry": { "type": "Point", "coordinates": [ 89.53503, 25.33436 ] } },
{ "type": "Feature", "properties": { "inst name": "KUPTALA ABDUL QUAYYUM HIGH SCHOOL", "eiin": 121116, "inst_type": "School", "district": "GAIBANDHA", "thana": "GAIBANDHA SADAR", "mauza": "KUPTALA", "long": 89.55061, "lat": 25.34153, "serial": 14737, "isUnique": 1, "field_11": null }, "geometry": { "type": "Point", "coordinates": [ 89.55061, 25.34153 ] } },
{ "type": "Feature", "properties": { "inst name": "CHAPADAHA  B.L  HIGH  SCHOOL", "eiin": 121107, "inst_type": "School", "district": "GAIBANDHA", "thana": "GAIBANDHA SADAR", "mauza": "CHAPADAHA", "long": 89.52842, "lat": 25.36669, "serial": 14738, "isUnique": 1, "field_11": null }, "geometry": { "type": "Point", "coordinates": [ 89.52842, 25.36669 ] } },