{
"type": "FeatureCollection",
"crs": { "type": "name", "properties": { "name": "urn:ogc:def:crs:OGC:1.3:CRS84" } },
"features": [
{ "type": "Feature", "properties": { "inst name": "GOVERNMENT NAZIMUDDIN COLLEGE", "eiin": 110785, "inst_type": "College", "district": "MADARIPUR", "thana": "MADARIPUR SADAR", "mauza": "SUKUNI (PART-1)", "long": 90.202324, "lat": 23.169006, "serial": 1247, "isUnique": 1, "field_11": null }, "geometry": { "type": "Point", "coordinates": [ 90.202324, 23.169006 ] } },
{ "type": "Feature", "properties": { "inst name": "CHAR MUGURIA COLLEGE", "eiin": 110784, "inst_type": "College", "district": "MADARIPUR", "thana": "MADARIPUR SADAR", "mauza": "KHAGDI (PART-2)", "long": 90.16848, "lat": 23.168308, "serial": 1249, "isUnique": 1, "field_11": null }, "geometry": { "type": "Point", "coordinates": [ 90.16848, 23.168308 ] } },
{ "type": "Feature", "properties": { "inst name": "SHAHID SMRITI mahavidyalaya", "eiin": 110717, "inst_type": "College", "district": "MADARIPUR", "thana": "KALKINI", "mauza": "KALAITALA", "long": 90.239769, "lat": 23.06986, "serial": 1250, "isUnique": 1, "field_11": null }, "geometry": { "type": "Point", "coordinates": [ 90.239769, 23.06986 ] } },
{ "type": "Feature", "properties": { "inst name": "KALKINI SYED ABUL HOSSAIN  COLLEGE", "eiin": 110716, "inst_type": "College", "district": "MADARIPUR", "thana": "KALKINI", "mauza": "PANGASHIA", "long": 90.81003, "lat": 23.98251, "serial": 1251, "isUnique": 1, "field_11": null }, "geometry": { "type": "Point", "coordinates": [ 90.81003, 23.98251 ] } },
{ "type": "Feature", "properties": { "inst name": "SHAHEBRAMPUR KABI NAZRUL ISLAM degree COLLEGE", "eiin": 110715, "inst_type": "College", "district": "MADARIPUR", "thana": "KALKINI", "mauza": "SAHEBRAMPUR", "long": 90.28722, "lat": 23.02695, "serial": 1252, "isUnique": 1, "field_11": null }, "geometry": { "type": "Point", "coordinates": [ 90.28722, 23.02695 ] } },
{ "type": "Feature", "properties": { "inst name": "SYED ABUL HOSSAIN COLLEGE", "eiin": 110787, "inst_type": "College", "district": "MADARIPUR", "thana": "MADARIPUR SADAR", "mauza": "CHAR KHOAJPUR", "long": 90.13838, "lat": 23.22189, "serial": 1253, "isUnique": 1, "field_11": null }, "geometry": { "type": "Point", "coordinates": [ 90.13838, 23.22189 ] } },
{ "type": "Feature", "properties": { "inst name": "BAHERA TOLA ADARSHA MAHANIDYALAYA", "eiin": 110883, "inst_type": "College", "district": "MADARIPUR", "thana": "SHIB CHAR", "mauza": "BARA BAHERATALA", "long": 90.16269, "lat": 23.30517, "serial": 1255, "isUnique": 1, "field_11": null }, "geometry": { "type": "Point", "coordinates": [ 90.16269, 23.30517 ] } },
{ "type": "Feature", "properties": { "inst name": "NURUL AMIN DEGREE COLLEGE", "eiin": 110882, "inst_type": "College", "district": "MADARIPUR", "thana": "SHIB CHAR", "mauza": "UMEDPUR", "long": 90.14239, "lat": 23.31597, "serial": 1256, "isUnique": 1, "field_11": null }, "geometry": { "type": "Point", "coordinates": [ 90.14239, 23.31597 ] } },
{ "type": "Feature", "properties": { "inst name": "ELIAS AHMED CHOWDHURY COLLEGE", "eiin": 110879, "inst_type": "College", "district": "MADARIPUR", "thana": "SHIB CHAR", "mauza": "GUPTERKANDA", "long": 90.10019, "lat": 23.31944, "serial": 1257, "isUnique": 1, "field_11": null }, "geometry": { "type": "Point", "coordinates": [ 90.10019, 23.31944 ] } },
{ "type": "Feature", "properties": { "inst name": "GOVT. BORHAMGANJ COLLEGE", "eiin": 110880, "inst_type": "College", "district": "MADARIPUR", "thana": "SHIB CHAR", "mauza": "SAMAIL", "long": 90.14844, "lat": 23.46886, "serial": 1258, "isUnique": 1, "field_11": null }, "geometry": { "type": "Point", "coordinates": [ 90.14844, 23.46886 ] } },
{ "type": "Feature", "properties": { "inst name": "RIZIA BEGUM MOHILA COLLEGE", "eiin": 110881, "inst_type": "College", "district": "MADARIPUR", "thana": "SHIB CHAR", "mauza": "GUATALA (PART)", "long": 90.16375, "lat": 23.34875, "serial": 1259, "isUnique": 1, "field_11": null }, "geometry": { "type": "Point", "coordinates": [ 90.16375, 23.34875 ] } },
{ "type": "Feature", "properties": { "inst name": "RAJOIR DEGREE COLLEGE", "eiin": 110818, "inst_type": "College", "district": "MADARIPUR", "thana": "RAJOIR", "mauza": "RAJOIR", "long": 90.17286, "lat": 23.37711, "serial": 1260, "isUnique": 1, "field_11": null }, "geometry": { "type": "Point", "coordinates": [ 90.17286, 23.37711 ] } },
{ "type": "Feature", "properties": { "inst name": "KADAMBARI UNION COLLEGE", "eiin": 110819, "inst_type": "College", "district": "MADARIPUR", "thana": "RAJOIR", "mauza": "ARUAKANDI", "long": 89.98473, "lat": 23.19998, "serial": 1261, "isUnique": 1, "field_11": null }, "geometry": { "type": "Point", "coordinates": [ 89.98473, 23.19998 ] } },
{ "type": "Feature", "properties": { "inst name": "ABCK syed abul hossain COLLEGE", "eiin": 131881, "inst_type": "College", "district": "MADARIPUR", "thana": "MADARIPUR SADAR", "mauza": "DATTA KENDUA", "long": 90.05105, "lat": 23.17451, "serial": 1262, "isUnique": 1, "field_11": null }, "geometry": { "type": "Point", "coordinates": [ 90.05105, 23.17451 ] } },
{ "type": "Feature", "properties": { "inst name": "SHEIKH HASINA ACADEMY & WOMENS COLLEGE", "eiin": 110719, "inst_type": "College", "district": "MADARIPUR", "thana": "KALKINI", "mauza": "BETBARI", "long": 90.19689, "lat": 23.07811, "serial": 1263, "isUnique": 1, "field_11": null }, "geometry": { "type": "Point", "coordinates": [ 90.19689, 23.07811 ] } },
{ "type": "Feature", "properties": { "inst name": "KALKINI FAZIL MADRASHA", "eiin": 110704, "inst_type": "Madrasha", "district": "MADARIPUR", "thana": "KALKINI", "mauza": "CHAR PANGASHIA", "long": 90.35028, "lat": 23.09036, "serial": 6615, "isUnique": 1, "field_11": null }, "geometry": { "type": "Point", "coordinates": [ 90.35028, 23.09036 ] } },
{ "type": "Feature", "properties": { "inst name": "ALIPUR DAKHIL MADRASHA", "eiin": 110698, "inst_type": "Madrasha", "district": "MADARIPUR", "thana": "KALKINI", "mauza": "ALIPUR", "long": 90.23632, "lat": 23.07259, "serial": 6616, "isUnique": 1, "field_11": null }, "geometry": { "type": "Point", "coordinates": [ 90.23632, 23.07259 ] } },
{ "type": "Feature", "properties": { "inst name": "KACHIKATA ISLAMIA DAKHIL MADRASHA", "eiin": 110708, "inst_type": "Madrasha", "district": "MADARIPUR", "thana": "KALKINI", "mauza": "SNANGHATA", "long": 90.24864, "lat": 23.07192, "serial": 6617, "isUnique": 1, "field_11": null }, "geometry": { "type": "Point", "coordinates": [ 90.24864, 23.07192 ] } },
{ "type": "Feature", "properties": { "inst name": "KHASHERHAT DAKHIL MADRASHA", "eiin": 110696, "inst_type": "Madrasha", "district": "MADARIPUR", "thana": "KALKINI", "mauza": "UTTAR CHHAYGAON", "long": 90.24423, "lat": 23.07193, "serial": 6618, "isUnique": 1, "field_11": null }, "geometry": { "type": "Point", "coordinates": [ 90.24423, 23.07193 ] } },
{ "type": "Feature", "properties": { "inst name": "KALAI SARDARER CHAR SARIATIA DAKHIL MADARASHA", "eiin": 110711, "inst_type": "Madrasha", "district": "MADARIPUR", "thana": "KALKINI", "mauza": "KALAI SARDARER CHAR", "long": 90.32953, "lat": 23.09506, "serial": 6619, "isUnique": 1, "field_11": null }, "geometry": { "type": "Point", "coordinates": [ 90.32953, 23.09506 ] } },
{ "type": "Feature", "properties": { "inst name": "ENAYET NAGAR W.D. MADRASHA", "eiin": 110695, "inst_type": "Madrasha", "district": "MADARIPUR", "thana": "KALKINI", "mauza": "ENAYETNAGAR", "long": 90.34669, "lat": 23.09119, "serial": 6620, "isUnique": 1, "field_11": null }, "geometry": { "type": "Point", "coordinates": [ 90.34669, 23.09119 ] } },
{ "type": "Feature", "properties": { "inst name": "DARICHAR LAKSMIPUR FAZIL MADRASA", "eiin": 110694, "inst_type": "Madrasha", "district": "MADARIPUR", "thana": "KALKINI", "mauza": "DARI CHAR LAKSHMIPUR", "long": 90.33895, "lat": 23.06625, "serial": 6621, "isUnique": 1, "field_11": null }, "geometry": { "type": "Point", "coordinates": [ 90.33895, 23.06625 ] } },
{ "type": "Feature", "properties": { "inst name": "SIKARMONGOL RASHIDIA ALIM  MADRASHA", "eiin": 110692, "inst_type": "Madrasha", "district": "MADARIPUR", "thana": "KALKINI", "mauza": "SHIKAR MANGAL", "long": 90.30328, "lat": 23.07753, "serial": 6622, "isUnique": 1, "field_11": null }, "geometry": { "type": "Point", "coordinates": [ 90.30328, 23.07753 ] } },
{ "type": "Feature", "properties": { "inst name": "NUTAN ANDER CHAR E.U. DAKHIL MADRASHA", "eiin": 110705, "inst_type": "Madrasha", "district": "MADARIPUR", "thana": "KALKINI", "mauza": "ANDAR CHAR", "long": 90.25234, "lat": 23.04885, "serial": 6623, "isUnique": 1, "field_11": null }, "geometry": { "type": "Point", "coordinates": [ 90.25234, 23.04885 ] } },
{ "type": "Feature", "properties": { "inst name": "KROKIR CHAR ISLAMIA GIRL'S SENIOR MADRASHA", "eiin": 110706, "inst_type": "Madrasha", "district": "MADARIPUR", "thana": "KALKINI", "mauza": "KROKIR CHAR", "long": 90.28208, "lat": 23.05759, "serial": 6624, "isUnique": 1, "field_11": null }, "geometry": { "type": "Point", "coordinates": [ 90.28208, 23.05759 ] } },
{ "type": "Feature", "properties": { "inst name": "KROKIR CHAR AKIMON NESA BALIKA DAKHIL MADRASHA", "eiin": 110707, "inst_type": "Madrasha", "district": "MADARIPUR", "thana": "KALKINI", "mauza": "KROKIR CHAR", "long": 90.24571, "lat": 23.03142, "serial": 6625, "isUnique": 1, "field_11": null }, "geometry": { "type": "Point", "coordinates": [ 90.24571, 23.03142 ] } },
{ "type": "Feature", "properties": { "inst name": "MOLLARHAT D.S.S. FAZIL MADRASHA", "eiin": 110701, "inst_type": "Madrasha", "district": "MADARIPUR", "thana": "KALKINI", "mauza": "RAMARPOL", "long": 90.28827, "lat": 23.01816, "serial": 6626, "isUnique": 1, "field_11": null }, "geometry": { "type": "Point", "coordinates": [ 90.28827, 23.01816 ] } },
{ "type": "Feature", "properties": { "inst name": "KAYARIA KERAMATIA DAKHIL MADRASAH", "eiin": 110700, "inst_type": "Madrasha", "district": "MADARIPUR", "thana": "KALKINI", "mauza": "KAYARIA", "long": 90.29699, "lat": 23.01218, "serial": 6627, "isUnique": 1, "field_11": null }, "geometry": { "type": "Point", "coordinates": [ 90.29699, 23.01218 ] } },
{ "type": "Feature", "properties": { "inst name": "DAKKHIN RAMJANPUR DAKHIL MADRASHA", "eiin": 110710, "inst_type": "Madrasha", "district": "MADARIPUR", "thana": "KALKINI", "mauza": "DAKSHIN CHAR RAMJANPUR", "long": 90.30689, "lat": 22.9899, "serial": 6628, "isUnique": 1, "field_11": null }, "geometry": { "type": "Point", "coordinates": [ 90.30689, 22.9899 ] } },
{ "type": "Feature", "properties": { "inst name": "DICRIR CHAR FAZIL b a  MADRASHA", "eiin": 110697, "inst_type": "Madrasha", "district": "MADARIPUR", "thana": "KALKINI", "mauza": "DECREER CHAR", "long": 90.28746, "lat": 22.99888, "serial": 6629, "isUnique": 1, "field_11": null }, "geometry": { "type": "Point", "coordinates": [ 90.28746, 22.99888 ] } },
{ "type": "Feature", "properties": { "inst name": "UTTAR RAMJANPUR JINNATIA HAMIDIA DAKHIL MADRASHA", "eiin": 110702, "inst_type": "Madrasha", "district": "MADARIPUR", "thana": "KALKINI", "mauza": "UTTAR CHAR RAMJANPUR", "long": 90.2668, "lat": 23.00686, "serial": 6630, "isUnique": 1, "field_11": null }, "geometry": { "type": "Point", "coordinates": [ 90.2668, 23.00686 ] } },
{ "type": "Feature", "properties": { "inst name": "UTTAR RAMJANPUR FAJIL MADRASA", "eiin": 110691, "inst_type": "Madrasha", "district": "MADARIPUR", "thana": "KALKINI", "mauza": "UTTAR CHAR RAMJANPUR", "long": 90.26834, "lat": 23.00898, "serial": 6631, "isUnique": 1, "field_11": null }, "geometry": { "type": "Point", "coordinates": [ 90.26834, 23.00898 ] } },
{ "type": "Feature", "properties": { "inst name": "ANDERCHAR MAHUDIA ISLAMIA FAZIL MADRASAH", "eiin": 110689, "inst_type": "Madrasha", "district": "MADARIPUR", "thana": "KALKINI", "mauza": "ANDAR CHAR", "long": 90.25871, "lat": 23.01836, "serial": 6632, "isUnique": 1, "field_11": null }, "geometry": { "type": "Point", "coordinates": [ 90.25871, 23.01836 ] } },
{ "type": "Feature", "properties": { "inst name": "KROKIR CHAR HAMIDA DAKHIL MADRSAHA", "eiin": 110712, "inst_type": "Madrasha", "district": "MADARIPUR", "thana": "KALKINI", "mauza": "KROKIR CHAR", "long": 90.2417, "lat": 23.01711, "serial": 6633, "isUnique": 1, "field_11": null }, "geometry": { "type": "Point", "coordinates": [ 90.2417, 23.01711 ] } },
{ "type": "Feature", "properties": { "inst name": "KALKINI GIRLS DAKHIL MADRASHA", "eiin": 110713, "inst_type": "Madrasha", "district": "MADARIPUR", "thana": "KALKINI", "mauza": "DAKSHIN KRISHNANAGAR", "long": 90.24017, "lat": 23.01825, "serial": 6634, "isUnique": 1, "field_11": null }, "geometry": { "type": "Point", "coordinates": [ 90.24017, 23.01825 ] } },
{ "type": "Feature", "properties": { "inst name": "CHAR DULAT KHAN DAKHIL MADRASAH", "eiin": 110714, "inst_type": "Madrasha", "district": "MADARIPUR", "thana": "KALKINI", "mauza": "CHAR DAULAT KHAN", "long": 90.28643, "lat": 23.02146, "serial": 6635, "isUnique": 1, "field_11": null }, "geometry": { "type": "Point", "coordinates": [ 90.28643, 23.02146 ] } },
{ "type": "Feature", "properties": { "inst name": "CHILARCHAR DAKHIL MADRASHA", "eiin": 110767, "inst_type": "Madrasha", "district": "MADARIPUR", "thana": "MADARIPUR SADAR", "mauza": "CHHILAR CHAR", "long": 90.30753, "lat": 22.97763, "serial": 6636, "isUnique": 1, "field_11": null }, "geometry": { "type": "Point", "coordinates": [ 90.30753, 22.97763 ] } },
{ "type": "Feature", "properties": { "inst name": "CHARNACHNA FAZIL MADRASAH", "eiin": 110770, "inst_type": "Madrasha", "district": "MADARIPUR", "thana": "MADARIPUR SADAR", "mauza": "CHAR NACHNA", "long": 90.11373, "lat": 23.28006, "serial": 6637, "isUnique": 1, "field_11": null }, "geometry": { "type": "Point", "coordinates": [ 90.11373, 23.28006 ] } },
{ "type": "Feature", "properties": { "inst name": "BALAIRCHAR SAMSUNNAHAR GIRLS DAKHIL MADRASAH", "eiin": 110780, "inst_type": "Madrasha", "district": "MADARIPUR", "thana": "MADARIPUR SADAR", "mauza": "BALAIR CHAR", "long": 90.14836, "lat": 23.26949, "serial": 6638, "isUnique": 1, "field_11": null }, "geometry": { "type": "Point", "coordinates": [ 90.14836, 23.26949 ] } },
{ "type": "Feature", "properties": { "inst name": "PURBOHOSNABAD HATEMIA DAKHIL MADRASAH", "eiin": 110778, "inst_type": "Madrasha", "district": "MADARIPUR", "thana": "MADARIPUR SADAR", "mauza": "KALIKAPUR", "long": 90.16355, "lat": 23.24976, "serial": 6639, "isUnique": 1, "field_11": null }, "geometry": { "type": "Point", "coordinates": [ 90.16355, 23.24976 ] } },
{ "type": "Feature", "properties": { "inst name": "KALIKAPUR ABAKHALED RASHIDIA DAKHIL MADRASHA", "eiin": 110777, "inst_type": "Madrasha", "district": "MADARIPUR", "thana": "MADARIPUR SADAR", "mauza": "KALIKAPUR", "long": 90.22497, "lat": 23.2288, "serial": 6640, "isUnique": 1, "field_11": null }, "geometry": { "type": "Point", "coordinates": [ 90.22497, 23.2288 ] } },
{ "type": "Feature", "properties": { "inst name": "DURGABORDI HAT DAKHIL MADRASAH", "eiin": 110779, "inst_type": "Madrasha", "district": "MADARIPUR", "thana": "MADARIPUR SADAR", "mauza": "HAUSDI DURGABARDI", "long": 90.18612, "lat": 23.23237, "serial": 6641, "isUnique": 1, "field_11": null }, "geometry": { "type": "Point", "coordinates": [ 90.18612, 23.23237 ] } },
{ "type": "Feature", "properties": { "inst name": "CHANDIBORDI DAKHIL MADRASAH", "eiin": 110769, "inst_type": "Madrasha", "district": "MADARIPUR", "thana": "MADARIPUR SADAR", "mauza": "CHANDIBARDI", "long": 90.19625, "lat": 23.23196, "serial": 6642, "isUnique": 1, "field_11": null }, "geometry": { "type": "Point", "coordinates": [ 90.19625, 23.23196 ] } },
{ "type": "Feature", "properties": { "inst name": "UTTAR CHAR GOBINDAPUR M. D. MADRASHA", "eiin": 110783, "inst_type": "Madrasha", "district": "MADARIPUR", "thana": "MADARIPUR SADAR", "mauza": "CHAR GOBINDAPUR", "long": 90.20131, "lat": 23.22181, "serial": 6643, "isUnique": 1, "field_11": null }, "geometry": { "type": "Point", "coordinates": [ 90.20131, 23.22181 ] } },
{ "type": "Feature", "properties": { "inst name": "CHAR GOBINDAPUR SENIOR ALIM MADRASHA", "eiin": 110773, "inst_type": "Madrasha", "district": "MADARIPUR", "thana": "MADARIPUR SADAR", "mauza": "CHAR GOBINDAPUR", "long": 90.16728, "lat": 23.2039, "serial": 6644, "isUnique": 1, "field_11": null }, "geometry": { "type": "Point", "coordinates": [ 90.16728, 23.2039 ] } },
{ "type": "Feature", "properties": { "inst name": "ZAZIRA SARDER KANDI NOORUDDIN  DAKHIL MADRASAH", "eiin": 110768, "inst_type": "Madrasha", "district": "MADARIPUR", "thana": "MADARIPUR SADAR", "mauza": "JANJIRA", "long": 90.25762, "lat": 23.1903, "serial": 6645, "isUnique": 1, "field_11": null }, "geometry": { "type": "Point", "coordinates": [ 90.25762, 23.1903 ] } },
{ "type": "Feature", "properties": { "inst name": "POSCHIM MATH ISLAMIA ALIM MADRASHA", "eiin": 110774, "inst_type": "Madrasha", "district": "MADARIPUR", "thana": "MADARIPUR SADAR", "mauza": "BAHIR CHAR SREENADI", "long": 90.21834, "lat": 23.18646, "serial": 6646, "isUnique": 1, "field_11": null }, "geometry": { "type": "Point", "coordinates": [ 90.21834, 23.18646 ] } },
{ "type": "Feature", "properties": { "inst name": "KOLCHARI ISLAMIA DAKHIL MADRASHA", "eiin": 110699, "inst_type": "Madrasha", "district": "MADARIPUR", "thana": "KALKINI", "mauza": "KOLCHARI", "long": 90.22185, "lat": 23.17195, "serial": 6647, "isUnique": 1, "field_11": null }, "geometry": { "type": "Point", "coordinates": [ 90.22185, 23.17195 ] } },
{ "type": "Feature", "properties": { "inst name": "ABU TAHER DAKHIL MADRASHA", "eiin": 110874, "inst_type": "Madrasha", "district": "MADARIPUR", "thana": "SHIB CHAR", "mauza": "GAZARIA", "long": 90.15106, "lat": 23.39986, "serial": 6650, "isUnique": 1, "field_11": null }, "geometry": { "type": "Point", "coordinates": [ 90.15106, 23.39986 ] } },
{ "type": "Feature", "properties": { "inst name": "BOHERATOLA RASHIDIA ISLAMIA DAKHIL MADRASAH", "eiin": 110871, "inst_type": "Madrasha", "district": "MADARIPUR", "thana": "SHIB CHAR", "mauza": "BARA NILAKHI", "long": 90.16531, "lat": 23.31486, "serial": 6651, "isUnique": 2, "field_11": null }, "geometry": { "type": "Point", "coordinates": [ 90.16531, 23.31486 ] } },
{ "type": "Feature", "properties": { "inst name": "UTRAIL MOHILA DAKHIL MADRASHA", "eiin": 110862, "inst_type": "Madrasha", "district": "MADARIPUR", "thana": "SHIB CHAR", "mauza": "UTRAIL", "long": 90.22303, "lat": 23.32697, "serial": 6652, "isUnique": 1, "field_11": null }, "geometry": { "type": "Point", "coordinates": [ 90.22303, 23.32697 ] } },
{ "type": "Feature", "properties": { "inst name": "UTRAIL DAKHIL MADRASHA", "eiin": 110863, "inst_type": "Madrasha", "district": "MADARIPUR", "thana": "SHIB CHAR", "mauza": "UTRAIL", "long": 90.21089, "lat": 23.32828, "serial": 6653, "isUnique": 1, "field_11": null }, "geometry": { "type": "Point", "coordinates": [ 90.21089, 23.32828 ] } },
{ "type": "Feature", "properties": { "inst name": "AL-JAMEATUL ISLAMIA DAKHIL MADRASAH", "eiin": 110870, "inst_type": "Madrasha", "district": "MADARIPUR", "thana": "SHIB CHAR", "mauza": "RAJAR CHAR BANDARKHOL", "long": 90.09494, "lat": 23.37147, "serial": 6654, "isUnique": 1, "field_11": null }, "geometry": { "type": "Point", "coordinates": [ 90.09494, 23.37147 ] } },
{ "type": "Feature", "properties": { "inst name": "EAST KUTUBPUR HATEMIA DAKHIL MADRASAH", "eiin": 110876, "inst_type": "Madrasha", "district": "MADARIPUR", "thana": "SHIB CHAR", "mauza": "KUTUBPUR", "long": 90.11083, "lat": 23.43633, "serial": 6655, "isUnique": 1, "field_11": null }, "geometry": { "type": "Point", "coordinates": [ 90.11083, 23.43633 ] } },
{ "type": "Feature", "properties": { "inst name": "KUTUBPUR SHAMSIA DAKHIL MADRASHA", "eiin": 110864, "inst_type": "Madrasha", "district": "MADARIPUR", "thana": "SHIB CHAR", "mauza": "MUNSHI KADERPUR", "long": 90.11917, "lat": 23.42339, "serial": 6656, "isUnique": 1, "field_11": null }, "geometry": { "type": "Point", "coordinates": [ 90.11917, 23.42339 ] } },
{ "type": "Feature", "properties": { "inst name": "MUNSHI KADERPUR AMINIA AMJADIA SENIOR MADRASAH", "eiin": 110867, "inst_type": "Madrasha", "district": "MADARIPUR", "thana": "SHIB CHAR", "mauza": "MUNSHI KADERPUR", "long": 90.24247, "lat": 23.38792, "serial": 6657, "isUnique": 1, "field_11": null }, "geometry": { "type": "Point", "coordinates": [ 90.24247, 23.38792 ] } },
{ "type": "Feature", "properties": { "inst name": "PURBO KHAS FAKIR KANDI RAHMANIA DAKHIL MADRASHA", "eiin": 110877, "inst_type": "Madrasha", "district": "MADARIPUR", "thana": "SHIB CHAR", "mauza": "PURBA KHAS BANDARKHOLA", "long": 90.22908, "lat": 23.41675, "serial": 6658, "isUnique": 1, "field_11": null }, "geometry": { "type": "Point", "coordinates": [ 90.22908, 23.41675 ] } },
{ "type": "Feature", "properties": { "inst name": "CHARJANAJAT M.S. DAKHIL MADRASAH", "eiin": 110872, "inst_type": "Madrasha", "district": "MADARIPUR", "thana": "SHIB CHAR", "mauza": "UTTAR CHAR JANAJAT", "long": 90.20781, "lat": 23.41011, "serial": 6659, "isUnique": 1, "field_11": null }, "geometry": { "type": "Point", "coordinates": [ 90.20781, 23.41011 ] } },
{ "type": "Feature", "properties": { "inst name": "AL BITUL MAMUR ALIM MADRASAH AND B. M. COLLEGE", "eiin": 110875, "inst_type": "Madrasha", "district": "MADARIPUR", "thana": "SHIB CHAR", "mauza": "GUATALA (PART)", "long": 90.13244, "lat": 23.33017, "serial": 6660, "isUnique": 1, "field_11": null }, "geometry": { "type": "Point", "coordinates": [ 90.13244, 23.33017 ] } },
{ "type": "Feature", "properties": { "inst name": "BAHADURPUR SHARIAIA KAMIL MADRASA", "eiin": 110866, "inst_type": "Madrasha", "district": "MADARIPUR", "thana": "SHIB CHAR", "mauza": "BARA BAHADURPUR", "long": 90.13869, "lat": 23.46344, "serial": 6661, "isUnique": 1, "field_11": null }, "geometry": { "type": "Point", "coordinates": [ 90.13869, 23.46344 ] } },
{ "type": "Feature", "properties": { "inst name": "VANDARI KANDI FAZLUL ULUM DAKHIL MADRASAH", "eiin": 110873, "inst_type": "Madrasha", "district": "MADARIPUR", "thana": "SHIB CHAR", "mauza": "CHAR BHADRASAN", "long": 90.18658, "lat": 23.45136, "serial": 6662, "isUnique": 1, "field_11": null }, "geometry": { "type": "Point", "coordinates": [ 90.18658, 23.45136 ] } },
{ "type": "Feature", "properties": { "inst name": "TAKERHAT AL HERA MOHILA DAKHIL MADRASAH", "eiin": 110815, "inst_type": "Madrasha", "district": "MADARIPUR", "thana": "RAJOIR", "mauza": "HRIDAYNANDI", "long": 89.97871, "lat": 23.12374, "serial": 6663, "isUnique": 1, "field_11": null }, "geometry": { "type": "Point", "coordinates": [ 89.97871, 23.12374 ] } },
{ "type": "Feature", "properties": { "inst name": "SARMONGAL TAKERHAT RASHIDIA FAZIL MADRASHA", "eiin": 110812, "inst_type": "Madrasha", "district": "MADARIPUR", "thana": "RAJOIR", "mauza": "NASIPUR", "long": 89.96126, "lat": 23.13077, "serial": 6664, "isUnique": 1, "field_11": null }, "geometry": { "type": "Point", "coordinates": [ 89.96126, 23.13077 ] } },
{ "type": "Feature", "properties": { "inst name": "KASIMPUR  HOSSANIA  ALIM MADRASA", "eiin": 110814, "inst_type": "Madrasha", "district": "MADARIPUR", "thana": "RAJOIR", "mauza": "PAIK PARA", "long": 89.9647, "lat": 23.13888, "serial": 6665, "isUnique": 1, "field_11": null }, "geometry": { "type": "Point", "coordinates": [ 89.9647, 23.13888 ] } },
{ "type": "Feature", "properties": { "inst name": "BIDDANANDI  HOSSAINPUR  DAKHIL MADRASA", "eiin": 110816, "inst_type": "Madrasha", "district": "MADARIPUR", "thana": "RAJOIR", "mauza": "DAKSHIN BIDYANANDI", "long": 90.02349, "lat": 23.22867, "serial": 6666, "isUnique": 1, "field_11": null }, "geometry": { "type": "Point", "coordinates": [ 90.02349, 23.22867 ] } },
{ "type": "Feature", "properties": { "inst name": "RASTI AHAMADIA  DAKHIL MADRASAH", "eiin": 110766, "inst_type": "Madrasha", "district": "MADARIPUR", "thana": "MADARIPUR SADAR", "mauza": "RASTI", "long": 90.10289, "lat": 23.19381, "serial": 6668, "isUnique": 1, "field_11": null }, "geometry": { "type": "Point", "coordinates": [ 90.10289, 23.19381 ] } },
{ "type": "Feature", "properties": { "inst name": "MADARIPUR AHMADIA KAMIL MADRASHA", "eiin": 110775, "inst_type": "Madrasha", "district": "MADARIPUR", "thana": "MADARIPUR SADAR", "mauza": "PURAN BAZAR", "long": 90.23092, "lat": 23.15694, "serial": 6669, "isUnique": 1, "field_11": null }, "geometry": { "type": "Point", "coordinates": [ 90.23092, 23.15694 ] } },
{ "type": "Feature", "properties": { "inst name": "DHAKHINPARA NESRIA SENIOR MADRASA", "eiin": 110771, "inst_type": "Madrasha", "district": "MADARIPUR", "thana": "MADARIPUR SADAR", "mauza": "KUNIA BHARUA PARA", "long": 90.2085, "lat": 23.17436, "serial": 6670, "isUnique": 1, "field_11": null }, "geometry": { "type": "Point", "coordinates": [ 90.2085, 23.17436 ] } },
{ "type": "Feature", "properties": { "inst name": "ASHAPAT DAKHIL MADRASHA", "eiin": 110782, "inst_type": "Madrasha", "district": "MADARIPUR", "thana": "MADARIPUR SADAR", "mauza": "ASAPAT", "long": 90.18475, "lat": 23.16117, "serial": 6671, "isUnique": 1, "field_11": null }, "geometry": { "type": "Point", "coordinates": [ 90.18475, 23.16117 ] } },
{ "type": "Feature", "properties": { "inst name": "BARAIL BARI SULTANIA ALIM MADRASHA", "eiin": 110765, "inst_type": "Madrasha", "district": "MADARIPUR", "thana": "MADARIPUR SADAR", "mauza": "ADAMPUR", "long": 90.10186, "lat": 23.14444, "serial": 6672, "isUnique": 1, "field_11": null }, "geometry": { "type": "Point", "coordinates": [ 90.10186, 23.14444 ] } },
{ "type": "Feature", "properties": { "inst name": "BOTLA ISLAMIA DAKHIL MADRASHA", "eiin": 110709, "inst_type": "Madrasha", "district": "MADARIPUR", "thana": "KALKINI", "mauza": "PURBA BOTLA", "long": 90.13606, "lat": 23.2075, "serial": 6673, "isUnique": 1, "field_11": null }, "geometry": { "type": "Point", "coordinates": [ 90.13606, 23.2075 ] } },
{ "type": "Feature", "properties": { "inst name": "DHAJI HAMIDIA FAZIL MADRASHA", "eiin": 110690, "inst_type": "Madrasha", "district": "MADARIPUR", "thana": "KALKINI", "mauza": "DHAJI", "long": 90.20403, "lat": 23.11797, "serial": 6674, "isUnique": 1, "field_11": null }, "geometry": { "type": "Point", "coordinates": [ 90.20403, 23.11797 ] } },
{ "type": "Feature", "properties": { "inst name": "TALTALA ISLAMIA DAKHIL MADRASHA", "eiin": 110781, "inst_type": "Madrasha", "district": "MADARIPUR", "thana": "MADARIPUR SADAR", "mauza": "BRAHMANDI", "long": 90.1565, "lat": 23.05783, "serial": 6675, "isUnique": 1, "field_11": null }, "geometry": { "type": "Point", "coordinates": [ 90.1565, 23.05783 ] } },
{ "type": "Feature", "properties": { "inst name": "BANS GARI BATAMARA UNITED HIGH SCHOOL", "eiin": 110669, "inst_type": "School", "district": "MADARIPUR", "thana": "KALKINI", "mauza": "AULIR CHAR", "long": 90.51528, "lat": 23.31541, "serial": 18252, "isUnique": 1, "field_11": null }, "geometry": { "type": "Point", "coordinates": [ 90.51528, 23.31541 ] } },
{ "type": "Feature", "properties": { "inst name": "KALKINI PILOT HIGH SCHOOL", "eiin": 110646, "inst_type": "School", "district": "MADARIPUR", "thana": "KALKINI", "mauza": "CHAR BIBAGDI", "long": 90.82235, "lat": 23.98897, "serial": 18253, "isUnique": 1, "field_11": null }, "geometry": { "type": "Point", "coordinates": [ 90.82235, 23.98897 ] } },
{ "type": "Feature", "properties": { "inst name": "KALKINI PILOT GIRLS HIGH SCHOOL", "eiin": 110647, "inst_type": "School", "district": "MADARIPUR", "thana": "KALKINI", "mauza": "PANGASHIA", "long": 90.82158, "lat": 23.98358, "serial": 18254, "isUnique": 1, "field_11": null }, "geometry": { "type": "Point", "coordinates": [ 90.82158, 23.98358 ] } },
{ "type": "Feature", "properties": { "inst name": "SNANGHATA HIGH SCHOOL", "eiin": 110672, "inst_type": "School", "district": "MADARIPUR", "thana": "KALKINI", "mauza": "SNANGHATA", "long": 90.34678, "lat": 23.08324, "serial": 18255, "isUnique": 1, "field_11": null }, "geometry": { "type": "Point", "coordinates": [ 90.34678, 23.08324 ] } },
{ "type": "Feature", "properties": { "inst name": "ALIPUR HIGH SCHOOL", "eiin": 110675, "inst_type": "School", "district": "MADARIPUR", "thana": "KALKINI", "mauza": "ALIPUR", "long": 90.24533, "lat": 23.07452, "serial": 18256, "isUnique": 1, "field_11": null }, "geometry": { "type": "Point", "coordinates": [ 90.24533, 23.07452 ] } },
{ "type": "Feature", "properties": { "inst name": "MORIAM NESSA JU GIRLS SCHOOL", "eiin": 110678, "inst_type": "School", "district": "MADARIPUR", "thana": "KALKINI", "mauza": "AULIR CHAR", "long": 90.33306, "lat": 23.09732, "serial": 18257, "isUnique": 1, "field_11": null }, "geometry": { "type": "Point", "coordinates": [ 90.33306, 23.09732 ] } },
{ "type": "Feature", "properties": { "inst name": "SAMITIR HAT A K SECONDARY SCHOOL", "eiin": 110655, "inst_type": "School", "district": "MADARIPUR", "thana": "KALKINI", "mauza": "MAHARADDIR CHAR", "long": 90.33091, "lat": 23.09619, "serial": 18258, "isUnique": 1, "field_11": null }, "geometry": { "type": "Point", "coordinates": [ 90.33091, 23.09619 ] } },
{ "type": "Feature", "properties": { "inst name": "ENAYET NAGAR HIGH SCHOOL", "eiin": 110666, "inst_type": "School", "district": "MADARIPUR", "thana": "KALKINI", "mauza": "ENAYETNAGAR", "long": 90.35021, "lat": 23.09175, "serial": 18259, "isUnique": 1, "field_11": null }, "geometry": { "type": "Point", "coordinates": [ 90.35021, 23.09175 ] } },
{ "type": "Feature", "properties": { "inst name": "SHIKAR MONGAL HIGH SCHOOL", "eiin": 110644, "inst_type": "School", "district": "MADARIPUR", "thana": "KALKINI", "mauza": "CHARFATER BAHADUR", "long": 90.29899, "lat": 23.07995, "serial": 18260, "isUnique": 1, "field_11": null }, "geometry": { "type": "Point", "coordinates": [ 90.29899, 23.07995 ] } },
{ "type": "Feature", "properties": { "inst name": "MIARHAT HGH SCHOOL", "eiin": 110642, "inst_type": "School", "district": "MADARIPUR", "thana": "KALKINI", "mauza": "BHABANIPUR", "long": 90.2889, "lat": 23.08862, "serial": 18261, "isUnique": 1, "field_11": null }, "geometry": { "type": "Point", "coordinates": [ 90.2889, 23.08862 ] } },
{ "type": "Feature", "properties": { "inst name": "CHAR DAULAT KHAN SECONDARY GIRL'S SCHOOL", "eiin": 110673, "inst_type": "School", "district": "MADARIPUR", "thana": "KALKINI", "mauza": "CHAR DAULAT KHAN", "long": 90.28782, "lat": 23.08735, "serial": 18262, "isUnique": 1, "field_11": null }, "geometry": { "type": "Point", "coordinates": [ 90.28782, 23.08735 ] } },
{ "type": "Feature", "properties": { "inst name": "CHAR FATE BAHADUR M\/L HIGH SCHOOL", "eiin": 110662, "inst_type": "School", "district": "MADARIPUR", "thana": "KALKINI", "mauza": "CHAR DAULAT KHAN", "long": 90.2662, "lat": 23.08243, "serial": 18263, "isUnique": 1, "field_11": null }, "geometry": { "type": "Point", "coordinates": [ 90.2662, 23.08243 ] } },
{ "type": "Feature", "properties": { "inst name": "JURGAO HIGH SCHOOL", "eiin": 110674, "inst_type": "School", "district": "MADARIPUR", "thana": "KALKINI", "mauza": "CHAR FATEH BAHADURPUR (PART)", "long": 90.25265, "lat": 23.05027, "serial": 18264, "isUnique": 1, "field_11": null }, "geometry": { "type": "Point", "coordinates": [ 90.25265, 23.05027 ] } },
{ "type": "Feature", "properties": { "inst name": "KROKIRCHAR HIGH SCHOOL", "eiin": 110670, "inst_type": "School", "district": "MADARIPUR", "thana": "KALKINI", "mauza": "KROKIR CHAR", "long": 90.27362, "lat": 23.04215, "serial": 18265, "isUnique": 1, "field_11": null }, "geometry": { "type": "Point", "coordinates": [ 90.27362, 23.04215 ] } },
{ "type": "Feature", "properties": { "inst name": "NABARUN JUNIOR GIRLS HIGH SCHOOL", "eiin": 110679, "inst_type": "School", "district": "MADARIPUR", "thana": "KALKINI", "mauza": "ANDAR CHAR", "long": 90.27361, "lat": 23.03789, "serial": 18266, "isUnique": 1, "field_11": null }, "geometry": { "type": "Point", "coordinates": [ 90.27361, 23.03789 ] } },
{ "type": "Feature", "properties": { "inst name": "ANDER CHAR HIGH SCHOOL", "eiin": 110667, "inst_type": "School", "district": "MADARIPUR", "thana": "KALKINI", "mauza": "ANDAR CHAR", "long": 90.27803, "lat": 23.02739, "serial": 18267, "isUnique": 1, "field_11": null }, "geometry": { "type": "Point", "coordinates": [ 90.27803, 23.02739 ] } },
{ "type": "Feature", "properties": { "inst name": "SHAHEB RAMPUR M. L. HIGH SCHOOL", "eiin": 110651, "inst_type": "School", "district": "MADARIPUR", "thana": "KALKINI", "mauza": "KHUDRA CHAR", "long": 90.28353, "lat": 23.02157, "serial": 18268, "isUnique": 1, "field_11": null }, "geometry": { "type": "Point", "coordinates": [ 90.28353, 23.02157 ] } },
{ "type": "Feature", "properties": { "inst name": "SHAHEB RAMPUR HAKIMUNNESSA GIRL'SH.S.", "eiin": 110657, "inst_type": "School", "district": "MADARIPUR", "thana": "KALKINI", "mauza": "SAHEBRAMPUR", "long": 90.28567, "lat": 23.01873, "serial": 18269, "isUnique": 1, "field_11": null }, "geometry": { "type": "Point", "coordinates": [ 90.28567, 23.01873 ] } },
{ "type": "Feature", "properties": { "inst name": "S.P.S. HIGH SCHOOL AND KARIGORI COLLEGE", "eiin": 110643, "inst_type": "School", "district": "MADARIPUR", "thana": "KALKINI", "mauza": "BARA CHAR KAYARIA", "long": 90.28584, "lat": 23.02667, "serial": 18270, "isUnique": 1, "field_11": null }, "geometry": { "type": "Point", "coordinates": [ 90.28584, 23.02667 ] } },
{ "type": "Feature", "properties": { "inst name": "ALHAJ MOHABBAD ALI J.R. GIRLS SCHOOL", "eiin": 110677, "inst_type": "School", "district": "MADARIPUR", "thana": "KALKINI", "mauza": "RAMARPOL", "long": 90.28798, "lat": 23.02525, "serial": 18271, "isUnique": 1, "field_11": null }, "geometry": { "type": "Point", "coordinates": [ 90.28798, 23.02525 ] } },
{ "type": "Feature", "properties": { "inst name": "MOLLAR HAT HIGH SCHOOL", "eiin": 110664, "inst_type": "School", "district": "MADARIPUR", "thana": "KALKINI", "mauza": "RAMARPOL", "long": 90.29073, "lat": 23.0207, "serial": 18272, "isUnique": 1, "field_11": null }, "geometry": { "type": "Point", "coordinates": [ 90.29073, 23.0207 ] } },
{ "type": "Feature", "properties": { "inst name": "KAYARIA EIDGAH SECONDARY SCHOOL", "eiin": 110665, "inst_type": "School", "district": "MADARIPUR", "thana": "KALKINI", "mauza": "BARA CHAR KAYARIA", "long": 90.29236, "lat": 23.00043, "serial": 18273, "isUnique": 1, "field_11": null }, "geometry": { "type": "Point", "coordinates": [ 90.29236, 23.00043 ] } },
{ "type": "Feature", "properties": { "inst name": "RAMZAN PUR SECONDARY SCHOOL", "eiin": 110658, "inst_type": "School", "district": "MADARIPUR", "thana": "KALKINI", "mauza": "DAKSHIN CHAR RAMJANPUR", "long": 90.3098, "lat": 22.99103, "serial": 18274, "isUnique": 1, "field_11": null }, "geometry": { "type": "Point", "coordinates": [ 90.3098, 22.99103 ] } },
{ "type": "Feature", "properties": { "inst name": "ZAZIRA JUNIOR GIRLS HIGH SCHOOL", "eiin": 110653, "inst_type": "School", "district": "MADARIPUR", "thana": "KALKINI", "mauza": "DAKSHIN TAKTA", "long": 90.30993, "lat": 22.98182, "serial": 18275, "isUnique": 1, "field_11": null }, "geometry": { "type": "Point", "coordinates": [ 90.30993, 22.98182 ] } },
{ "type": "Feature", "properties": { "inst name": "MOHISHMARI GIRL'S HIGH SCHOOL", "eiin": 110648, "inst_type": "School", "district": "MADARIPUR", "thana": "KALKINI", "mauza": "DECREER CHAR", "long": 90.28593, "lat": 23.00016, "serial": 18276, "isUnique": 1, "field_11": null }, "geometry": { "type": "Point", "coordinates": [ 90.28593, 23.00016 ] } },
{ "type": "Feature", "properties": { "inst name": "UTTAR RAMJANPUR SECONDARY SCHOOL", "eiin": 110671, "inst_type": "School", "district": "MADARIPUR", "thana": "KALKINI", "mauza": "UTTAR CHAR RAMJANPUR", "long": 90.25833, "lat": 22.98717, "serial": 18277, "isUnique": 1, "field_11": null }, "geometry": { "type": "Point", "coordinates": [ 90.25833, 22.98717 ] } },
{ "type": "Feature", "properties": { "inst name": "UTTTAR RAMJANPUR JUNIOR GIRLS HIGH SCHOOL", "eiin": 110676, "inst_type": "School", "district": "MADARIPUR", "thana": "KALKINI", "mauza": "UTTAR CHAR RAMJANPUR", "long": 90.247, "lat": 22.98619, "serial": 18278, "isUnique": 1, "field_11": null }, "geometry": { "type": "Point", "coordinates": [ 90.247, 22.98619 ] } },
{ "type": "Feature", "properties": { "inst name": "ENAYET NAGAR MADHYAMIK BIDDYALAY", "eiin": 110684, "inst_type": "School", "district": "MADARIPUR", "thana": "KALKINI", "mauza": "ENAYETNAGAR", "long": 90.2512, "lat": 23.01823, "serial": 18279, "isUnique": 1, "field_11": null }, "geometry": { "type": "Point", "coordinates": [ 90.2512, 23.01823 ] } },
{ "type": "Feature", "properties": { "inst name": "kalkini syed abul hossain academy", "eiin": 110641, "inst_type": "School", "district": "MADARIPUR", "thana": "KALKINI", "mauza": "PANGASHIA", "long": 90.28771, "lat": 23.0819, "serial": 18280, "isUnique": 1, "field_11": null }, "geometry": { "type": "Point", "coordinates": [ 90.28771, 23.0819 ] } },
{ "type": "Feature", "properties": { "inst name": "GUNSI HIGH SCHOOL", "eiin": 110750, "inst_type": "School", "district": "MADARIPUR", "thana": "MADARIPUR SADAR", "mauza": "BARA GOSAIDIA", "long": 90.24226, "lat": 22.99462, "serial": 18282, "isUnique": 1, "field_11": null }, "geometry": { "type": "Point", "coordinates": [ 90.24226, 22.99462 ] } },
{ "type": "Feature", "properties": { "inst name": "DHUARIL ADARSA BIDDANIKETAN", "eiin": 110733, "inst_type": "School", "district": "MADARIPUR", "thana": "MADARIPUR SADAR", "mauza": "DHURAIL", "long": 90.29312, "lat": 23.05158, "serial": 18283, "isUnique": 1, "field_11": null }, "geometry": { "type": "Point", "coordinates": [ 90.29312, 23.05158 ] } },
{ "type": "Feature", "properties": { "inst name": "ITKHOLA BAZITPUR S.S.H. HIGH SCHOOL", "eiin": 110749, "inst_type": "School", "district": "MADARIPUR", "thana": "MADARIPUR SADAR", "mauza": "DAKSHIN BAJITPUR", "long": 90.23887, "lat": 23.06731, "serial": 18284, "isUnique": 1, "field_11": null }, "geometry": { "type": "Point", "coordinates": [ 90.23887, 23.06731 ] } },
{ "type": "Feature", "properties": { "inst name": "ENTAJUDDIN KHAN  PUBLIC HIGH SCHOOL", "eiin": 110741, "inst_type": "School", "district": "MADARIPUR", "thana": "MADARIPUR SADAR", "mauza": "PURBA RAGHURAMPUR", "long": 90.11513, "lat": 23.2736, "serial": 18285, "isUnique": 1, "field_11": null }, "geometry": { "type": "Point", "coordinates": [ 90.11513, 23.2736 ] } },
{ "type": "Feature", "properties": { "inst name": "KALIKAPUR HIGH SCHOOL", "eiin": 110734, "inst_type": "School", "district": "MADARIPUR", "thana": "MADARIPUR SADAR", "mauza": "KALIKAPUR", "long": 90.23324, "lat": 23.24654, "serial": 18286, "isUnique": 1, "field_11": null }, "geometry": { "type": "Point", "coordinates": [ 90.23324, 23.24654 ] } },
{ "type": "Feature", "properties": { "inst name": "MITHAPUR L. N. HIGH SCHOOL", "eiin": 110737, "inst_type": "School", "district": "MADARIPUR", "thana": "MADARIPUR SADAR", "mauza": "UTTAR DUDKHALI", "long": 90.19797, "lat": 23.24601, "serial": 18287, "isUnique": 1, "field_11": null }, "geometry": { "type": "Point", "coordinates": [ 90.19797, 23.24601 ] } },
{ "type": "Feature", "properties": { "inst name": "ALGI HIGH SCHOOL", "eiin": 110754, "inst_type": "School", "district": "MADARIPUR", "thana": "MADARIPUR SADAR", "mauza": "ALGI", "long": 90.20469, "lat": 23.2261, "serial": 18288, "isUnique": 1, "field_11": null }, "geometry": { "type": "Point", "coordinates": [ 90.20469, 23.2261 ] } },
{ "type": "Feature", "properties": { "inst name": "CHAR GOBINDAPUR HIGH SCHOOL", "eiin": 110738, "inst_type": "School", "district": "MADARIPUR", "thana": "MADARIPUR SADAR", "mauza": "CHAR GOBINDAPUR", "long": 90.15275, "lat": 23.22987, "serial": 18289, "isUnique": 1, "field_11": null }, "geometry": { "type": "Point", "coordinates": [ 90.15275, 23.22987 ] } },
{ "type": "Feature", "properties": { "inst name": "CHARGOBINDAPUR U.K. HIGH SCHOOL", "eiin": 110755, "inst_type": "School", "district": "MADARIPUR", "thana": "MADARIPUR SADAR", "mauza": "CHAR GOBINDAPUR", "long": 90.15802, "lat": 23.21913, "serial": 18290, "isUnique": 1, "field_11": null }, "geometry": { "type": "Point", "coordinates": [ 90.15802, 23.21913 ] } },
{ "type": "Feature", "properties": { "inst name": "KHOAZPUR TAKERHAT HIGH SCHOOL", "eiin": 110743, "inst_type": "School", "district": "MADARIPUR", "thana": "MADARIPUR SADAR", "mauza": "CHAR KHOAJPUR", "long": 90.25892, "lat": 23.20708, "serial": 18291, "isUnique": 1, "field_11": null }, "geometry": { "type": "Point", "coordinates": [ 90.25892, 23.20708 ] } },
{ "type": "Feature", "properties": { "inst name": "PANCH KHOLA MUKTISENA HIGH SCHOOL", "eiin": 110751, "inst_type": "School", "district": "MADARIPUR", "thana": "MADARIPUR SADAR", "mauza": "PANCHKHOLA", "long": 90.26501, "lat": 23.19224, "serial": 18292, "isUnique": 1, "field_11": null }, "geometry": { "type": "Point", "coordinates": [ 90.26501, 23.19224 ] } },
{ "type": "Feature", "properties": { "inst name": "DANOVAN GOVT.GIRLS HIGH SCHOOL", "eiin": 131399, "inst_type": "School", "district": "MADARIPUR", "thana": "MADARIPUR SADAR", "mauza": "CHAR MADAN ROY", "long": 90.26587, "lat": 23.19965, "serial": 18293, "isUnique": 1, "field_11": null }, "geometry": { "type": "Point", "coordinates": [ 90.26587, 23.19965 ] } },
{ "type": "Feature", "properties": { "inst name": "KHALASHIKANDI HIGH SCHOOL", "eiin": 110723, "inst_type": "School", "district": "MADARIPUR", "thana": "MADARIPUR SADAR", "mauza": "DHURAIL", "long": 90.26856, "lat": 23.17643, "serial": 18294, "isUnique": 1, "field_11": null }, "geometry": { "type": "Point", "coordinates": [ 90.26856, 23.17643 ] } },
{ "type": "Feature", "properties": { "inst name": "MADHYA HOUSDI ASMAT ALI KHAN HIGH SCHOOL", "eiin": 110747, "inst_type": "School", "district": "MADARIPUR", "thana": "MADARIPUR SADAR", "mauza": "HAUSDI PATILADI", "long": 90.21606, "lat": 23.2052, "serial": 18295, "isUnique": 1, "field_11": null }, "geometry": { "type": "Point", "coordinates": [ 90.21606, 23.2052 ] } },
{ "type": "Feature", "properties": { "inst name": "SHIBCHAR NANDAKUMAR INSTITUTION", "eiin": 110830, "inst_type": "School", "district": "MADARIPUR", "thana": "SHIB CHAR", "mauza": "GUATALA BAHER CHAR", "long": 90.10433, "lat": 23.26246, "serial": 18297, "isUnique": 1, "field_11": null }, "geometry": { "type": "Point", "coordinates": [ 90.10433, 23.26246 ] } },
{ "type": "Feature", "properties": { "inst name": "SEiKH FAZILLATUNNESA GIRTL'S HIGH SCHOOL", "eiin": 110828, "inst_type": "School", "district": "MADARIPUR", "thana": "SHIB CHAR", "mauza": "GUATALA (PART)", "long": 90.2771, "lat": 23.15742, "serial": 18298, "isUnique": 1, "field_11": null }, "geometry": { "type": "Point", "coordinates": [ 90.2771, 23.15742 ] } },
{ "type": "Feature", "properties": { "inst name": "SALEH ADORSHA HIGH SCHOOL", "eiin": 110855, "inst_type": "School", "district": "MADARIPUR", "thana": "SHIB CHAR", "mauza": "GUATALA (PART)", "long": 90.21478, "lat": 23.27017, "serial": 18299, "isUnique": 2, "field_11": null }, "geometry": { "type": "Point", "coordinates": [ 90.21478, 23.27017 ] } },
{ "type": "Feature", "properties": { "inst name": "MUNSHI KADIRPUR HIGH SCHOOL", "eiin": 110835, "inst_type": "School", "district": "MADARIPUR", "thana": "SHIB CHAR", "mauza": "MUNSHI KADERPUR", "long": 90.16311, "lat": 23.34519, "serial": 18300, "isUnique": 2, "field_11": null }, "geometry": { "type": "Point", "coordinates": [ 90.16311, 23.34519 ] } },
{ "type": "Feature", "properties": { "inst name": "PANCH CHAR HIGH SCHOOL", "eiin": 110832, "inst_type": "School", "district": "MADARIPUR", "thana": "SHIB CHAR", "mauza": "PANCH CHAR", "long": 90.20444, "lat": 23.29725, "serial": 18301, "isUnique": 1, "field_11": null }, "geometry": { "type": "Point", "coordinates": [ 90.20444, 23.29725 ] } },
{ "type": "Feature", "properties": { "inst name": "PANCHAR GIRLS HIGH SCHOOL", "eiin": 110856, "inst_type": "School", "district": "MADARIPUR", "thana": "SHIB CHAR", "mauza": "DAIAR CHAR", "long": 90.16747, "lat": 23.34694, "serial": 18302, "isUnique": 1, "field_11": null }, "geometry": { "type": "Point", "coordinates": [ 90.16747, 23.34694 ] } },
{ "type": "Feature", "properties": { "inst name": "MADBARERCHAR R.M. HIGH SCHOOL", "eiin": 110833, "inst_type": "School", "district": "MADARIPUR", "thana": "SHIB CHAR", "mauza": "DAIAR CHAR", "long": 90.16367, "lat": 23.34442, "serial": 18303, "isUnique": 1, "field_11": null }, "geometry": { "type": "Point", "coordinates": [ 90.16367, 23.34442 ] } },
{ "type": "Feature", "properties": { "inst name": "VANDARI KANDI A.M. HIGH SCHOOL", "eiin": 110837, "inst_type": "School", "district": "MADARIPUR", "thana": "SHIB CHAR", "mauza": "BHANDARIKANDI", "long": 90.16322, "lat": 23.34814, "serial": 18304, "isUnique": 1, "field_11": null }, "geometry": { "type": "Point", "coordinates": [ 90.16322, 23.34814 ] } },
{ "type": "Feature", "properties": { "inst name": "HAZI BASER MOULAVI  HIGH SCHOOL", "eiin": 110848, "inst_type": "School", "district": "MADARIPUR", "thana": "SHIB CHAR", "mauza": "GAZARIA", "long": 90.15569, "lat": 23.39906, "serial": 18305, "isUnique": 1, "field_11": null }, "geometry": { "type": "Point", "coordinates": [ 90.15569, 23.39906 ] } },
{ "type": "Feature", "properties": { "inst name": "ABDUS SATTAR IBNE HALIMA SERAJ ACADeMY", "eiin": 110824, "inst_type": "School", "district": "MADARIPUR", "thana": "SHIB CHAR", "mauza": "GAZARIA", "long": 90.16558, "lat": 23.40342, "serial": 18307, "isUnique": 1, "field_11": null }, "geometry": { "type": "Point", "coordinates": [ 90.16558, 23.40342 ] } },
{ "type": "Feature", "properties": { "inst name": "BAZITPUR HAZERA KHATUN HIGH SCHOOL", "eiin": 110846, "inst_type": "School", "district": "MADARIPUR", "thana": "SHIB CHAR", "mauza": "MIRZAR CHAR", "long": 90.16247, "lat": 23.30606, "serial": 18308, "isUnique": 2, "field_11": null }, "geometry": { "type": "Point", "coordinates": [ 90.16247, 23.30606 ] } },
{ "type": "Feature", "properties": { "inst name": "SARKARerCHAR H.A.U.P. HIGH SCHOOL", "eiin": 110839, "inst_type": "School", "district": "MADARIPUR", "thana": "SHIB CHAR", "mauza": "SARKARER CHAR", "long": 90.16247, "lat": 23.30606, "serial": 18309, "isUnique": 2, "field_11": null }, "geometry": { "type": "Point", "coordinates": [ 90.16247, 23.30606 ] } },
{ "type": "Feature", "properties": { "inst name": "BAHERaTALA GIRLS HIGH SCHOOL", "eiin": 110853, "inst_type": "School", "district": "MADARIPUR", "thana": "SHIB CHAR", "mauza": "BARA BAHERATALA", "long": 90.16531, "lat": 23.31486, "serial": 18310, "isUnique": 2, "field_11": null }, "geometry": { "type": "Point", "coordinates": [ 90.16531, 23.31486 ] } },
{ "type": "Feature", "properties": { "inst name": "TAKERHAT HIGH SCHOOL", "eiin": 110836, "inst_type": "School", "district": "MADARIPUR", "thana": "SHIB CHAR", "mauza": "GOPALPUR", "long": 90.17014, "lat": 23.28139, "serial": 18311, "isUnique": 1, "field_11": null }, "geometry": { "type": "Point", "coordinates": [ 90.17014, 23.28139 ] } },
{ "type": "Feature", "properties": { "inst name": "VADRASON G.C.ACADEMY", "eiin": 110831, "inst_type": "School", "district": "MADARIPUR", "thana": "SHIB CHAR", "mauza": "NALCHIRA", "long": 90.15078, "lat": 23.29058, "serial": 18312, "isUnique": 1, "field_11": null }, "geometry": { "type": "Point", "coordinates": [ 90.15078, 23.29058 ] } },
{ "type": "Feature", "properties": { "inst name": "UMEDPUR GIRLS HIGH SCHOOL", "eiin": 110845, "inst_type": "School", "district": "MADARIPUR", "thana": "SHIB CHAR", "mauza": "UMEDPUR", "long": 90.1385, "lat": 23.30228, "serial": 18313, "isUnique": 1, "field_11": null }, "geometry": { "type": "Point", "coordinates": [ 90.1385, 23.30228 ] } },
{ "type": "Feature", "properties": { "inst name": "UMEDPUR OZIFA RABIULLAH LYCEUM H S", "eiin": 110827, "inst_type": "School", "district": "MADARIPUR", "thana": "SHIB CHAR", "mauza": "UMEDPUR", "long": 90.13789, "lat": 23.302, "serial": 18314, "isUnique": 1, "field_11": null }, "geometry": { "type": "Point", "coordinates": [ 90.13789, 23.302 ] } },
{ "type": "Feature", "properties": { "inst name": "MANIKPUR HIGH SCHOOL", "eiin": 110841, "inst_type": "School", "district": "MADARIPUR", "thana": "SHIB CHAR", "mauza": "BARA KESHABPUR", "long": 90.14261, "lat": 23.31636, "serial": 18315, "isUnique": 1, "field_11": null }, "geometry": { "type": "Point", "coordinates": [ 90.14261, 23.31636 ] } },
{ "type": "Feature", "properties": { "inst name": "SHIRUAIL HIGH SCHOOL", "eiin": 110843, "inst_type": "School", "district": "MADARIPUR", "thana": "SHIB CHAR", "mauza": "SIRUAIL", "long": 90.21075, "lat": 23.32858, "serial": 18316, "isUnique": 1, "field_11": null }, "geometry": { "type": "Point", "coordinates": [ 90.21075, 23.32858 ] } },
{ "type": "Feature", "properties": { "inst name": "CHAR KAMAR KANDI HIGH SCHOOL", "eiin": 110844, "inst_type": "School", "district": "MADARIPUR", "thana": "SHIB CHAR", "mauza": "BARA GOSAIDIA", "long": 90.22614, "lat": 23.34403, "serial": 18317, "isUnique": 1, "field_11": null }, "geometry": { "type": "Point", "coordinates": [ 90.22614, 23.34403 ] } },
{ "type": "Feature", "properties": { "inst name": "NILOKHI BANDOR", "eiin": 110860, "inst_type": "School", "district": "MADARIPUR", "thana": "SHIB CHAR", "mauza": "PASCHIM NILAKHI", "long": 90.22981, "lat": 23.35017, "serial": 18318, "isUnique": 1, "field_11": null }, "geometry": { "type": "Point", "coordinates": [ 90.22981, 23.35017 ] } },
{ "type": "Feature", "properties": { "inst name": "SURJANAGAR MAHFUJA NISHAT GIRLS HIGH SCHOOL", "eiin": 110861, "inst_type": "School", "district": "MADARIPUR", "thana": "SHIB CHAR", "mauza": "GUPTERKANDA", "long": 90.11158, "lat": 23.34186, "serial": 18319, "isUnique": 1, "field_11": null }, "geometry": { "type": "Point", "coordinates": [ 90.11158, 23.34186 ] } },
{ "type": "Feature", "properties": { "inst name": "KAHN KANDI SYED ASHRAF ALI HIGH SCHOOL", "eiin": 110829, "inst_type": "School", "district": "MADARIPUR", "thana": "SHIB CHAR", "mauza": "KHANKANDI", "long": 90.11217, "lat": 23.33539, "serial": 18320, "isUnique": 1, "field_11": null }, "geometry": { "type": "Point", "coordinates": [ 90.11217, 23.33539 ] } },
{ "type": "Feature", "properties": { "inst name": "SIKDERHAT HIGH SCHOOL", "eiin": 110852, "inst_type": "School", "district": "MADARIPUR", "thana": "SHIB CHAR", "mauza": "BARA KHAS BANDARKHOLA", "long": 90.10633, "lat": 23.29008, "serial": 18321, "isUnique": 1, "field_11": null }, "geometry": { "type": "Point", "coordinates": [ 90.10633, 23.29008 ] } },
{ "type": "Feature", "properties": { "inst name": "RAJARCHAR HIGH SCHOOL", "eiin": 110847, "inst_type": "School", "district": "MADARIPUR", "thana": "SHIB CHAR", "mauza": "RAJAR CHAR BANDARKHOL", "long": 90.08947, "lat": 23.29925, "serial": 18322, "isUnique": 1, "field_11": null }, "geometry": { "type": "Point", "coordinates": [ 90.08947, 23.29925 ] } },
{ "type": "Feature", "properties": { "inst name": "SANNYASIR CHAR HIGH SCHOOL", "eiin": 110840, "inst_type": "School", "district": "MADARIPUR", "thana": "SHIB CHAR", "mauza": "SANNYASIR CHAR", "long": 90.15956, "lat": 23.36842, "serial": 18323, "isUnique": 1, "field_11": null }, "geometry": { "type": "Point", "coordinates": [ 90.15956, 23.36842 ] } },
{ "type": "Feature", "properties": { "inst name": "KUTUBPUR HIGH SCHOOL", "eiin": 110854, "inst_type": "School", "district": "MADARIPUR", "thana": "SHIB CHAR", "mauza": "KUTUBPUR", "long": 90.09225, "lat": 23.37058, "serial": 18324, "isUnique": 1, "field_11": null }, "geometry": { "type": "Point", "coordinates": [ 90.09225, 23.37058 ] } },
{ "type": "Feature", "properties": { "inst name": "CHAR CHANDRA HIGH SCHOOL", "eiin": 110859, "inst_type": "School", "district": "MADARIPUR", "thana": "SHIB CHAR", "mauza": "CHAR CHANDRA", "long": 90.10622, "lat": 23.4115, "serial": 18325, "isUnique": 1, "field_11": null }, "geometry": { "type": "Point", "coordinates": [ 90.10622, 23.4115 ] } },
{ "type": "Feature", "properties": { "inst name": "KATHALBARI HIGH SCHOOL", "eiin": 110838, "inst_type": "School", "district": "MADARIPUR", "thana": "SHIB CHAR", "mauza": "BAGHIA", "long": 90.10892, "lat": 23.39944, "serial": 18326, "isUnique": 1, "field_11": null }, "geometry": { "type": "Point", "coordinates": [ 90.10892, 23.39944 ] } },
{ "type": "Feature", "properties": { "inst name": "PURBA KAKOIR HIGH SCHOOL", "eiin": 110823, "inst_type": "School", "district": "MADARIPUR", "thana": "SHIB CHAR", "mauza": "PURBA KAKAIR", "long": 90.2525, "lat": 23.38225, "serial": 18327, "isUnique": 1, "field_11": null }, "geometry": { "type": "Point", "coordinates": [ 90.2525, 23.38225 ] } },
{ "type": "Feature", "properties": { "inst name": "NARIKEL BARI HIGH SCHOOL", "eiin": 110850, "inst_type": "School", "district": "MADARIPUR", "thana": "SHIB CHAR", "mauza": "PURBA KHAS BANDARKHOLA", "long": 90.22353, "lat": 23.38728, "serial": 18328, "isUnique": 1, "field_11": null }, "geometry": { "type": "Point", "coordinates": [ 90.22353, 23.38728 ] } },
{ "type": "Feature", "properties": { "inst name": "CHAR JANNAJAT EA CHOW HIGH SCHOOL", "eiin": 110858, "inst_type": "School", "district": "MADARIPUR", "thana": "SHIB CHAR", "mauza": "UTTAR CHAR JANAJAT", "long": 90.209, "lat": 23.37358, "serial": 18329, "isUnique": 1, "field_11": null }, "geometry": { "type": "Point", "coordinates": [ 90.209, 23.37358 ] } },
{ "type": "Feature", "properties": { "inst name": "MOHAMMAD SHAHEED HOSSAIN HIGH SCHOOL", "eiin": 110842, "inst_type": "School", "district": "MADARIPUR", "thana": "SHIB CHAR", "mauza": "BARA DOALI", "long": 90.16381, "lat": 23.47189, "serial": 18330, "isUnique": 1, "field_11": null }, "geometry": { "type": "Point", "coordinates": [ 90.16381, 23.47189 ] } },
{ "type": "Feature", "properties": { "inst name": "rajoir pilot girls high school", "eiin": 110802, "inst_type": "School", "district": "MADARIPUR", "thana": "RAJOIR", "mauza": "RAJOIR", "long": 90.15564, "lat": 23.37986, "serial": 18332, "isUnique": 1, "field_11": null }, "geometry": { "type": "Point", "coordinates": [ 90.15564, 23.37986 ] } },
{ "type": "Feature", "properties": { "inst name": "ALMODASTAR ADARSHA HIGH SCHOOL", "eiin": 110810, "inst_type": "School", "district": "MADARIPUR", "thana": "RAJOIR", "mauza": "HOGLA", "long": 90.16311, "lat": 23.34519, "serial": 18333, "isUnique": 2, "field_11": null }, "geometry": { "type": "Point", "coordinates": [ 90.16311, 23.34519 ] } },
{ "type": "Feature", "properties": { "inst name": "KHALIA RAJARAM INSTITUTION", "eiin": 110790, "inst_type": "School", "district": "MADARIPUR", "thana": "RAJOIR", "mauza": "KHALIA", "long": 90.04776, "lat": 23.20907, "serial": 18334, "isUnique": 1, "field_11": null }, "geometry": { "type": "Point", "coordinates": [ 90.04776, 23.20907 ] } },
{ "type": "Feature", "properties": { "inst name": "ULLABARI UNITED HIGH SCHOOL", "eiin": 110801, "inst_type": "School", "district": "MADARIPUR", "thana": "RAJOIR", "mauza": "SENDIA", "long": 90.04968, "lat": 23.2081, "serial": 18335, "isUnique": 1, "field_11": null }, "geometry": { "type": "Point", "coordinates": [ 90.04968, 23.2081 ] } },
{ "type": "Feature", "properties": { "inst name": "KADAM BARI HIGH SCHOOL", "eiin": 110795, "inst_type": "School", "district": "MADARIPUR", "thana": "RAJOIR", "mauza": "KADAMBARI", "long": 90.05028, "lat": 23.21103, "serial": 18336, "isUnique": 1, "field_11": null }, "geometry": { "type": "Point", "coordinates": [ 90.05028, 23.21103 ] } },
{ "type": "Feature", "properties": { "inst name": "CHATUSH PALLI HIGH SCHOOL", "eiin": 110805, "inst_type": "School", "district": "MADARIPUR", "thana": "RAJOIR", "mauza": "PUKURIA", "long": 90.0521, "lat": 23.20988, "serial": 18337, "isUnique": 1, "field_11": null }, "geometry": { "type": "Point", "coordinates": [ 90.0521, 23.20988 ] } },
{ "type": "Feature", "properties": { "inst name": "ARUAKANDI N B HIGH SCHOOL", "eiin": 110796, "inst_type": "School", "district": "MADARIPUR", "thana": "RAJOIR", "mauza": "ARUAKANDI", "long": 90.00448, "lat": 23.22186, "serial": 18338, "isUnique": 1, "field_11": null }, "geometry": { "type": "Point", "coordinates": [ 90.00448, 23.22186 ] } },
{ "type": "Feature", "properties": { "inst name": "KASHIMPUR MEHER ALI HIGH SCHOOL", "eiin": 110800, "inst_type": "School", "district": "MADARIPUR", "thana": "RAJOIR", "mauza": "PAIK PARA", "long": 89.95936, "lat": 23.13168, "serial": 18339, "isUnique": 1, "field_11": null }, "geometry": { "type": "Point", "coordinates": [ 89.95936, 23.13168 ] } },
{ "type": "Feature", "properties": { "inst name": "HARIDASDI MOHENDRADI HIGH SCHOOL", "eiin": 110797, "inst_type": "School", "district": "MADARIPUR", "thana": "RAJOIR", "mauza": "MAHENDRADI", "long": 90.02085, "lat": 23.22788, "serial": 18340, "isUnique": 1, "field_11": null }, "geometry": { "type": "Point", "coordinates": [ 90.02085, 23.22788 ] } },
{ "type": "Feature", "properties": { "inst name": "HOSSANPUR HIGH SCHOOL", "eiin": 110808, "inst_type": "School", "district": "MADARIPUR", "thana": "RAJOIR", "mauza": "NAGARDI", "long": 90.02518, "lat": 23.22736, "serial": 18341, "isUnique": 1, "field_11": null }, "geometry": { "type": "Point", "coordinates": [ 90.02518, 23.22736 ] } },
{ "type": "Feature", "properties": { "inst name": "ISHIBUR HIGH SCHOOL", "eiin": 110794, "inst_type": "School", "district": "MADARIPUR", "thana": "RAJOIR", "mauza": "ISIBPUR", "long": 90.02522, "lat": 23.29874, "serial": 18342, "isUnique": 1, "field_11": null }, "geometry": { "type": "Point", "coordinates": [ 90.02522, 23.29874 ] } },
{ "type": "Feature", "properties": { "inst name": "MALEK MIA MEMORIAL HIGH SCHOOL", "eiin": 110811, "inst_type": "School", "district": "MADARIPUR", "thana": "RAJOIR", "mauza": "SAKHARPAR", "long": 90.03156, "lat": 23.30682, "serial": 18343, "isUnique": 1, "field_11": null }, "geometry": { "type": "Point", "coordinates": [ 90.03156, 23.30682 ] } },
{ "type": "Feature", "properties": { "inst name": "HASHAN KANDI UNITED HIGH SCHOOL", "eiin": 110803, "inst_type": "School", "district": "MADARIPUR", "thana": "RAJOIR", "mauza": "HASANKANDI", "long": 90.06259, "lat": 23.25643, "serial": 18344, "isUnique": 1, "field_11": null }, "geometry": { "type": "Point", "coordinates": [ 90.06259, 23.25643 ] } },
{ "type": "Feature", "properties": { "inst name": "SHAKHARPAR HIGH SCHOOL", "eiin": 110799, "inst_type": "School", "district": "MADARIPUR", "thana": "RAJOIR", "mauza": "SAKHARPAR", "long": 90.04964, "lat": 23.26029, "serial": 18345, "isUnique": 1, "field_11": null }, "geometry": { "type": "Point", "coordinates": [ 90.04964, 23.26029 ] } },
{ "type": "Feature", "properties": { "inst name": "CHARMASTA FAPUR JUNIOR HIGH SCHOOL", "eiin": 110789, "inst_type": "School", "district": "MADARIPUR", "thana": "RAJOIR", "mauza": "CHAR MOSTAFAPUR", "long": 90.03908, "lat": 23.26137, "serial": 18346, "isUnique": 1, "field_11": null }, "geometry": { "type": "Point", "coordinates": [ 90.03908, 23.26137 ] } },
{ "type": "Feature", "properties": { "inst name": "SATPAR DIPCHAND HIGH SCHOOOL", "eiin": 110798, "inst_type": "School", "district": "MADARIPUR", "thana": "RAJOIR", "mauza": "SATPAR", "long": 90.05292, "lat": 23.20418, "serial": 18347, "isUnique": 1, "field_11": null }, "geometry": { "type": "Point", "coordinates": [ 90.05292, 23.20418 ] } },
{ "type": "Feature", "properties": { "inst name": "CHOWARI BARI BHENNA BARI MATILAL HIGH SCHOOL", "eiin": 110807, "inst_type": "School", "district": "MADARIPUR", "thana": "RAJOIR", "mauza": "CHAUARIBARI", "long": 90.07441, "lat": 23.23485, "serial": 18348, "isUnique": 1, "field_11": null }, "geometry": { "type": "Point", "coordinates": [ 90.07441, 23.23485 ] } },
{ "type": "Feature", "properties": { "inst name": "AMGRAM HIGH SCHOOL", "eiin": 110793, "inst_type": "School", "district": "MADARIPUR", "thana": "RAJOIR", "mauza": "HOGLA", "long": 90.09396, "lat": 23.25075, "serial": 18349, "isUnique": 1, "field_11": null }, "geometry": { "type": "Point", "coordinates": [ 90.09396, 23.25075 ] } },
{ "type": "Feature", "properties": { "inst name": "LAKHANDA HIGH SCHOOL", "eiin": 110804, "inst_type": "School", "district": "MADARIPUR", "thana": "RAJOIR", "mauza": "LAKHANDA", "long": 90.08503, "lat": 23.25276, "serial": 18350, "isUnique": 1, "field_11": null }, "geometry": { "type": "Point", "coordinates": [ 90.08503, 23.25276 ] } },
{ "type": "Feature", "properties": { "inst name": "BAJITPUR GIRLS HIGH SCHOOL", "eiin": 110806, "inst_type": "School", "district": "MADARIPUR", "thana": "RAJOIR", "mauza": "CHURASI", "long": 90.05361, "lat": 23.23937, "serial": 18351, "isUnique": 1, "field_11": null }, "geometry": { "type": "Point", "coordinates": [ 90.05361, 23.23937 ] } },
{ "type": "Feature", "properties": { "inst name": "RAJKUMAR EDWARD INSTITUTION", "eiin": 110792, "inst_type": "School", "district": "MADARIPUR", "thana": "RAJOIR", "mauza": "KISMATDI", "long": 90.00706, "lat": 23.18545, "serial": 18352, "isUnique": 1, "field_11": null }, "geometry": { "type": "Point", "coordinates": [ 90.00706, 23.18545 ] } },
{ "type": "Feature", "properties": { "inst name": "BAHADURPUR HIGH SCHOOL", "eiin": 110742, "inst_type": "School", "district": "MADARIPUR", "thana": "MADARIPUR SADAR", "mauza": "BARA BAHADURPUR", "long": 90.02484, "lat": 23.17391, "serial": 18353, "isUnique": 1, "field_11": null }, "geometry": { "type": "Point", "coordinates": [ 90.02484, 23.17391 ] } },
{ "type": "Feature", "properties": { "inst name": "GATAKCHAR m l HIGH SCHOOL", "eiin": 110740, "inst_type": "School", "district": "MADARIPUR", "thana": "MADARIPUR SADAR", "mauza": "GHATAK CHAR", "long": 90.08198, "lat": 23.17469, "serial": 18354, "isUnique": 1, "field_11": null }, "geometry": { "type": "Point", "coordinates": [ 90.08198, 23.17469 ] } },
{ "type": "Feature", "properties": { "inst name": "MOSTAFAPUR BAHUMUKHI HIGH SCHOOL", "eiin": 110752, "inst_type": "School", "district": "MADARIPUR", "thana": "MADARIPUR SADAR", "mauza": "BARA MEHAIR", "long": 90.0831, "lat": 23.17508, "serial": 18355, "isUnique": 1, "field_11": null }, "geometry": { "type": "Point", "coordinates": [ 90.0831, 23.17508 ] } },
{ "type": "Feature", "properties": { "inst name": "MADARIPUR GIRL'S SCHOOL", "eiin": 110729, "inst_type": "School", "district": "MADARIPUR", "thana": "MADARIPUR SADAR", "mauza": "SUKANI (PART-2)", "long": 90.09503, "lat": 23.13531, "serial": 18356, "isUnique": 1, "field_11": null }, "geometry": { "type": "Point", "coordinates": [ 90.09503, 23.13531 ] } },
{ "type": "Feature", "properties": { "inst name": "SAMSUNNAHAR BHUIYAN GIRLS HIGH SCHOOL", "eiin": 110732, "inst_type": "School", "district": "MADARIPUR", "thana": "MADARIPUR SADAR", "mauza": "PURAN BAZAR", "long": 90.10025, "lat": 23.14294, "serial": 18357, "isUnique": 1, "field_11": null }, "geometry": { "type": "Point", "coordinates": [ 90.10025, 23.14294 ] } },
{ "type": "Feature", "properties": { "inst name": "ALZABIR HIGH SCHOOL", "eiin": 110725, "inst_type": "School", "district": "MADARIPUR", "thana": "MADARIPUR SADAR", "mauza": "PANISATRA (PART)", "long": 90.21725, "lat": 23.16903, "serial": 18358, "isUnique": 1, "field_11": null }, "geometry": { "type": "Point", "coordinates": [ 90.21725, 23.16903 ] } },
{ "type": "Feature", "properties": { "inst name": "AL-HAZ AMINUDDIN HIGH SCHOOL", "eiin": 110726, "inst_type": "School", "district": "MADARIPUR", "thana": "MADARIPUR SADAR", "mauza": "SUKUNI (PART-1)", "long": 90.12983, "lat": 23.16756, "serial": 18359, "isUnique": 1, "field_11": null }, "geometry": { "type": "Point", "coordinates": [ 90.12983, 23.16756 ] } },
{ "type": "Feature", "properties": { "inst name": "ASMOT ALI KHAN PUBLIC SCHOOL", "eiin": 110724, "inst_type": "School", "district": "MADARIPUR", "thana": "MADARIPUR SADAR", "mauza": "SUKUNI (PART-1)", "long": 90.14194, "lat": 23.15467, "serial": 18360, "isUnique": 1, "field_11": null }, "geometry": { "type": "Point", "coordinates": [ 90.14194, 23.15467 ] } },
{ "type": "Feature", "properties": { "inst name": "K.D.D.A HIGH SCHOOL", "eiin": 110722, "inst_type": "School", "district": "MADARIPUR", "thana": "MADARIPUR SADAR", "mauza": "KUNIA BHARUA PARA", "long": 90.20806, "lat": 23.16122, "serial": 18361, "isUnique": 1, "field_11": null }, "geometry": { "type": "Point", "coordinates": [ 90.20806, 23.16122 ] } },
{ "type": "Feature", "properties": { "inst name": "K.D.B.M. HIGH SCHOOL", "eiin": 110758, "inst_type": "School", "district": "MADARIPUR", "thana": "MADARIPUR SADAR", "mauza": "KUNIA BHARUA PARA", "long": 90.20467, "lat": 23.16933, "serial": 18362, "isUnique": 1, "field_11": null }, "geometry": { "type": "Point", "coordinates": [ 90.20467, 23.16933 ] } },
{ "type": "Feature", "properties": { "inst name": "MADRA HIGH SCHOOL", "eiin": 110761, "inst_type": "School", "district": "MADARIPUR", "thana": "MADARIPUR SADAR", "mauza": "PURBA MADRA", "long": 90.22156, "lat": 23.16228, "serial": 18363, "isUnique": 1, "field_11": null }, "geometry": { "type": "Point", "coordinates": [ 90.22156, 23.16228 ] } },
{ "type": "Feature", "properties": { "inst name": "KULPADDI HIGH SCHOOL", "eiin": 110745, "inst_type": "School", "district": "MADARIPUR", "thana": "MADARIPUR SADAR", "mauza": "KULAPADDI (PART)", "long": 90.21383, "lat": 23.16436, "serial": 18364, "isUnique": 1, "field_11": null }, "geometry": { "type": "Point", "coordinates": [ 90.21383, 23.16436 ] } },
{ "type": "Feature", "properties": { "inst name": "LAKSHIGONJ BAPARI BARI SESIP BOHUMUKHI HIGH SCHOOL", "eiin": 131487, "inst_type": "School", "district": "MADARIPUR", "thana": "MADARIPUR SADAR", "mauza": "RASTI", "long": 90.20656, "lat": 23.16242, "serial": 18365, "isUnique": 1, "field_11": null }, "geometry": { "type": "Point", "coordinates": [ 90.20656, 23.16242 ] } },
{ "type": "Feature", "properties": { "inst name": "RAZZAK HOWLADER ACCADEMY", "eiin": 110720, "inst_type": "School", "district": "MADARIPUR", "thana": "MADARIPUR SADAR", "mauza": "PURAN BAZAR", "long": 90.23769, "lat": 23.12181, "serial": 18367, "isUnique": 1, "field_11": null }, "geometry": { "type": "Point", "coordinates": [ 90.23769, 23.12181 ] } },
{ "type": "Feature", "properties": { "inst name": "JULIO KURIE HIGH SCHOOL", "eiin": 110748, "inst_type": "School", "district": "MADARIPUR", "thana": "MADARIPUR SADAR", "mauza": "PAKDI (PART-1)", "long": 90.19811, "lat": 23.17156, "serial": 18368, "isUnique": 1, "field_11": null }, "geometry": { "type": "Point", "coordinates": [ 90.19811, 23.17156 ] } },
{ "type": "Feature", "properties": { "inst name": "A.C NORTH KALAGACHhIA HIGH SCHOOL", "eiin": 110739, "inst_type": "School", "district": "MADARIPUR", "thana": "MADARIPUR SADAR", "mauza": "UTTAR KALAGACHHIA", "long": 90.20017, "lat": 23.19203, "serial": 18369, "isUnique": 1, "field_11": null }, "geometry": { "type": "Point", "coordinates": [ 90.20017, 23.19203 ] } },
{ "type": "Feature", "properties": { "inst name": "KHAIARVANGA JR. HIGH SCHOOL", "eiin": 110757, "inst_type": "School", "district": "MADARIPUR", "thana": "MADARIPUR SADAR", "mauza": "PURBA KHAIARBHANGA", "long": 90.20286, "lat": 23.18169, "serial": 18370, "isUnique": 1, "field_11": null }, "geometry": { "type": "Point", "coordinates": [ 90.20286, 23.18169 ] } },
{ "type": "Feature", "properties": { "inst name": "TANTI BARI ISLAMIA HIGH SCHOOL", "eiin": 110759, "inst_type": "School", "district": "MADARIPUR", "thana": "MADARIPUR SADAR", "mauza": "JHIKARHATI", "long": 90.19819, "lat": 23.15636, "serial": 18371, "isUnique": 1, "field_11": null }, "geometry": { "type": "Point", "coordinates": [ 90.19819, 23.15636 ] } },
{ "type": "Feature", "properties": { "inst name": "KHATIAL HIGH SCHOOL", "eiin": 110682, "inst_type": "School", "district": "MADARIPUR", "thana": "KALKINI", "mauza": "KHATIAL", "long": 90.15564, "lat": 23.11558, "serial": 18372, "isUnique": 1, "field_11": null }, "geometry": { "type": "Point", "coordinates": [ 90.15564, 23.11558 ] } },
{ "type": "Feature", "properties": { "inst name": "SONMONDI HIGH SCHOOL", "eiin": 110645, "inst_type": "School", "district": "MADARIPUR", "thana": "KALKINI", "mauza": "SAMMANDI", "long": 90.15314, "lat": 23.13394, "serial": 18374, "isUnique": 1, "field_11": null }, "geometry": { "type": "Point", "coordinates": [ 90.15314, 23.13394 ] } },
{ "type": "Feature", "properties": { "inst name": "baligram junior high school", "eiin": 110683, "inst_type": "School", "district": "MADARIPUR", "thana": "KALKINI", "mauza": "PASCHIM BALIGRAM", "long": 90.14378, "lat": 23.18272, "serial": 18375, "isUnique": 1, "field_11": null }, "geometry": { "type": "Point", "coordinates": [ 90.14378, 23.18272 ] } },
{ "type": "Feature", "properties": { "inst name": "GOPALPUR HIGH SCHOOL", "eiin": 110668, "inst_type": "School", "district": "MADARIPUR", "thana": "KALKINI", "mauza": "GOPALPUR", "long": 90.17383, "lat": 23.12317, "serial": 18376, "isUnique": 1, "field_11": null }, "geometry": { "type": "Point", "coordinates": [ 90.17383, 23.12317 ] } },
{ "type": "Feature", "properties": { "inst name": "MAIJPARA HIGH SCHOOL", "eiin": 110686, "inst_type": "School", "district": "MADARIPUR", "thana": "KALKINI", "mauza": "PASCHIM MAIJ PARA", "long": 90.18778, "lat": 23.12742, "serial": 18377, "isUnique": 1, "field_11": null }, "geometry": { "type": "Point", "coordinates": [ 90.18778, 23.12742 ] } },
{ "type": "Feature", "properties": { "inst name": "BIRMOHON HIGH SCHOOL", "eiin": 110640, "inst_type": "School", "district": "MADARIPUR", "thana": "KALKINI", "mauza": "PURBA MAIJ PARA", "long": 90.16747, "lat": 23.10422, "serial": 18378, "isUnique": 1, "field_11": null }, "geometry": { "type": "Point", "coordinates": [ 90.16747, 23.10422 ] } },
{ "type": "Feature", "properties": { "inst name": "SYED NURUL ALAM GIRLS HIGH SCHOOL", "eiin": 110685, "inst_type": "School", "district": "MADARIPUR", "thana": "KALKINI", "mauza": "DASAR", "long": 90.20844, "lat": 23.07928, "serial": 18379, "isUnique": 1, "field_11": null }, "geometry": { "type": "Point", "coordinates": [ 90.20844, 23.07928 ] } },
{ "type": "Feature", "properties": { "inst name": "SOUTH CHALBAL KHAN HIGH SCHOOL", "eiin": 131334, "inst_type": "School", "district": "MADARIPUR", "thana": "KALKINI", "mauza": "CHALBAL KHAN", "long": 90.17106, "lat": 23.08925, "serial": 18380, "isUnique": 1, "field_11": null }, "geometry": { "type": "Point", "coordinates": [ 90.17106, 23.08925 ] } },
{ "type": "Feature", "properties": { "inst name": "SASHIKAR GIRLS HIGH SCHOOL", "eiin": 110680, "inst_type": "School", "district": "MADARIPUR", "thana": "KALKINI", "mauza": "DAKSHIN SHASHIKAR", "long": 90.19356, "lat": 23.08439, "serial": 18381, "isUnique": 1, "field_11": null }, "geometry": { "type": "Point", "coordinates": [ 90.19356, 23.08439 ] } },
{ "type": "Feature", "properties": { "inst name": "SHASHIKAR HIGH SCHOOL", "eiin": 110650, "inst_type": "School", "district": "MADARIPUR", "thana": "KALKINI", "mauza": "KALAITALA", "long": 90.15883, "lat": 23.07086, "serial": 18382, "isUnique": 1, "field_11": null }, "geometry": { "type": "Point", "coordinates": [ 90.15883, 23.07086 ] } },
{ "type": "Feature", "properties": { "inst name": "CHAL BAL HIGH SCHOOL", "eiin": 110681, "inst_type": "School", "district": "MADARIPUR", "thana": "KALKINI", "mauza": "CHALBAL KHAN", "long": 90.01064, "lat": 23.06872, "serial": 18383, "isUnique": 1, "field_11": null }, "geometry": { "type": "Point", "coordinates": [ 90.01064, 23.06872 ] } },
{ "type": "Feature", "properties": { "inst name": "KHASHER HAT SAYED ABUL HOSSAIN SCHOOL & COLLEGE", "eiin": 110656, "inst_type": "School and College", "district": "MADARIPUR", "thana": "KALKINI", "mauza": "UTTAR CHHAYGAON", "long": 90.33406, "lat": 23.12582, "serial": 26112, "isUnique": 1, "field_11": null }, "geometry": { "type": "Point", "coordinates": [ 90.33406, 23.12582 ] } },
{ "type": "Feature", "properties": { "inst name": "SHIREEN JAHAN MEMORIAL SCHOOL & COLLEGE", "eiin": 110760, "inst_type": "School and College", "district": "MADARIPUR", "thana": "MADARIPUR SADAR", "mauza": "DAKSHIN BAJITPUR", "long": 90.28882, "lat": 23.17268, "serial": 26113, "isUnique": 1, "field_11": null }, "geometry": { "type": "Point", "coordinates": [ 90.28882, 23.17268 ] } },
{ "type": "Feature", "properties": { "inst name": "RAJORE GOPALGANJ K.J.S PILOT INSTITUTION AND COLLEGE", "eiin": 110791, "inst_type": "School and College", "district": "MADARIPUR", "thana": "RAJOIR", "mauza": "BADAR PASHA", "long": 90.21478, "lat": 23.27017, "serial": 26114, "isUnique": 2, "field_11": null }, "geometry": { "type": "Point", "coordinates": [ 90.21478, 23.27017 ] } },
{ "type": "Feature", "properties": { "inst name": "SHAHID SARDAR SAJAHAN GIRLS SCHOOL & COLLEGE", "eiin": 110822, "inst_type": "School and College", "district": "MADARIPUR", "thana": "RAJOIR", "mauza": "NASIPUR", "long": 89.96904, "lat": 23.1487, "serial": 26115, "isUnique": 1, "field_11": null }, "geometry": { "type": "Point", "coordinates": [ 89.96904, 23.1487 ] } },
{ "type": "Feature", "properties": { "inst name": "D.K.IDEAL SYED ATAHAR ALI ACADEMY & COLLEGE", "eiin": 110718, "inst_type": "School and College", "district": "MADARIPUR", "thana": "KALKINI", "mauza": "DASAR", "long": 90.20792, "lat": 23.10003, "serial": 26116, "isUnique": 1, "field_11": null }, "geometry": { "type": "Point", "coordinates": [ 90.20792, 23.10003 ] } }
]
}
