{
"type": "FeatureCollection",
"crs": { "type": "name", "properties": { "name": "urn:ogc:def:crs:OGC:1.3:CRS84" } },
"features": [
{ "type": "Feature", "properties": { "inst_name": "SINGAIR  COLLEGE", "eiin": 111084, "inst_type": "College", "district": "MANIKGANJ", "thana": "SINGAIR", "mauza": "CHAR SINGAIR C.AZIMPUR (PART)", "long": 90.14556, "lat": 23.81353, "serial": 1287, "isUnique": 2, "field_11": null }, "geometry": { "type": "Point", "coordinates": [ 90.14556, 23.81353 ] } },
{ "type": "Feature", "properties": { "inst_name": "SHIBALAYA SADAR UDDIN degree  COLLEGE", "eiin": 111054, "inst_type": "College", "district": "MANIKGANJ", "thana": "SHIBALAYA", "mauza": "BARA BOALI", "long": 89.85903, "lat": 23.80964, "serial": 1289, "isUnique": 1, "field_11": null }, "geometry": { "type": "Point", "coordinates": [ 89.85903, 23.80964 ] } },
{ "type": "Feature", "properties": { "inst_name": "BALIATI COLLEGE", "eiin": 111026, "inst_type": "College", "district": "MANIKGANJ", "thana": "SATURIA", "mauza": "BALIATI", "long": 89.78686, "lat": 23.81308, "serial": 1290, "isUnique": 1, "field_11": null }, "geometry": { "type": "Point", "coordinates": [ 89.78686, 23.81308 ] } },
{ "type": "Feature", "properties": { "inst_name": "SATURIA SYED KALU SHAH DEGREE COLLEGE", "eiin": 111027, "inst_type": "College", "district": "MANIKGANJ", "thana": "SATURIA", "mauza": "PRADHANPUR", "long": 90.06219, "lat": 23.93, "serial": 1292, "isUnique": 1, "field_11": null }, "geometry": { "type": "Point", "coordinates": [ 90.06219, 23.93 ] } },
{ "type": "Feature", "properties": { "inst_name": "GOVT. BHIKU MEMORIAL DEGREE COLLEGE", "eiin": 111025, "inst_type": "College", "district": "MANIKGANJ", "thana": "SATURIA", "mauza": "RAUHA", "long": 89.95178, "lat": 23.99119, "serial": 1293, "isUnique": 1, "field_11": null }, "geometry": { "type": "Point", "coordinates": [ 89.95178, 23.99119 ] } },
{ "type": "Feature", "properties": { "inst_name": "KHAN BAHADUR AWLAD HOSSAIN KHAN COLLEGE", "eiin": 110998, "inst_type": "College", "district": "MANIKGANJ", "thana": "MANIKGANJ SADAR", "mauza": "NADI BALABANTA", "long": 90.02314, "lat": 23.9415, "serial": 1294, "isUnique": 1, "field_11": null }, "geometry": { "type": "Point", "coordinates": [ 90.02314, 23.9415 ] } },
{ "type": "Feature", "properties": { "inst_name": "KHONDAKAR DELWAR HOSSAN COLLEGE", "eiin": 110997, "inst_type": "College", "district": "MANIKGANJ", "thana": "MANIKGANJ SADAR", "mauza": "BANAGRAM", "long": 89.98614, "lat": 23.97597, "serial": 1295, "isUnique": 2, "field_11": null }, "geometry": { "type": "Point", "coordinates": [ 89.98614, 23.97597 ] } },
{ "type": "Feature", "properties": { "inst_name": "BEGUM JARINA DEGREE COLLAGE", "eiin": 110999, "inst_type": "College", "district": "MANIKGANJ", "thana": "MANIKGANJ SADAR", "mauza": "PASCHIM DASHORA", "long": 90.02225, "lat": 23.85542, "serial": 1296, "isUnique": 1, "field_11": null }, "geometry": { "type": "Point", "coordinates": [ 90.02225, 23.85542 ] } },
{ "type": "Feature", "properties": { "inst_name": "MANIKGONJ GOVT MOHILA COLLEGE", "eiin": 110996, "inst_type": "College", "district": "MANIKGANJ", "thana": "MANIKGANJ SADAR", "mauza": "PURBA DASHORA", "long": 90.00294, "lat": 23.85914, "serial": 1297, "isUnique": 1, "field_11": null }, "geometry": { "type": "Point", "coordinates": [ 90.00294, 23.85914 ] } },
{ "type": "Feature", "properties": { "inst_name": "RAMJAN ALI COLLEGE", "eiin": 110995, "inst_type": "College", "district": "MANIKGANJ", "thana": "MANIKGANJ SADAR", "mauza": "JOYRA", "long": 90.03058, "lat": 23.83122, "serial": 1298, "isUnique": 1, "field_11": null }, "geometry": { "type": "Point", "coordinates": [ 90.03058, 23.83122 ] } },
{ "type": "Feature", "properties": { "inst_name": "GARPARA HAFIZ UDDIN DEGREE COLLEGE", "eiin": 110994, "inst_type": "College", "district": "MANIKGANJ", "thana": "MANIKGANJ SADAR", "mauza": "BARA DAWTIA", "long": 89.99783, "lat": 23.87594, "serial": 1299, "isUnique": 1, "field_11": null }, "geometry": { "type": "Point", "coordinates": [ 89.99783, 23.87594 ] } },
{ "type": "Feature", "properties": { "inst_name": "RAJIBPUR ADARSHA COLLEGE", "eiin": 111003, "inst_type": "College", "district": "MANIKGANJ", "thana": "MANIKGANJ SADAR", "mauza": "ALIGANJ", "long": 89.99536, "lat": 23.90222, "serial": 1300, "isUnique": 1, "field_11": null }, "geometry": { "type": "Point", "coordinates": [ 89.99536, 23.90222 ] } },
{ "type": "Feature", "properties": { "inst_name": "BAIRA COLLEGE", "eiin": 111085, "inst_type": "College", "district": "MANIKGANJ", "thana": "SINGAIR", "mauza": "BOYRA", "long": 90.07114, "lat": 23.88011, "serial": 1301, "isUnique": 1, "field_11": null }, "geometry": { "type": "Point", "coordinates": [ 90.07114, 23.88011 ] } },
{ "type": "Feature", "properties": { "inst_name": "BICHARPATI NURUL ISLAM DEGREE COLLEGE", "eiin": 110948, "inst_type": "College", "district": "MANIKGANJ", "thana": "HARIRAMPUR", "mauza": "THANA JATRAPUR", "long": 89.92311, "lat": 23.75261, "serial": 1302, "isUnique": 1, "field_11": null }, "geometry": { "type": "Point", "coordinates": [ 89.92311, 23.75261 ] } },
{ "type": "Feature", "properties": { "inst_name": "JHITKA KHAWJA RAHMAT ALI DEGREE COLLEGE", "eiin": 110947, "inst_type": "College", "district": "MANIKGANJ", "thana": "HARIRAMPUR", "mauza": "BASUDEBPUR", "long": 89.98583, "lat": 23.74694, "serial": 1303, "isUnique": 1, "field_11": null }, "geometry": { "type": "Point", "coordinates": [ 89.98583, 23.74694 ] } },
{ "type": "Feature", "properties": { "inst_name": "M.A. ROUF DEGREe  COLLEGE  KOuri", "eiin": 110949, "inst_type": "College", "district": "MANIKGANJ", "thana": "HARIRAMPUR", "mauza": "KAURI", "long": 89.95547, "lat": 23.76028, "serial": 1304, "isUnique": 1, "field_11": null }, "geometry": { "type": "Point", "coordinates": [ 89.95547, 23.76028 ] } },
{ "type": "Feature", "properties": { "inst_name": "TEROSREE COLLEGE", "eiin": 110929, "inst_type": "College", "district": "MANIKGANJ", "thana": "GHIOR", "mauza": "TERASREE", "long": 90.02253, "lat": 23.68228, "serial": 1305, "isUnique": 1, "field_11": null }, "geometry": { "type": "Point", "coordinates": [ 90.02253, 23.68228 ] } },
{ "type": "Feature", "properties": { "inst_name": "DR. ABDUR RAHIM KHAN MOHILA COLLEGE", "eiin": 110931, "inst_type": "College", "district": "MANIKGANJ", "thana": "GHIOR", "mauza": "GHIOR", "long": 89.94203, "lat": 23.89781, "serial": 1306, "isUnique": 1, "field_11": null }, "geometry": { "type": "Point", "coordinates": [ 89.94203, 23.89781 ] } },
{ "type": "Feature", "properties": { "inst_name": "GHOR GOVT COLLEGE", "eiin": 110930, "inst_type": "College", "district": "MANIKGANJ", "thana": "GHIOR", "mauza": "GHIOR", "long": 89.87653, "lat": 23.92289, "serial": 1307, "isUnique": 1, "field_11": null }, "geometry": { "type": "Point", "coordinates": [ 89.87653, 23.92289 ] } },
{ "type": "Feature", "properties": { "inst_name": "BACHAMARA  BAGHATIA CHARKATARY  COLLEGE", "eiin": 110906, "inst_type": "College", "district": "MANIKGANJ", "thana": "DAULATPUR", "mauza": "BACHAMARA", "long": 89.95078, "lat": 23.90297, "serial": 1308, "isUnique": 1, "field_11": null }, "geometry": { "type": "Point", "coordinates": [ 89.95078, 23.90297 ] } },
{ "type": "Feature", "properties": { "inst_name": "MOTILAL DEGREE COLLEGE", "eiin": 110905, "inst_type": "College", "district": "MANIKGANJ", "thana": "DAULATPUR", "mauza": "RAMCHANDRAPUR", "long": 89.84819, "lat": 23.96189, "serial": 1309, "isUnique": 1, "field_11": null }, "geometry": { "type": "Point", "coordinates": [ 89.84819, 23.96189 ] } },
{ "type": "Feature", "properties": { "inst_name": "TALUK NAGAR DEGREE COLLEGE", "eiin": 110907, "inst_type": "College", "district": "MANIKGANJ", "thana": "DAULATPUR", "mauza": "ITALUK HAPANIA", "long": 89.79172, "lat": 23.97181, "serial": 1310, "isUnique": 1, "field_11": null }, "geometry": { "type": "Point", "coordinates": [ 89.79172, 23.97181 ] } },
{ "type": "Feature", "properties": { "inst_name": "KALIAKAIK ISLAMIA DAKHIL MADRASHA", "eiin": 111083, "inst_type": "Madrasha", "district": "MANIKGANJ", "thana": "SINGAIR", "mauza": "BRI-KALIAKAIR", "long": 90.14811, "lat": 23.81564, "serial": 6736, "isUnique": 1, "field_11": null }, "geometry": { "type": "Point", "coordinates": [ 90.14811, 23.81564 ] } },
{ "type": "Feature", "properties": { "inst_name": " DHALLA ISLAMIA DAKHIL MADRASHA", "eiin": 111082, "inst_type": "Madrasha", "district": "MANIKGANJ", "thana": "SINGAIR", "mauza": "GANDHARDIA", "long": 90.09528, "lat": 23.81514, "serial": 6737, "isUnique": 1, "field_11": null }, "geometry": { "type": "Point", "coordinates": [ 90.09528, 23.81514 ] } },
{ "type": "Feature", "properties": { "inst_name": "KHASERCHAR MAHMUDIA SR.MADRASAH", "eiin": 111080, "inst_type": "Madrasha", "district": "MANIKGANJ", "thana": "SINGAIR", "mauza": "KHASER CHAR (1ST PART)", "long": 90.21603, "lat": 23.73972, "serial": 6738, "isUnique": 1, "field_11": null }, "geometry": { "type": "Point", "coordinates": [ 90.21603, 23.73972 ] } },
{ "type": "Feature", "properties": { "inst_name": "CHARRAJ NAGAR MANIKNAGAR MAHMUDIA DAKHIL MADRASHA", "eiin": 111079, "inst_type": "Madrasha", "district": "MANIKGANJ", "thana": "SINGAIR", "mauza": "NOADDA", "long": 90.19031, "lat": 23.79697, "serial": 6739, "isUnique": 1, "field_11": null }, "geometry": { "type": "Point", "coordinates": [ 90.19031, 23.79697 ] } },
{ "type": "Feature", "properties": { "inst_name": "KAZI SAFIUDDIN DAKHIL MADRASA", "eiin": 111051, "inst_type": "Madrasha", "district": "MANIKGANJ", "thana": "SHIBALAYA", "mauza": "BANGHABARI", "long": 90.16633, "lat": 23.76422, "serial": 6740, "isUnique": 1, "field_11": null }, "geometry": { "type": "Point", "coordinates": [ 90.16633, 23.76422 ] } },
{ "type": "Feature", "properties": { "inst_name": "SHIVALAYA RASHIDIA DAKHIL MADRASAH", "eiin": 111052, "inst_type": "Madrasha", "district": "MANIKGANJ", "thana": "SHIBALAYA", "mauza": "SHIBALAYA", "long": 89.88956, "lat": 23.79994, "serial": 6741, "isUnique": 1, "field_11": null }, "geometry": { "type": "Point", "coordinates": [ 89.88956, 23.79994 ] } },
{ "type": "Feature", "properties": { "inst_name": "PATILA PARA M.B. DAKHIL MADRASHA", "eiin": 111022, "inst_type": "Madrasha", "district": "MANIKGANJ", "thana": "SATURIA", "mauza": "PATILLA PARA", "long": 90.03767, "lat": 23.97258, "serial": 6742, "isUnique": 1, "field_11": null }, "geometry": { "type": "Point", "coordinates": [ 90.03767, 23.97258 ] } },
{ "type": "Feature", "properties": { "inst_name": "GOLORA  ISLAMIA  DAKHIL MADRASHA", "eiin": 111024, "inst_type": "Madrasha", "district": "MANIKGANJ", "thana": "SATURIA", "mauza": "GOLARA", "long": 90.05958, "lat": 23.904, "serial": 6743, "isUnique": 1, "field_11": null }, "geometry": { "type": "Point", "coordinates": [ 90.05958, 23.904 ] } },
{ "type": "Feature", "properties": { "inst_name": "BALIATI DAKHIL MADRASAH", "eiin": 111021, "inst_type": "Madrasha", "district": "MANIKGANJ", "thana": "SATURIA", "mauza": "BALIATI", "long": 89.98403, "lat": 23.94286, "serial": 6744, "isUnique": 1, "field_11": null }, "geometry": { "type": "Point", "coordinates": [ 89.98403, 23.94286 ] } },
{ "type": "Feature", "properties": { "inst_name": "MANIKGONJ ISLAMIA KAMIL MADRASHA", "eiin": 110989, "inst_type": "Madrasha", "district": "MANIKGANJ", "thana": "MANIKGANJ SADAR", "mauza": "PASCHIM DASHORA", "long": 90.00089, "lat": 23.86361, "serial": 6745, "isUnique": 1, "field_11": null }, "geometry": { "type": "Point", "coordinates": [ 90.00089, 23.86361 ] } },
{ "type": "Feature", "properties": { "inst_name": "HAZI ZAHIR UDDIN DARUS SALAM DAKHIL MADRASHA", "eiin": 110990, "inst_type": "Madrasha", "district": "MANIKGANJ", "thana": "MANIKGANJ SADAR", "mauza": "BHATAMDIA", "long": 90.05961, "lat": 23.81797, "serial": 6747, "isUnique": 1, "field_11": null }, "geometry": { "type": "Point", "coordinates": [ 90.05961, 23.81797 ] } },
{ "type": "Feature", "properties": { "inst_name": "BONPARIL  DAKHIL MADRASHA", "eiin": 110993, "inst_type": "Madrasha", "district": "MANIKGANJ", "thana": "MANIKGANJ SADAR", "mauza": "KUMULLI", "long": 89.98672, "lat": 23.90014, "serial": 6748, "isUnique": 1, "field_11": null }, "geometry": { "type": "Point", "coordinates": [ 89.98672, 23.90014 ] } },
{ "type": "Feature", "properties": { "inst_name": "CHAR JAMALPUR ISLAMIA ALIM MADRASHA", "eiin": 111078, "inst_type": "Madrasha", "district": "MANIKGANJ", "thana": "SINGAIR", "mauza": "JAMALPUR", "long": 90.07097, "lat": 23.86553, "serial": 6749, "isUnique": 1, "field_11": null }, "geometry": { "type": "Point", "coordinates": [ 90.07097, 23.86553 ] } },
{ "type": "Feature", "properties": { "inst_name": "JHITKA GAUSUL AZAM ABDUL KADER JELANI (R:) DAKHIL MADRASHA", "eiin": 110945, "inst_type": "Madrasha", "district": "MANIKGANJ", "thana": "HARIRAMPUR", "mauza": "JHIKUTIA", "long": 89.98372, "lat": 23.83328, "serial": 6750, "isUnique": 1, "field_11": null }, "geometry": { "type": "Point", "coordinates": [ 89.98372, 23.83328 ] } },
{ "type": "Feature", "properties": { "inst_name": "ANDHER MANIK  ISLIMIA DAKHIL MADRASHA", "eiin": 110946, "inst_type": "Madrasha", "district": "MANIKGANJ", "thana": "HARIRAMPUR", "mauza": "BOYRA", "long": 90.10078, "lat": 23.83992, "serial": 6751, "isUnique": 1, "field_11": null }, "geometry": { "type": "Point", "coordinates": [ 90.10078, 23.83992 ] } },
{ "type": "Feature", "properties": { "inst_name": "BAIKUNTHAPUR KHAGRATA AHMADIA DAKHIL MADRASHA", "eiin": 110928, "inst_type": "Madrasha", "district": "MANIKGANJ", "thana": "GHIOR", "mauza": "KHAGRATA", "long": 89.9355, "lat": 23.77453, "serial": 6752, "isUnique": 1, "field_11": null }, "geometry": { "type": "Point", "coordinates": [ 89.9355, 23.77453 ] } },
{ "type": "Feature", "properties": { "inst_name": "GHIOR SENIOR MADRASHA", "eiin": 110927, "inst_type": "Madrasha", "district": "MANIKGANJ", "thana": "GHIOR", "mauza": "GHIOR", "long": 89.87294, "lat": 23.901, "serial": 6753, "isUnique": 1, "field_11": null }, "geometry": { "type": "Point", "coordinates": [ 89.87294, 23.901 ] } },
{ "type": "Feature", "properties": { "inst_name": "SHAHEB ALI KHAN MOHILA DAKHIL MADRASHA", "eiin": 131659, "inst_type": "Madrasha", "district": "MANIKGANJ", "thana": "GHIOR", "mauza": "GHIOR", "long": 89.97028, "lat": 23.78953, "serial": 6754, "isUnique": 1, "field_11": null }, "geometry": { "type": "Point", "coordinates": [ 89.97028, 23.78953 ] } },
{ "type": "Feature", "properties": { "inst_name": "SARUPAY AL-HAZ ABDUL HALIM DAKHIL MADRASHA", "eiin": 110991, "inst_type": "Madrasha", "district": "MANIKGANJ", "thana": "MANIKGANJ SADAR", "mauza": "NAOGAON", "long": 89.91692, "lat": 23.88453, "serial": 6755, "isUnique": 1, "field_11": null }, "geometry": { "type": "Point", "coordinates": [ 89.91692, 23.88453 ] } },
{ "type": "Feature", "properties": { "inst_name": "GHARIALA UMME KULSUM DAKHIL MADRASAH", "eiin": 110903, "inst_type": "Madrasha", "district": "MANIKGANJ", "thana": "DAULATPUR", "mauza": "GHARIALA", "long": 89.93578, "lat": 23.86558, "serial": 6756, "isUnique": 1, "field_11": null }, "geometry": { "type": "Point", "coordinates": [ 89.93578, 23.86558 ] } },
{ "type": "Feature", "properties": { "inst_name": "BAGHUTIA ALIM MADRASHA", "eiin": 110902, "inst_type": "Madrasha", "district": "MANIKGANJ", "thana": "DAULATPUR", "mauza": "CHAR BAGHUTIA", "long": 89.76139, "lat": 23.97542, "serial": 6757, "isUnique": 1, "field_11": null }, "geometry": { "type": "Point", "coordinates": [ 89.76139, 23.97542 ] } },
{ "type": "Feature", "properties": { "inst_name": "CHAR KALIKA PUR SHUKURIA  DAKHIL MADRASAH", "eiin": 110904, "inst_type": "Madrasha", "district": "MANIKGANJ", "thana": "DAULATPUR", "mauza": "BRAHMANDI", "long": 89.91508, "lat": 23.97481, "serial": 6758, "isUnique": 1, "field_11": null }, "geometry": { "type": "Point", "coordinates": [ 89.91508, 23.97481 ] } },
{ "type": "Feature", "properties": { "inst_name": "DAULATPUR  dakhil   MADRASHA", "eiin": 131654, "inst_type": "Madrasha", "district": "MANIKGANJ", "thana": "DAULATPUR", "mauza": "RAMCHANDRAPUR", "long": 89.72614, "lat": 23.93531, "serial": 6759, "isUnique": 1, "field_11": null }, "geometry": { "type": "Point", "coordinates": [ 89.72614, 23.93531 ] } },
{ "type": "Feature", "properties": { "inst_name": "ALHAJ PRINCIPAN ABU BOX KHAN KALLN TRUST ISLIMIA MOHILA MADRSHA", "eiin": 131775, "inst_type": "Madrasha", "district": "MANIKGANJ", "thana": "DAULATPUR", "mauza": "RAMCHANDRAPUR", "long": 89.72819, "lat": 23.92342, "serial": 6760, "isUnique": 1, "field_11": null }, "geometry": { "type": "Point", "coordinates": [ 89.72819, 23.92342 ] } },
{ "type": "Feature", "properties": { "inst_name": "BAIRA HIGH SCHOOL", "eiin": 111062, "inst_type": "School", "district": "MANIKGANJ", "thana": "SINGAIR", "mauza": "BOYRA", "long": 90.85069, "lat": 24.77192, "serial": 18516, "isUnique": 1, "field_11": null }, "geometry": { "type": "Point", "coordinates": [ 90.85069, 24.77192 ] } },
{ "type": "Feature", "properties": { "inst_name": "SINGAR PILOT HIGH SCHOOL", "eiin": 111061, "inst_type": "School", "district": "MANIKGANJ", "thana": "SINGAIR", "mauza": "AZIMPUR (PART)", "long": 90.86372, "lat": 24.76167, "serial": 18517, "isUnique": 1, "field_11": null }, "geometry": { "type": "Point", "coordinates": [ 90.86372, 24.76167 ] } },
{ "type": "Feature", "properties": { "inst_name": "GOBINDHAL GHONAPARA MODEL JONIOUR SCHOOL", "eiin": 111077, "inst_type": "School", "district": "MANIKGANJ", "thana": "SINGAIR", "mauza": "BAKCHAR", "long": 90.93172, "lat": 24.79414, "serial": 18518, "isUnique": 1, "field_11": null }, "geometry": { "type": "Point", "coordinates": [ 90.93172, 24.79414 ] } },
{ "type": "Feature", "properties": { "inst_name": "GOLAIDANGA HIGH SCHOOL", "eiin": 111066, "inst_type": "School", "district": "MANIKGANJ", "thana": "SINGAIR", "mauza": "BALDHARA", "long": 90.08994, "lat": 23.82881, "serial": 18520, "isUnique": 1, "field_11": null }, "geometry": { "type": "Point", "coordinates": [ 90.08994, 23.82881 ] } },
{ "type": "Feature", "properties": { "inst_name": "KALIAKAIR KHAN HIGH SCHOOL", "eiin": 111076, "inst_type": "School", "district": "MANIKGANJ", "thana": "SINGAIR", "mauza": "BALDHARA", "long": 90.14731, "lat": 23.81594, "serial": 18521, "isUnique": 1, "field_11": null }, "geometry": { "type": "Point", "coordinates": [ 90.14731, 23.81594 ] } },
{ "type": "Feature", "properties": { "inst_name": "NAVAGRAM HIGH SCHOOL", "eiin": 111063, "inst_type": "School", "district": "MANIKGANJ", "thana": "SINGAIR", "mauza": "KHOJER NABAGRAM", "long": 90.08342, "lat": 23.81056, "serial": 18522, "isUnique": 1, "field_11": null }, "geometry": { "type": "Point", "coordinates": [ 90.08342, 23.81056 ] } },
{ "type": "Feature", "properties": { "inst_name": "KABI NAZRUL HIGH SCHOOL", "eiin": 111069, "inst_type": "School", "district": "MANIKGANJ", "thana": "SINGAIR", "mauza": "BOYRA", "long": 90.09919, "lat": 23.75831, "serial": 18524, "isUnique": 1, "field_11": null }, "geometry": { "type": "Point", "coordinates": [ 90.09919, 23.75831 ] } },
{ "type": "Feature", "properties": { "inst_name": "SHANTIPUR AFARSHA HIGH SCHOOL", "eiin": 111070, "inst_type": "School", "district": "MANIKGANJ", "thana": "SINGAIR", "mauza": "PALPARA", "long": 90.07717, "lat": 23.79594, "serial": 18525, "isUnique": 1, "field_11": null }, "geometry": { "type": "Point", "coordinates": [ 90.07717, 23.79594 ] } },
{ "type": "Feature", "properties": { "inst_name": "CHARIGRAM S A KHAN HIGH SCHOOL", "eiin": 111064, "inst_type": "School", "district": "MANIKGANJ", "thana": "SINGAIR", "mauza": "BARA CHARIGRAM", "long": 90.07097, "lat": 23.77753, "serial": 18526, "isUnique": 1, "field_11": null }, "geometry": { "type": "Point", "coordinates": [ 90.07097, 23.77753 ] } },
{ "type": "Feature", "properties": { "inst_name": "BHUMDAKSHIN HIGH SCHOOL", "eiin": 111075, "inst_type": "School", "district": "MANIKGANJ", "thana": "SINGAIR", "mauza": "KAMURA", "long": 90.10961, "lat": 23.78133, "serial": 18527, "isUnique": 1, "field_11": null }, "geometry": { "type": "Point", "coordinates": [ 90.10961, 23.78133 ] } },
{ "type": "Feature", "properties": { "inst_name": "UNION COUNCIL HIGH SCHOOL", "eiin": 111067, "inst_type": "School", "district": "MANIKGANJ", "thana": "SINGAIR", "mauza": "PURBA BASTA", "long": 90.07411, "lat": 23.78972, "serial": 18528, "isUnique": 1, "field_11": null }, "geometry": { "type": "Point", "coordinates": [ 90.07411, 23.78972 ] } },
{ "type": "Feature", "properties": { "inst_name": "JOYMONTOP HIGH SCHOOL", "eiin": 111060, "inst_type": "School", "district": "MANIKGANJ", "thana": "SINGAIR", "mauza": "JOY MANTAP", "long": 90.12828, "lat": 23.76286, "serial": 18529, "isUnique": 1, "field_11": null }, "geometry": { "type": "Point", "coordinates": [ 90.12828, 23.76286 ] } },
{ "type": "Feature", "properties": { "inst_name": "RAIDAKSHIN KOHINOOR MEMIRIAL HIGH SCHOOL", "eiin": 111068, "inst_type": "School", "district": "MANIKGANJ", "thana": "SINGAIR", "mauza": "ROY DAKSHIN", "long": 90.20192, "lat": 23.80569, "serial": 18530, "isUnique": 1, "field_11": null }, "geometry": { "type": "Point", "coordinates": [ 90.20192, 23.80569 ] } },
{ "type": "Feature", "properties": { "inst_name": "MAJIR UDDIN HIGH SCHOOL", "eiin": 111056, "inst_type": "School", "district": "MANIKGANJ", "thana": "SINGAIR", "mauza": "CHAPRAIL", "long": 90.22528, "lat": 23.81153, "serial": 18531, "isUnique": 1, "field_11": null }, "geometry": { "type": "Point", "coordinates": [ 90.22528, 23.81153 ] } },
{ "type": "Feature", "properties": { "inst_name": "ISLAMPUR NABADIGABTA HIGH SCHOOL", "eiin": 111073, "inst_type": "School", "district": "MANIKGANJ", "thana": "SINGAIR", "mauza": "CHAR KALIGANGA", "long": 90.22875, "lat": 23.81208, "serial": 18532, "isUnique": 1, "field_11": null }, "geometry": { "type": "Point", "coordinates": [ 90.22875, 23.81208 ] } },
{ "type": "Feature", "properties": { "inst_name": "PANISHAIL SHAMSUL ISLAM KHAN HIGH SCHOOL", "eiin": 111072, "inst_type": "School", "district": "MANIKGANJ", "thana": "SINGAIR", "mauza": "PANISAIL", "long": 90.20764, "lat": 23.82178, "serial": 18533, "isUnique": 1, "field_11": null }, "geometry": { "type": "Point", "coordinates": [ 90.20764, 23.82178 ] } },
{ "type": "Feature", "properties": { "inst_name": "JAMIRTTA S.G. HIGH SCHOOL", "eiin": 111059, "inst_type": "School", "district": "MANIKGANJ", "thana": "SINGAIR", "mauza": "JAMIRTA", "long": 90.18256, "lat": 23.80758, "serial": 18534, "isUnique": 1, "field_11": null }, "geometry": { "type": "Point", "coordinates": [ 90.18256, 23.80758 ] } },
{ "type": "Feature", "properties": { "inst_name": "DAKSHIN JAMSHA HIGH SCHOOL", "eiin": 111057, "inst_type": "School", "district": "MANIKGANJ", "thana": "SINGAIR", "mauza": "DAKSHIN JAMSHA", "long": 90.19653, "lat": 23.78386, "serial": 18535, "isUnique": 1, "field_11": null }, "geometry": { "type": "Point", "coordinates": [ 90.19653, 23.78386 ] } },
{ "type": "Feature", "properties": { "inst_name": "BASHIR UDDIN FOUNDATION HIGH SCHOOL", "eiin": 111074, "inst_type": "School", "district": "MANIKGANJ", "thana": "SINGAIR", "mauza": "UTTAR JAMSHA", "long": 90.2235, "lat": 23.70922, "serial": 18536, "isUnique": 1, "field_11": null }, "geometry": { "type": "Point", "coordinates": [ 90.2235, 23.70922 ] } },
{ "type": "Feature", "properties": { "inst_name": "SHAHORAIL HIGH SCHOOL", "eiin": 111065, "inst_type": "School", "district": "MANIKGANJ", "thana": "SINGAIR", "mauza": "SAISTA", "long": 90.22133, "lat": 23.78869, "serial": 18537, "isUnique": 1, "field_11": null }, "geometry": { "type": "Point", "coordinates": [ 90.22133, 23.78869 ] } },
{ "type": "Feature", "properties": { "inst_name": "TALEBPUR ADARSHA HIGH SCHOOL", "eiin": 111055, "inst_type": "School", "district": "MANIKGANJ", "thana": "SINGAIR", "mauza": "TALIBPUR", "long": 90.20094, "lat": 23.76958, "serial": 18538, "isUnique": 1, "field_11": null }, "geometry": { "type": "Point", "coordinates": [ 90.20094, 23.76958 ] } },
{ "type": "Feature", "properties": { "inst_name": "OXFORD ACADEMY", "eiin": 111029, "inst_type": "School", "district": "MANIKGANJ", "thana": "SHIBALAYA", "mauza": "KRISHNAPUR", "long": 90.19381, "lat": 23.76275, "serial": 18539, "isUnique": 1, "field_11": null }, "geometry": { "type": "Point", "coordinates": [ 90.19381, 23.76275 ] } },
{ "type": "Feature", "properties": { "inst_name": "SHAIT GHAR TEOTA HIGH SCHOOL", "eiin": 111045, "inst_type": "School", "district": "MANIKGANJ", "thana": "SHIBALAYA", "mauza": "TEOTA BASET", "long": 90.10197, "lat": 23.72947, "serial": 18540, "isUnique": 1, "field_11": null }, "geometry": { "type": "Point", "coordinates": [ 90.10197, 23.72947 ] } },
{ "type": "Feature", "properties": { "inst_name": "TEOTA ACADEMY", "eiin": 111032, "inst_type": "School", "district": "MANIKGANJ", "thana": "SHIBALAYA", "mauza": "NARAYAN TEOTA", "long": 90.10094, "lat": 23.74397, "serial": 18541, "isUnique": 1, "field_11": null }, "geometry": { "type": "Point", "coordinates": [ 90.10094, 23.74397 ] } },
{ "type": "Feature", "properties": { "inst_name": "UTALI PILOT GIRLS HIGH SCHOOL", "eiin": 111040, "inst_type": "School", "district": "MANIKGANJ", "thana": "SHIBALAYA", "mauza": "KATRASIN", "long": 90.12908, "lat": 23.84347, "serial": 18542, "isUnique": 1, "field_11": null }, "geometry": { "type": "Point", "coordinates": [ 90.12908, 23.84347 ] } },
{ "type": "Feature", "properties": { "inst_name": "RUPSHA Wahed ali HIGh SCHOOL", "eiin": 111041, "inst_type": "School", "district": "MANIKGANJ", "thana": "SHIBALAYA", "mauza": "RUPSA", "long": 89.78903, "lat": 23.83953, "serial": 18543, "isUnique": 1, "field_11": null }, "geometry": { "type": "Point", "coordinates": [ 89.78903, 23.83953 ] } },
{ "type": "Feature", "properties": { "inst_name": "BARADIA JUNIOR HIGH SCHOOL", "eiin": 111047, "inst_type": "School", "district": "MANIKGANJ", "thana": "SHIBALAYA", "mauza": "BARADIA", "long": 89.78006, "lat": 23.87153, "serial": 18544, "isUnique": 1, "field_11": null }, "geometry": { "type": "Point", "coordinates": [ 89.78006, 23.87153 ] } },
{ "type": "Feature", "properties": { "inst_name": "NAYABARI HIGH SCHOOL", "eiin": 111039, "inst_type": "School", "district": "MANIKGANJ", "thana": "SHIBALAYA", "mauza": "RANINAGAR (NAYABARI)", "long": 89.78006, "lat": 23.85761, "serial": 18545, "isUnique": 1, "field_11": null }, "geometry": { "type": "Point", "coordinates": [ 89.78006, 23.85761 ] } },
{ "type": "Feature", "properties": { "inst_name": "UPZILA KENDRIO ABUL GANI HIGH SCHOOL", "eiin": 111036, "inst_type": "School", "district": "MANIKGANJ", "thana": "SHIBALAYA", "mauza": "NIHANDA", "long": 89.77322, "lat": 23.89272, "serial": 18546, "isUnique": 1, "field_11": null }, "geometry": { "type": "Point", "coordinates": [ 89.77322, 23.89272 ] } },
{ "type": "Feature", "properties": { "inst_name": "NALI BARARIA KRISHNA CHONDRA HIGH SCHOOL", "eiin": 111033, "inst_type": "School", "district": "MANIKGANJ", "thana": "SHIBALAYA", "mauza": "NALI", "long": 89.81781, "lat": 23.84831, "serial": 18547, "isUnique": 1, "field_11": null }, "geometry": { "type": "Point", "coordinates": [ 89.81781, 23.84831 ] } },
{ "type": "Feature", "properties": { "inst_name": "BARANGAIL GOPAL CHANDAR HIGH SCHOOL", "eiin": 111034, "inst_type": "School", "district": "MANIKGANJ", "thana": "SHIBALAYA", "mauza": "BARANGAIL", "long": 89.83289, "lat": 23.79592, "serial": 18548, "isUnique": 1, "field_11": null }, "geometry": { "type": "Point", "coordinates": [ 89.83289, 23.79592 ] } },
{ "type": "Feature", "properties": { "inst_name": "MOHADEBPUR GIRLS HIGH SCHOOL", "eiin": 111043, "inst_type": "School", "district": "MANIKGANJ", "thana": "SHIBALAYA", "mauza": "MAHADEBPUR", "long": 89.81986, "lat": 23.866, "serial": 18549, "isUnique": 1, "field_11": null }, "geometry": { "type": "Point", "coordinates": [ 89.81986, 23.866 ] } },
{ "type": "Feature", "properties": { "inst_name": "BAJPARA HIGH SCHOOL", "eiin": 111048, "inst_type": "School", "district": "MANIKGANJ", "thana": "SHIBALAYA", "mauza": "LAKSHAN KANDI", "long": 89.82292, "lat": 23.84611, "serial": 18550, "isUnique": 1, "field_11": null }, "geometry": { "type": "Point", "coordinates": [ 89.82292, 23.84611 ] } },
{ "type": "Feature", "properties": { "inst_name": "JAMUNABAD HIGH  SCHOOL", "eiin": 111044, "inst_type": "School", "district": "MANIKGANJ", "thana": "SHIBALAYA", "mauza": "SAKRAIL", "long": 89.81931, "lat": 23.79242, "serial": 18551, "isUnique": 1, "field_11": null }, "geometry": { "type": "Point", "coordinates": [ 89.81931, 23.79242 ] } },
{ "type": "Feature", "properties": { "inst_name": "DHAKAIJORA HAZI KORBAN ALI MEMORIAL INS", "eiin": 111035, "inst_type": "School", "district": "MANIKGANJ", "thana": "SHIBALAYA", "mauza": "PURBA SAKRAIL", "long": 89.87086, "lat": 23.851, "serial": 18552, "isUnique": 1, "field_11": null }, "geometry": { "type": "Point", "coordinates": [ 89.87086, 23.851 ] } },
{ "type": "Feature", "properties": { "inst_name": "SHAKRAIL HIGH SCHOOL", "eiin": 111038, "inst_type": "School", "district": "MANIKGANJ", "thana": "SHIBALAYA", "mauza": "SAKRAIL", "long": 89.88353, "lat": 23.85208, "serial": 18553, "isUnique": 1, "field_11": null }, "geometry": { "type": "Point", "coordinates": [ 89.88353, 23.85208 ] } },
{ "type": "Feature", "properties": { "inst_name": "ABDUL JALIL ACADEMY", "eiin": 111046, "inst_type": "School", "district": "MANIKGANJ", "thana": "SHIBALAYA", "mauza": "ANAYPUR", "long": 89.8725, "lat": 23.85331, "serial": 18554, "isUnique": 1, "field_11": null }, "geometry": { "type": "Point", "coordinates": [ 89.8725, 23.85331 ] } },
{ "type": "Feature", "properties": { "inst_name": "ARICHA BELAYET HOSSAIN HIGH SCHOOL", "eiin": 111042, "inst_type": "School", "district": "MANIKGANJ", "thana": "SHIBALAYA", "mauza": "SHIBALAYA", "long": 89.91319, "lat": 23.81875, "serial": 18555, "isUnique": 1, "field_11": null }, "geometry": { "type": "Point", "coordinates": [ 89.91319, 23.81875 ] } },
{ "type": "Feature", "properties": { "inst_name": "SHIVALAYA GOVT. HIGH SCHOOL", "eiin": 111031, "inst_type": "School", "district": "MANIKGANJ", "thana": "SHIBALAYA", "mauza": "SHIBALAYA", "long": 89.86297, "lat": 23.78992, "serial": 18556, "isUnique": 1, "field_11": null }, "geometry": { "type": "Point", "coordinates": [ 89.86297, 23.78992 ] } },
{ "type": "Feature", "properties": { "inst_name": "SATURA PILOT GIRL'S HIGH SCHOOL", "eiin": 111014, "inst_type": "School", "district": "MANIKGANJ", "thana": "SATURIA", "mauza": "KAONARA", "long": 89.78675, "lat": 23.837, "serial": 18557, "isUnique": 1, "field_11": null }, "geometry": { "type": "Point", "coordinates": [ 89.78675, 23.837 ] } },
{ "type": "Feature", "properties": { "inst_name": "SATURIA ADARSHA PILOT HIGH SCHOOL", "eiin": 111005, "inst_type": "School", "district": "MANIKGANJ", "thana": "SATURIA", "mauza": "KAONARA", "long": 89.78308, "lat": 23.83606, "serial": 18558, "isUnique": 1, "field_11": null }, "geometry": { "type": "Point", "coordinates": [ 89.78308, 23.83606 ] } },
{ "type": "Feature", "properties": { "inst_name": "MOHISHALOHA JABBARIA HIGH SCHOOL", "eiin": 111008, "inst_type": "School", "district": "MANIKGANJ", "thana": "SATURIA", "mauza": "KARANA PARA", "long": 89.79375, "lat": 23.83872, "serial": 18559, "isUnique": 1, "field_11": null }, "geometry": { "type": "Point", "coordinates": [ 89.79375, 23.83872 ] } },
{ "type": "Feature", "properties": { "inst_name": "DHULLA B.M HIGH SCHOOL", "eiin": 111007, "inst_type": "School", "district": "MANIKGANJ", "thana": "SATURIA", "mauza": "DHULLA", "long": 90.04269, "lat": 23.99947, "serial": 18560, "isUnique": 1, "field_11": null }, "geometry": { "type": "Point", "coordinates": [ 90.04269, 23.99947 ] } },
{ "type": "Feature", "properties": { "inst_name": "FAIZUN NESA HIGH SCHOOL", "eiin": 111011, "inst_type": "School", "district": "MANIKGANJ", "thana": "SATURIA", "mauza": "BARAID", "long": 89.98614, "lat": 23.97597, "serial": 18561, "isUnique": 2, "field_11": null }, "geometry": { "type": "Point", "coordinates": [ 89.98614, 23.97597 ] } },
{ "type": "Feature", "properties": { "inst_name": "DARAGRAM M. L. HIGH SCHOOL", "eiin": 111009, "inst_type": "School", "district": "MANIKGANJ", "thana": "SATURIA", "mauza": "DARAGRAM", "long": 90.03706, "lat": 23.97719, "serial": 18562, "isUnique": 1, "field_11": null }, "geometry": { "type": "Point", "coordinates": [ 90.03706, 23.97719 ] } },
{ "type": "Feature", "properties": { "inst_name": "GOPALPUR HIGH SCHOOL", "eiin": 111019, "inst_type": "School", "district": "MANIKGANJ", "thana": "SATURIA", "mauza": "GOPALPUR", "long": 90.04244, "lat": 23.95714, "serial": 18563, "isUnique": 1, "field_11": null }, "geometry": { "type": "Point", "coordinates": [ 90.04244, 23.95714 ] } },
{ "type": "Feature", "properties": { "inst_name": "KAITTA GIRLS HIGH SCHOOL", "eiin": 111016, "inst_type": "School", "district": "MANIKGANJ", "thana": "SATURIA", "mauza": "CHHOTA DHANKORA", "long": 89.93486, "lat": 23.98867, "serial": 18564, "isUnique": 1, "field_11": null }, "geometry": { "type": "Point", "coordinates": [ 89.93486, 23.98867 ] } },
{ "type": "Feature", "properties": { "inst_name": "CHARTILLI ADARSHA HIGH SCHOOL", "eiin": 111017, "inst_type": "School", "district": "MANIKGANJ", "thana": "SATURIA", "mauza": "CHAR TILLI", "long": 89.98764, "lat": 23.97583, "serial": 18565, "isUnique": 1, "field_11": null }, "geometry": { "type": "Point", "coordinates": [ 89.98764, 23.97583 ] } },
{ "type": "Feature", "properties": { "inst_name": "HARGONJ SHAHID SMRITI HIGH SCHOOL", "eiin": 111012, "inst_type": "School", "district": "MANIKGANJ", "thana": "SATURIA", "mauza": "HARGAZ", "long": 89.95983, "lat": 23.99508, "serial": 18566, "isUnique": 1, "field_11": null }, "geometry": { "type": "Point", "coordinates": [ 89.95983, 23.99508 ] } },
{ "type": "Feature", "properties": { "inst_name": "DHANKORA GIRISH INSTITUTION", "eiin": 111006, "inst_type": "School", "district": "MANIKGANJ", "thana": "SATURIA", "mauza": "KHALI DHANKORA", "long": 90.03433, "lat": 23.97017, "serial": 18567, "isUnique": 1, "field_11": null }, "geometry": { "type": "Point", "coordinates": [ 90.03433, 23.97017 ] } },
{ "type": "Feature", "properties": { "inst_name": "ABDUR RAHMAN KHAN HIGH SCHOOL", "eiin": 111015, "inst_type": "School", "district": "MANIKGANJ", "thana": "SATURIA", "mauza": "PATILLA PARA", "long": 89.96269, "lat": 23.97064, "serial": 18568, "isUnique": 1, "field_11": null }, "geometry": { "type": "Point", "coordinates": [ 89.96269, 23.97064 ] } },
{ "type": "Feature", "properties": { "inst_name": "BALIATI ISWAR CHANDRA HIGH SCHOOL", "eiin": 111004, "inst_type": "School", "district": "MANIKGANJ", "thana": "SATURIA", "mauza": "BALIATI", "long": 90.01169, "lat": 23.95322, "serial": 18569, "isUnique": 1, "field_11": null }, "geometry": { "type": "Point", "coordinates": [ 90.01169, 23.95322 ] } },
{ "type": "Feature", "properties": { "inst_name": "FUKURHATI KANDAPARA MAJIBAR RAHMAN HIGH SCHOOL", "eiin": 111018, "inst_type": "School", "district": "MANIKGANJ", "thana": "SATURIA", "mauza": "KRISHNAPURA", "long": 90.04986, "lat": 23.91564, "serial": 18570, "isUnique": 1, "field_11": null }, "geometry": { "type": "Point", "coordinates": [ 90.04986, 23.91564 ] } },
{ "type": "Feature", "properties": { "inst_name": "BALORA MONNO ADARSHA UCHCHA BIDYANIKETON", "eiin": 110941, "inst_type": "School", "district": "MANIKGANJ", "thana": "HARIRAMPUR", "mauza": "BALARA", "long": 90.04558, "lat": 23.89803, "serial": 18571, "isUnique": 1, "field_11": null }, "geometry": { "type": "Point", "coordinates": [ 90.04558, 23.89803 ] } },
{ "type": "Feature", "properties": { "inst_name": "MANIKGANJ GOVT. HIGH SCHOOL", "eiin": 110957, "inst_type": "School", "district": "MANIKGANJ", "thana": "MANIKGANJ SADAR", "mauza": "PASCHIM DASHORA", "long": 90.04314, "lat": 23.99425, "serial": 18572, "isUnique": 1, "field_11": null }, "geometry": { "type": "Point", "coordinates": [ 90.04314, 23.99425 ] } },
{ "type": "Feature", "properties": { "inst_name": "MATTA HIGH SCHOOL", "eiin": 110970, "inst_type": "School", "district": "MANIKGANJ", "thana": "MANIKGANJ SADAR", "mauza": "PATAL", "long": 90.01828, "lat": 23.75067, "serial": 18574, "isUnique": 1, "field_11": null }, "geometry": { "type": "Point", "coordinates": [ 90.01828, 23.75067 ] } },
{ "type": "Feature", "properties": { "inst_name": "MANIKGANJ S.K. GOVT. GIRLS SCHOOL", "eiin": 110958, "inst_type": "School", "district": "MANIKGANJ", "thana": "MANIKGANJ SADAR", "mauza": "PASCHIM DASHORA", "long": 90.00281, "lat": 23.86053, "serial": 18575, "isUnique": 1, "field_11": null }, "geometry": { "type": "Point", "coordinates": [ 90.00281, 23.86053 ] } },
{ "type": "Feature", "properties": { "inst_name": "SHAHID TITUMIR ACADEMY MANIKGANJ", "eiin": 110954, "inst_type": "School", "district": "MANIKGANJ", "thana": "MANIKGANJ SADAR", "mauza": "PASCHIM DASHORA", "long": 89.96686, "lat": 23.85267, "serial": 18576, "isUnique": 1, "field_11": null }, "geometry": { "type": "Point", "coordinates": [ 89.96686, 23.85267 ] } },
{ "type": "Feature", "properties": { "inst_name": "AFROZA RAMZAN  GIRLS HIGH SCHOOL", "eiin": 110976, "inst_type": "School", "district": "MANIKGANJ", "thana": "MANIKGANJ SADAR", "mauza": "PASCHIM DASHORA", "long": 90.01164, "lat": 23.85953, "serial": 18577, "isUnique": 1, "field_11": null }, "geometry": { "type": "Point", "coordinates": [ 90.01164, 23.85953 ] } },
{ "type": "Feature", "properties": { "inst_name": "MANIKGONJ MODEL HIGH SCHOOL", "eiin": 110956, "inst_type": "School", "district": "MANIKGANJ", "thana": "MANIKGANJ SADAR", "mauza": "PASCHIM DASHORA", "long": 90.00778, "lat": 23.852, "serial": 18578, "isUnique": 1, "field_11": null }, "geometry": { "type": "Point", "coordinates": [ 90.00778, 23.852 ] } },
{ "type": "Feature", "properties": { "inst_name": "JOYNAGAR HIGH SCHOOL", "eiin": 110968, "inst_type": "School", "district": "MANIKGANJ", "thana": "MANIKGANJ SADAR", "mauza": "BAHIRKHOLA", "long": 90.00439, "lat": 23.86022, "serial": 18579, "isUnique": 1, "field_11": null }, "geometry": { "type": "Point", "coordinates": [ 90.00439, 23.86022 ] } },
{ "type": "Feature", "properties": { "inst_name": "AFTAB UDDIN MEMORIAL HIGH SCHOOL", "eiin": 110969, "inst_type": "School", "district": "MANIKGANJ", "thana": "MANIKGANJ SADAR", "mauza": "PASCHIM BANDUTIA", "long": 90.00783, "lat": 23.85864, "serial": 18580, "isUnique": 1, "field_11": null }, "geometry": { "type": "Point", "coordinates": [ 90.00783, 23.85864 ] } },
{ "type": "Feature", "properties": { "inst_name": "NABARUN HIGH SCHOOL", "eiin": 110967, "inst_type": "School", "district": "MANIKGANJ", "thana": "MANIKGANJ SADAR", "mauza": "BARA BARIAIL", "long": 90.00531, "lat": 23.86022, "serial": 18581, "isUnique": 1, "field_11": null }, "geometry": { "type": "Point", "coordinates": [ 90.00531, 23.86022 ] } },
{ "type": "Feature", "properties": { "inst_name": "ZAGIR HIGH SCHOOL", "eiin": 110979, "inst_type": "School", "district": "MANIKGANJ", "thana": "MANIKGANJ SADAR", "mauza": "BOITARA", "long": 89.99717, "lat": 23.86169, "serial": 18582, "isUnique": 1, "field_11": null }, "geometry": { "type": "Point", "coordinates": [ 89.99717, 23.86169 ] } },
{ "type": "Feature", "properties": { "inst_name": "ATIGRAM A. C HIGH SCHOOL", "eiin": 110960, "inst_type": "School", "district": "MANIKGANJ", "thana": "MANIKGANJ SADAR", "mauza": "TARAF ATIGRAM", "long": 89.995, "lat": 23.85178, "serial": 18583, "isUnique": 1, "field_11": null }, "geometry": { "type": "Point", "coordinates": [ 89.995, 23.85178 ] } },
{ "type": "Feature", "properties": { "inst_name": "JATIR JANAK BANGABANDHU SHEKH MUJIBUR RAHMAN HIGH SCHOOL", "eiin": 110987, "inst_type": "School", "district": "MANIKGANJ", "thana": "MANIKGANJ SADAR", "mauza": "MALUTIA", "long": 90.01344, "lat": 23.84133, "serial": 18584, "isUnique": 1, "field_11": null }, "geometry": { "type": "Point", "coordinates": [ 90.01344, 23.84133 ] } },
{ "type": "Feature", "properties": { "inst_name": "JAYRA HIGH SCHOOL", "eiin": 110982, "inst_type": "School", "district": "MANIKGANJ", "thana": "MANIKGANJ SADAR", "mauza": "JOYRA", "long": 90.0175, "lat": 23.87686, "serial": 18585, "isUnique": 1, "field_11": null }, "geometry": { "type": "Point", "coordinates": [ 90.0175, 23.87686 ] } },
{ "type": "Feature", "properties": { "inst_name": "DAUTIA GAR PARA RAHIMA HAFIJ HIGH SCHOOL", "eiin": 110952, "inst_type": "School", "district": "MANIKGANJ", "thana": "MANIKGANJ SADAR", "mauza": "BARA DAWTIA", "long": 90.096, "lat": 23.86872, "serial": 18586, "isUnique": 1, "field_11": null }, "geometry": { "type": "Point", "coordinates": [ 90.096, 23.86872 ] } },
{ "type": "Feature", "properties": { "inst_name": "MULJAN HIGH SCHOOL", "eiin": 110974, "inst_type": "School", "district": "MANIKGANJ", "thana": "MANIKGANJ SADAR", "mauza": "MULJAN", "long": 90.09483, "lat": 23.89597, "serial": 18587, "isUnique": 1, "field_11": null }, "geometry": { "type": "Point", "coordinates": [ 90.09483, 23.89597 ] } },
{ "type": "Feature", "properties": { "inst_name": "GARPARA DIGHI GIRLS HIGH SCHOOL", "eiin": 110981, "inst_type": "School", "district": "MANIKGANJ", "thana": "MANIKGANJ SADAR", "mauza": "GHONA", "long": 90.12086, "lat": 23.86803, "serial": 18588, "isUnique": 1, "field_11": null }, "geometry": { "type": "Point", "coordinates": [ 90.12086, 23.86803 ] } },
{ "type": "Feature", "properties": { "inst_name": "GARPARA  HIGH SCHOOL", "eiin": 110962, "inst_type": "School", "district": "MANIKGANJ", "thana": "MANIKGANJ SADAR", "mauza": "DHAKUA PARA", "long": 89.99786, "lat": 23.87042, "serial": 18589, "isUnique": 1, "field_11": null }, "geometry": { "type": "Point", "coordinates": [ 89.99786, 23.87042 ] } },
{ "type": "Feature", "properties": { "inst_name": "BANPARIL HIGH SCHOOL", "eiin": 110983, "inst_type": "School", "district": "MANIKGANJ", "thana": "MANIKGANJ SADAR", "mauza": "UTTAR BANPARIL", "long": 89.96478, "lat": 23.888, "serial": 18590, "isUnique": 1, "field_11": null }, "geometry": { "type": "Point", "coordinates": [ 89.96478, 23.888 ] } },
{ "type": "Feature", "properties": { "inst_name": "BARUNDI HIGH SCHOOL", "eiin": 110975, "inst_type": "School", "district": "MANIKGANJ", "thana": "MANIKGANJ SADAR", "mauza": "BARA BARUNDI", "long": 89.97081, "lat": 23.87392, "serial": 18591, "isUnique": 1, "field_11": null }, "geometry": { "type": "Point", "coordinates": [ 89.97081, 23.87392 ] } },
{ "type": "Feature", "properties": { "inst_name": "HATIPARA M.L. HIGH SCHOOL", "eiin": 110955, "inst_type": "School", "district": "MANIKGANJ", "thana": "MANIKGANJ SADAR", "mauza": "HATI PARA", "long": 89.97092, "lat": 23.89211, "serial": 18592, "isUnique": 1, "field_11": null }, "geometry": { "type": "Point", "coordinates": [ 89.97092, 23.89211 ] } },
{ "type": "Feature", "properties": { "inst_name": "J K HIGH SCHOOL", "eiin": 110988, "inst_type": "School", "district": "MANIKGANJ", "thana": "MANIKGANJ SADAR", "mauza": "MATTA", "long": 89.96539, "lat": 23.88747, "serial": 18593, "isUnique": 1, "field_11": null }, "geometry": { "type": "Point", "coordinates": [ 89.96539, 23.88747 ] } },
{ "type": "Feature", "properties": { "inst_name": "GARPARA NEW MODEL HIGH SCHOOL", "eiin": 110950, "inst_type": "School", "district": "MANIKGANJ", "thana": "MANIKGANJ SADAR", "mauza": "CHANDAR", "long": 90.05689, "lat": 23.73128, "serial": 18594, "isUnique": 1, "field_11": null }, "geometry": { "type": "Point", "coordinates": [ 90.05689, 23.73128 ] } },
{ "type": "Feature", "properties": { "inst_name": "B.K.G HIGH SCHOOL", "eiin": 110980, "inst_type": "School", "district": "MANIKGANJ", "thana": "MANIKGANJ SADAR", "mauza": "BARAHI", "long": 90.06742, "lat": 23.76269, "serial": 18595, "isUnique": 1, "field_11": null }, "geometry": { "type": "Point", "coordinates": [ 90.06742, 23.76269 ] } },
{ "type": "Feature", "properties": { "inst_name": "MUCKTY JUDDAH SREETY HIGH SCHOOL", "eiin": 110986, "inst_type": "School", "district": "MANIKGANJ", "thana": "MANIKGANJ SADAR", "mauza": "CHAR MATTA", "long": 90.03803, "lat": 23.74847, "serial": 18596, "isUnique": 1, "field_11": null }, "geometry": { "type": "Point", "coordinates": [ 90.03803, 23.74847 ] } },
{ "type": "Feature", "properties": { "inst_name": "KATIGRAM HIGH SCHOOL", "eiin": 110966, "inst_type": "School", "district": "MANIKGANJ", "thana": "MANIKGANJ SADAR", "mauza": "KANDA PAULI", "long": 90.06344, "lat": 23.73325, "serial": 18597, "isUnique": 1, "field_11": null }, "geometry": { "type": "Point", "coordinates": [ 90.06344, 23.73325 ] } },
{ "type": "Feature", "properties": { "inst_name": "RAJIBPUR HIGH SCHOOL", "eiin": 110971, "inst_type": "School", "district": "MANIKGANJ", "thana": "MANIKGANJ SADAR", "mauza": "ALIGANJ", "long": 90.04108, "lat": 23.85647, "serial": 18598, "isUnique": 1, "field_11": null }, "geometry": { "type": "Point", "coordinates": [ 90.04108, 23.85647 ] } },
{ "type": "Feature", "properties": { "inst_name": "KANIZ FATEMA GIRLS SCHOOL", "eiin": 130749, "inst_type": "School", "district": "MANIKGANJ", "thana": "MANIKGANJ SADAR", "mauza": "PACHH BARAIL", "long": 90.07036, "lat": 23.84592, "serial": 18599, "isUnique": 1, "field_11": null }, "geometry": { "type": "Point", "coordinates": [ 90.07036, 23.84592 ] } },
{ "type": "Feature", "properties": { "inst_name": "KAFATIA HIGH SCHOOL", "eiin": 110973, "inst_type": "School", "district": "MANIKGANJ", "thana": "MANIKGANJ SADAR", "mauza": "PARMATTA CHHOTA KHANDA", "long": 90.04864, "lat": 23.86731, "serial": 18600, "isUnique": 1, "field_11": null }, "geometry": { "type": "Point", "coordinates": [ 90.04864, 23.86731 ] } },
{ "type": "Feature", "properties": { "inst_name": "RAMKRISHNAPUR M.A.JALIL HIGH SCHOOL", "eiin": 110937, "inst_type": "School", "district": "MANIKGANJ", "thana": "HARIRAMPUR", "mauza": "MANIKNAGAR", "long": 90.06989, "lat": 23.86475, "serial": 18601, "isUnique": 1, "field_11": null }, "geometry": { "type": "Point", "coordinates": [ 90.06989, 23.86475 ] } },
{ "type": "Feature", "properties": { "inst_name": "M.A. RAZZAK ADARSHA HIGH SCHOOL", "eiin": 110944, "inst_type": "School", "district": "MANIKGANJ", "thana": "HARIRAMPUR", "mauza": "ANDHAR MANIK", "long": 90.02533, "lat": 23.79475, "serial": 18602, "isUnique": 1, "field_11": null }, "geometry": { "type": "Point", "coordinates": [ 90.02533, 23.79475 ] } },
{ "type": "Feature", "properties": { "inst_name": "PATGRAM ANATH BANDHU GOVT. HIGH SCHOOL", "eiin": 110932, "inst_type": "School", "district": "MANIKGANJ", "thana": "HARIRAMPUR", "mauza": "BOYRA", "long": 90.08342, "lat": 23.82972, "serial": 18603, "isUnique": 1, "field_11": null }, "geometry": { "type": "Point", "coordinates": [ 90.08342, 23.82972 ] } },
{ "type": "Feature", "properties": { "inst_name": "DIABARI HIGH SCHOOL", "eiin": 110936, "inst_type": "School", "district": "MANIKGANJ", "thana": "HARIRAMPUR", "mauza": "HASMILAN", "long": 89.90858, "lat": 23.77075, "serial": 18604, "isUnique": 1, "field_11": null }, "geometry": { "type": "Point", "coordinates": [ 89.90858, 23.77075 ] } },
{ "type": "Feature", "properties": { "inst_name": "SHIRIN ALI CHOWDHURY GIRLS SCHOOL", "eiin": 133261, "inst_type": "School", "district": "MANIKGANJ", "thana": "HARIRAMPUR", "mauza": "BAIKUNTHAPUR", "long": 89.96708, "lat": 23.73825, "serial": 18605, "isUnique": 1, "field_11": null }, "geometry": { "type": "Point", "coordinates": [ 89.96708, 23.73825 ] } },
{ "type": "Feature", "properties": { "inst_name": "JATRAPUR ADARSHA HIGH SCHOOL", "eiin": 110940, "inst_type": "School", "district": "MANIKGANJ", "thana": "HARIRAMPUR", "mauza": "THANA JATRAPUR", "long": 89.97053, "lat": 23.74083, "serial": 18606, "isUnique": 1, "field_11": null }, "geometry": { "type": "Point", "coordinates": [ 89.97053, 23.74083 ] } },
{ "type": "Feature", "properties": { "inst_name": "KOBI JAHANARA ARJU HIGH SCHOOL", "eiin": 110942, "inst_type": "School", "district": "MANIKGANJ", "thana": "HARIRAMPUR", "mauza": "PURBA KHALILPUR", "long": 89.96539, "lat": 23.73686, "serial": 18607, "isUnique": 1, "field_11": null }, "geometry": { "type": "Point", "coordinates": [ 89.96539, 23.73686 ] } },
{ "type": "Feature", "properties": { "inst_name": "BOALI HIGH SCHOOL", "eiin": 110935, "inst_type": "School", "district": "MANIKGANJ", "thana": "HARIRAMPUR", "mauza": "AILKUNDI", "long": 89.97258, "lat": 23.754, "serial": 18608, "isUnique": 1, "field_11": null }, "geometry": { "type": "Point", "coordinates": [ 89.97258, 23.754 ] } },
{ "type": "Feature", "properties": { "inst_name": "IBRAHIMPUR ISWAR CHANDRA HIGH SCHOOL", "eiin": 110933, "inst_type": "School", "district": "MANIKGANJ", "thana": "HARIRAMPUR", "mauza": "DHULSUNRA", "long": 89.96506, "lat": 23.75667, "serial": 18609, "isUnique": 1, "field_11": null }, "geometry": { "type": "Point", "coordinates": [ 89.96506, 23.75667 ] } },
{ "type": "Feature", "properties": { "inst_name": "JHITKA PILOT GIRLS HIGH SCHOOL", "eiin": 110938, "inst_type": "School", "district": "MANIKGANJ", "thana": "HARIRAMPUR", "mauza": "KALIKAPUR", "long": 89.99553, "lat": 23.76186, "serial": 18610, "isUnique": 1, "field_11": null }, "geometry": { "type": "Point", "coordinates": [ 89.99553, 23.76186 ] } },
{ "type": "Feature", "properties": { "inst_name": "MALUCHI HIGH SCHOOL", "eiin": 111030, "inst_type": "School", "district": "MANIKGANJ", "thana": "SHIBALAYA", "mauza": "CHHOTA KOKRANDA", "long": 89.91375, "lat": 23.77464, "serial": 18611, "isUnique": 1, "field_11": null }, "geometry": { "type": "Point", "coordinates": [ 89.91375, 23.77464 ] } },
{ "type": "Feature", "properties": { "inst_name": "TEROSREE K N INSTITUTION", "eiin": 110908, "inst_type": "School", "district": "MANIKGANJ", "thana": "GHIOR", "mauza": "PASCHIM PAILA", "long": 90.03814, "lat": 23.71219, "serial": 18612, "isUnique": 1, "field_11": null }, "geometry": { "type": "Point", "coordinates": [ 90.03814, 23.71219 ] } },
{ "type": "Feature", "properties": { "inst_name": "K.B.M HIGH SCHOOL", "eiin": 110925, "inst_type": "School", "district": "MANIKGANJ", "thana": "GHIOR", "mauza": "ASHAPUR", "long": 89.91419, "lat": 23.77258, "serial": 18613, "isUnique": 1, "field_11": null }, "geometry": { "type": "Point", "coordinates": [ 89.91419, 23.77258 ] } },
{ "type": "Feature", "properties": { "inst_name": "SINGURI UNION  HIGH SCHOOL", "eiin": 110913, "inst_type": "School", "district": "MANIKGANJ", "thana": "GHIOR", "mauza": "SWALPA SIWJURI", "long": 89.9575, "lat": 23.76214, "serial": 18614, "isUnique": 1, "field_11": null }, "geometry": { "type": "Point", "coordinates": [ 89.9575, 23.76214 ] } },
{ "type": "Feature", "properties": { "inst_name": "HELACHIA MAJEDA CHOWDHURY HIGH SCHOOL", "eiin": 110918, "inst_type": "School", "district": "MANIKGANJ", "thana": "GHIOR", "mauza": "HELACHIA", "long": 89.87719, "lat": 23.92689, "serial": 18615, "isUnique": 1, "field_11": null }, "geometry": { "type": "Point", "coordinates": [ 89.87719, 23.92689 ] } },
{ "type": "Feature", "properties": { "inst_name": "KALTA AVOYA CHARAN  HIGH SCHOOL", "eiin": 110910, "inst_type": "School", "district": "MANIKGANJ", "thana": "GHIOR", "mauza": "GACHHKALTA", "long": 89.92444, "lat": 23.90903, "serial": 18616, "isUnique": 1, "field_11": null }, "geometry": { "type": "Point", "coordinates": [ 89.92444, 23.90903 ] } },
{ "type": "Feature", "properties": { "inst_name": "GHIOR PILOT GIRLS HIGH SCHOOL", "eiin": 110912, "inst_type": "School", "district": "MANIKGANJ", "thana": "GHIOR", "mauza": "GHIOR", "long": 89.91086, "lat": 23.91192, "serial": 18617, "isUnique": 1, "field_11": null }, "geometry": { "type": "Point", "coordinates": [ 89.91086, 23.91192 ] } },
{ "type": "Feature", "properties": { "inst_name": "KAFIL UDDIN DARJEE HIGH SCHOOL", "eiin": 110921, "inst_type": "School", "district": "MANIKGANJ", "thana": "GHIOR", "mauza": "KUSTA", "long": 89.87914, "lat": 23.89067, "serial": 18618, "isUnique": 1, "field_11": null }, "geometry": { "type": "Point", "coordinates": [ 89.87914, 23.89067 ] } },
{ "type": "Feature", "properties": { "inst_name": "MANSUR UDDIN ML. HIGH SCHOOL", "eiin": 110919, "inst_type": "School", "district": "MANIKGANJ", "thana": "GHIOR", "mauza": "KELLAI", "long": 89.94711, "lat": 23.80061, "serial": 18619, "isUnique": 1, "field_11": null }, "geometry": { "type": "Point", "coordinates": [ 89.94711, 23.80061 ] } },
{ "type": "Feature", "properties": { "inst_name": "KARAJANA A B N HIGH SCHOOL", "eiin": 110920, "inst_type": "School", "district": "MANIKGANJ", "thana": "GHIOR", "mauza": "KARJANA", "long": 89.87172, "lat": 23.90081, "serial": 18620, "isUnique": 1, "field_11": null }, "geometry": { "type": "Point", "coordinates": [ 89.87172, 23.90081 ] } },
{ "type": "Feature", "properties": { "inst_name": "MOUHOLI HIGH SCHOOL", "eiin": 110922, "inst_type": "School", "district": "MANIKGANJ", "thana": "GHIOR", "mauza": "MAUHALI", "long": 89.86922, "lat": 23.90286, "serial": 18621, "isUnique": 1, "field_11": null }, "geometry": { "type": "Point", "coordinates": [ 89.86922, 23.90286 ] } },
{ "type": "Feature", "properties": { "inst_name": "GHIOR D.N. PILOT HIGH SCHOOL", "eiin": 110909, "inst_type": "School", "district": "MANIKGANJ", "thana": "GHIOR", "mauza": "GHIOR", "long": 89.87144, "lat": 23.90222, "serial": 18622, "isUnique": 1, "field_11": null }, "geometry": { "type": "Point", "coordinates": [ 89.87144, 23.90222 ] } },
{ "type": "Feature", "properties": { "inst_name": "UTTAR TARA JANATA HIGH SCHOOL", "eiin": 110923, "inst_type": "School", "district": "MANIKGANJ", "thana": "GHIOR", "mauza": "TARA", "long": 89.9365, "lat": 23.82728, "serial": 18624, "isUnique": 1, "field_11": null }, "geometry": { "type": "Point", "coordinates": [ 89.9365, 23.82728 ] } },
{ "type": "Feature", "properties": { "inst_name": "ANCHALIK HIGH SCHOOL", "eiin": 110917, "inst_type": "School", "district": "MANIKGANJ", "thana": "GHIOR", "mauza": "PHULHARA", "long": 89.82692, "lat": 23.87258, "serial": 18625, "isUnique": 1, "field_11": null }, "geometry": { "type": "Point", "coordinates": [ 89.82692, 23.87258 ] } },
{ "type": "Feature", "properties": { "inst_name": "HIJULIA V.R.N  HIGH SCHOOL", "eiin": 110926, "inst_type": "School", "district": "MANIKGANJ", "thana": "GHIOR", "mauza": "HIJULIA", "long": 89.85703, "lat": 23.864, "serial": 18626, "isUnique": 1, "field_11": null }, "geometry": { "type": "Point", "coordinates": [ 89.85703, 23.864 ] } },
{ "type": "Feature", "properties": { "inst_name": "BAINYA RAHIZ MOLLA HIGH SCHOOL", "eiin": 110916, "inst_type": "School", "district": "MANIKGANJ", "thana": "GHIOR", "mauza": "BANIA PRASAD", "long": 89.87294, "lat": 23.90014, "serial": 18627, "isUnique": 1, "field_11": null }, "geometry": { "type": "Point", "coordinates": [ 89.87294, 23.90014 ] } },
{ "type": "Feature", "properties": { "inst_name": "BALIAKHORA UNION HIGH SCHOOL", "eiin": 110914, "inst_type": "School", "district": "MANIKGANJ", "thana": "GHIOR", "mauza": "PENCHARKANDA", "long": 89.95394, "lat": 23.85869, "serial": 18628, "isUnique": 1, "field_11": null }, "geometry": { "type": "Point", "coordinates": [ 89.95394, 23.85869 ] } },
{ "type": "Feature", "properties": { "inst_name": "SHAHEED SMARANIKA GIRLS HIGH SCHOOL", "eiin": 110915, "inst_type": "School", "district": "MANIKGANJ", "thana": "GHIOR", "mauza": "JABRA", "long": 89.84664, "lat": 23.88661, "serial": 18629, "isUnique": 1, "field_11": null }, "geometry": { "type": "Point", "coordinates": [ 89.84664, 23.88661 ] } },
{ "type": "Feature", "properties": { "inst_name": "GARPARA ARZUBANU HIGH SCHOOL", "eiin": 110965, "inst_type": "School", "district": "MANIKGANJ", "thana": "MANIKGANJ SADAR", "mauza": "GARPARA", "long": 89.83394, "lat": 23.89175, "serial": 18630, "isUnique": 1, "field_11": null }, "geometry": { "type": "Point", "coordinates": [ 89.83394, 23.89175 ] } },
{ "type": "Feature", "properties": { "inst_name": "NABAGRAM UNION HIGH SCHOOL", "eiin": 110964, "inst_type": "School", "district": "MANIKGANJ", "thana": "MANIKGANJ SADAR", "mauza": "NAOGAON", "long": 89.90708, "lat": 23.84569, "serial": 18631, "isUnique": 1, "field_11": null }, "geometry": { "type": "Point", "coordinates": [ 89.90708, 23.84569 ] } },
{ "type": "Feature", "properties": { "inst_name": "BACHAMARA HIGH SCHOOL", "eiin": 110887, "inst_type": "School", "district": "MANIKGANJ", "thana": "DAULATPUR", "mauza": "BACHAMARA", "long": 89.93994, "lat": 23.85439, "serial": 18632, "isUnique": 1, "field_11": null }, "geometry": { "type": "Point", "coordinates": [ 89.93994, 23.85439 ] } },
{ "type": "Feature", "properties": { "inst_name": "BAGNUTIA OMOR ALI high SCHOOL", "eiin": 110897, "inst_type": "School", "district": "MANIKGANJ", "thana": "DAULATPUR", "mauza": "CHAR BAGHUTIA", "long": 89.96753, "lat": 23.82911, "serial": 18633, "isUnique": 1, "field_11": null }, "geometry": { "type": "Point", "coordinates": [ 89.96753, 23.82911 ] } },
{ "type": "Feature", "properties": { "inst_name": "BAGHUTIA  K.S. HIGH SCHOOL", "eiin": 110889, "inst_type": "School", "district": "MANIKGANJ", "thana": "DAULATPUR", "mauza": "UTTAR BASAIL", "long": 89.96753, "lat": 23.81664, "serial": 18634, "isUnique": 1, "field_11": null }, "geometry": { "type": "Point", "coordinates": [ 89.96753, 23.81664 ] } },
{ "type": "Feature", "properties": { "inst_name": "CHAK MIRPUR HIGH SCHOOL", "eiin": 110895, "inst_type": "School", "district": "MANIKGANJ", "thana": "DAULATPUR", "mauza": "CHAK MIRPUR", "long": 89.76011, "lat": 23.97567, "serial": 18635, "isUnique": 1, "field_11": null }, "geometry": { "type": "Point", "coordinates": [ 89.76011, 23.97567 ] } },
{ "type": "Feature", "properties": { "inst_name": "CHARMASTUL M.B.A HIGH SCHOOL", "eiin": 110894, "inst_type": "School", "district": "MANIKGANJ", "thana": "DAULATPUR", "mauza": "CHAR MASTUL", "long": 89.72639, "lat": 23.93931, "serial": 18636, "isUnique": 1, "field_11": null }, "geometry": { "type": "Point", "coordinates": [ 89.72639, 23.93931 ] } },
{ "type": "Feature", "properties": { "inst_name": "DAULATPUR P.S. HIGH SCHOOL", "eiin": 110885, "inst_type": "School", "district": "MANIKGANJ", "thana": "DAULATPUR", "mauza": "RAMCHANDRAPUR", "long": 89.78133, "lat": 23.93672, "serial": 18637, "isUnique": 1, "field_11": null }, "geometry": { "type": "Point", "coordinates": [ 89.78133, 23.93672 ] } },
{ "type": "Feature", "properties": { "inst_name": "CHAR KATAR SABUJ SENA HIGH SCHOOL", "eiin": 110890, "inst_type": "School", "district": "MANIKGANJ", "thana": "DAULATPUR", "mauza": "CHAR KATARI", "long": 89.83847, "lat": 23.93925, "serial": 18638, "isUnique": 1, "field_11": null }, "geometry": { "type": "Point", "coordinates": [ 89.83847, 23.93925 ] } },
{ "type": "Feature", "properties": { "inst_name": "KAKNA HIGH SCHOOL", "eiin": 110891, "inst_type": "School", "district": "MANIKGANJ", "thana": "DAULATPUR", "mauza": "KAKNA", "long": 89.83217, "lat": 23.97089, "serial": 18639, "isUnique": 1, "field_11": null }, "geometry": { "type": "Point", "coordinates": [ 89.83217, 23.97089 ] } },
{ "type": "Feature", "properties": { "inst_name": "ABUDANGA BOJLUR RAHMAN HIGH SCHOOL", "eiin": 110901, "inst_type": "School", "district": "MANIKGANJ", "thana": "DAULATPUR", "mauza": "BARA APUDANGA", "long": 89.83358, "lat": 23.97161, "serial": 18640, "isUnique": 1, "field_11": null }, "geometry": { "type": "Point", "coordinates": [ 89.83358, 23.97161 ] } },
{ "type": "Feature", "properties": { "inst_name": "AMTALI F.S. HIGH SCHOOL", "eiin": 110896, "inst_type": "School", "district": "MANIKGANJ", "thana": "DAULATPUR", "mauza": "LAUTARA", "long": 89.8385, "lat": 23.97431, "serial": 18641, "isUnique": 1, "field_11": null }, "geometry": { "type": "Point", "coordinates": [ 89.8385, 23.97431 ] } },
{ "type": "Feature", "properties": { "inst_name": "KALIA PUBLIC HIGH SCHOOL", "eiin": 110888, "inst_type": "School", "district": "MANIKGANJ", "thana": "DAULATPUR", "mauza": "PACHHKALIA", "long": 89.83117, "lat": 23.9695, "serial": 18642, "isUnique": 1, "field_11": null }, "geometry": { "type": "Point", "coordinates": [ 89.83117, 23.9695 ] } },
{ "type": "Feature", "properties": { "inst_name": "TALUK NAGAR HIGH SCHOOL", "eiin": 110886, "inst_type": "School", "district": "MANIKGANJ", "thana": "DAULATPUR", "mauza": "ITALUK HAPANIA", "long": 89.77822, "lat": 24.00844, "serial": 18643, "isUnique": 1, "field_11": null }, "geometry": { "type": "Point", "coordinates": [ 89.77822, 24.00844 ] } },
{ "type": "Feature", "properties": { "inst_name": "MOULVI ABDUR RAHMAN HIGH SCHOOL", "eiin": 110893, "inst_type": "School", "district": "MANIKGANJ", "thana": "DAULATPUR", "mauza": "TEPRI", "long": 89.91378, "lat": 23.9525, "serial": 18644, "isUnique": 1, "field_11": null }, "geometry": { "type": "Point", "coordinates": [ 89.91378, 23.9525 ] } },
{ "type": "Feature", "properties": { "inst_name": "ULAIL MODEL HIGH SCHOOL", "eiin": 110899, "inst_type": "School", "district": "MANIKGANJ", "thana": "DAULATPUR", "mauza": "ULAIL", "long": 89.81672, "lat": 23.91761, "serial": 18645, "isUnique": 1, "field_11": null }, "geometry": { "type": "Point", "coordinates": [ 89.81672, 23.91761 ] } },
{ "type": "Feature", "properties": { "inst_name": "BISHNUPUR G.M HIGH SCHOOL", "eiin": 110900, "inst_type": "School", "district": "MANIKGANJ", "thana": "DAULATPUR", "mauza": "BISHNUPUR", "long": 89.878, "lat": 23.98211, "serial": 18646, "isUnique": 1, "field_11": null }, "geometry": { "type": "Point", "coordinates": [ 89.878, 23.98211 ] } },
{ "type": "Feature", "properties": { "inst_name": "KHALSHI ADARSHA HIGH SCHOOL", "eiin": 110892, "inst_type": "School", "district": "MANIKGANJ", "thana": "DAULATPUR", "mauza": "KHALSI", "long": 89.86244, "lat": 23.95817, "serial": 18647, "isUnique": 1, "field_11": null }, "geometry": { "type": "Point", "coordinates": [ 89.86244, 23.95817 ] } },
{ "type": "Feature", "properties": { "inst_name": "JAFARGANJ HIGH SCHOOL", "eiin": 111037, "inst_type": "School", "district": "MANIKGANJ", "thana": "SHIBALAYA", "mauza": "CHAR PAILADHUSAR", "long": 89.88358, "lat": 23.96531, "serial": 18648, "isUnique": 1, "field_11": null }, "geometry": { "type": "Point", "coordinates": [ 89.88358, 23.96531 ] } },
{ "type": "Feature", "properties": { "inst_name": "BETILA  HIGH SCHOOL  AND COLLEGE", "eiin": 110963, "inst_type": "School and College", "district": "MANIKGANJ", "thana": "MANIKGANJ SADAR", "mauza": "RAMDIA", "long": 89.98036, "lat": 23.84653, "serial": 26122, "isUnique": 1, "field_11": null }, "geometry": { "type": "Point", "coordinates": [ 89.98036, 23.84653 ] } },
{ "type": "Feature", "properties": { "inst_name": "BANIAJURI UNION SCHOOL  AND COLlEGE", "eiin": 110911, "inst_type": "School and College", "district": "MANIKGANJ", "thana": "GHIOR", "mauza": "RATHORA", "long": 89.95181, "lat": 23.86808, "serial": 26123, "isUnique": 1, "field_11": null }, "geometry": { "type": "Point", "coordinates": [ 89.95181, 23.86808 ] } }
]
}
