{
"type": "FeatureCollection",
"crs": { "type": "name", "properties": { "name": "urn:ogc:def:crs:OGC:1.3:CRS84" } },
"features": [
{ "type": "Feature", "properties": { "inst_name": "MEHERPUR GOVT. MOHILA COLLEGE", "eiin": 118343, "inst_type": "College", "district": "MEHERPUR", "thana": "MEHERPUR SADAR", "mauza": "GIRLS' COLLEGE PARA", "long": 88.632973, "lat": 23.774141, "serial": 1329, "isUnique": 1 }, "geometry": { "type": "Point", "coordinates": [ 88.632973, 23.774141 ] } },
{ "type": "Feature", "properties": { "inst_name": "GANGNI DEGREE COLLEGE", "eiin": 118261, "inst_type": "College", "district": "MEHERPUR", "thana": "GANGNI", "mauza": "GANGNI DEGREE COLLEGE PARA", "long": 88.73176, "lat": 23.81113, "serial": 1330, "isUnique": 1 }, "geometry": { "type": "Point", "coordinates": [ 88.73176, 23.81113 ] } },
{ "type": "Feature", "properties": { "inst_name": "GANGNI MOHILA DEGREE COLLEGE", "eiin": 118260, "inst_type": "College", "district": "MEHERPUR", "thana": "GANGNI", "mauza": "GANGNI UPAZILA CHATTAR", "long": 88.74186, "lat": 23.81671, "serial": 1331, "isUnique": 1 }, "geometry": { "type": "Point", "coordinates": [ 88.74186, 23.81671 ] } },
{ "type": "Feature", "properties": { "inst_name": "B N COLLEGE", "eiin": 118254, "inst_type": "College", "district": "MEHERPUR", "thana": "GANGNI", "mauza": "SHAHARBATI", "long": 88.75021, "lat": 23.85845, "serial": 1332, "isUnique": 1 }, "geometry": { "type": "Point", "coordinates": [ 88.75021, 23.85845 ] } },
{ "type": "Feature", "properties": { "inst_name": "KAZIPUR COLLEGE", "eiin": 118258, "inst_type": "College", "district": "MEHERPUR", "thana": "GANGNI", "mauza": "KAZIPUR", "long": 88.808, "lat": 23.94619, "serial": 1333, "isUnique": 1 }, "geometry": { "type": "Point", "coordinates": [ 88.808, 23.94619 ] } },
{ "type": "Feature", "properties": { "inst_name": "TERAIL JORE PUKURIA COLLEGE", "eiin": 118256, "inst_type": "College", "district": "MEHERPUR", "thana": "GANGNI", "mauza": "TERAIL", "long": 88.78794, "lat": 23.9525, "serial": 1334, "isUnique": 1 }, "geometry": { "type": "Point", "coordinates": [ 88.78794, 23.9525 ] } },
{ "type": "Feature", "properties": { "inst_name": "BIR MUKIZODDAH ABDUL GANI COLLEGE", "eiin": 118255, "inst_type": "College", "district": "MEHERPUR", "thana": "GANGNI", "mauza": "BAOT", "long": 88.85559, "lat": 23.91291, "serial": 1335, "isUnique": 1 }, "geometry": { "type": "Point", "coordinates": [ 88.85559, 23.91291 ] } },
{ "type": "Feature", "properties": { "inst_name": "KARAMDI COLLEGE", "eiin": 118262, "inst_type": "College", "district": "MEHERPUR", "thana": "GANGNI", "mauza": "KARAMDI", "long": 88.75183, "lat": 23.90534, "serial": 1336, "isUnique": 1 }, "geometry": { "type": "Point", "coordinates": [ 88.75183, 23.90534 ] } },
{ "type": "Feature", "properties": { "inst_name": "MEHERPUR PAURA DEGREE COLLEGE", "eiin": 118339, "inst_type": "College", "district": "MEHERPUR", "thana": "MEHERPUR SADAR", "mauza": "KALA CHANDPUR", "long": 88.66178, "lat": 23.81683, "serial": 1337, "isUnique": 1 }, "geometry": { "type": "Point", "coordinates": [ 88.66178, 23.81683 ] } },
{ "type": "Feature", "properties": { "inst_name": "MEHERPUR GOVT COLLEGE", "eiin": 118342, "inst_type": "College", "district": "MEHERPUR", "thana": "MEHERPUR SADAR", "mauza": "GOVT. COLLEGE PARA", "long": 88.62619, "lat": 23.81531, "serial": 1338, "isUnique": 1 }, "geometry": { "type": "Point", "coordinates": [ 88.62619, 23.81531 ] } },
{ "type": "Feature", "properties": { "inst_name": "A R B degree COLLEGE", "eiin": 118340, "inst_type": "College", "district": "MEHERPUR", "thana": "MEHERPUR SADAR", "mauza": "AMJHUPI", "long": 88.65177, "lat": 23.76125, "serial": 1339, "isUnique": 1 }, "geometry": { "type": "Point", "coordinates": [ 88.65177, 23.76125 ] } },
{ "type": "Feature", "properties": { "inst_name": "GOVT. MUJIB NAGAR DEGREE COLLEGE", "eiin": 118283, "inst_type": "College", "district": "MEHERPUR", "thana": "MUJIB NAGAR", "mauza": "DARIAPUR", "long": 88.61489, "lat": 23.70489, "serial": 1340, "isUnique": 1 }, "geometry": { "type": "Point", "coordinates": [ 88.61489, 23.70489 ] } },
{ "type": "Feature", "properties": { "inst_name": "MAHAJANPUR MOHABIDDALOY", "eiin": 118284, "inst_type": "College", "district": "MEHERPUR", "thana": "MUJIB NAGAR", "mauza": "BABUPUR", "long": 88.68281, "lat": 23.67581, "serial": 1341, "isUnique": 1 }, "geometry": { "type": "Point", "coordinates": [ 88.68281, 23.67581 ] } },
{ "type": "Feature", "properties": { "inst_name": "MANIKDIA AGARPARA DAKHIL MADRASA", "eiin": 118251, "inst_type": "Madrasha", "district": "MEHERPUR", "thana": "GANGNI", "mauza": "MANIK DIGHI", "long": 88.79722, "lat": 23.84111, "serial": 6827, "isUnique": 1 }, "geometry": { "type": "Point", "coordinates": [ 88.79722, 23.84111 ] } },
{ "type": "Feature", "properties": { "inst_name": "AL MADINA DAKIL MADRASHA", "eiin": 118253, "inst_type": "Madrasha", "district": "MEHERPUR", "thana": "GANGNI", "mauza": "BANSHBARIA PURBAPARA", "long": 88.8275, "lat": 23.835, "serial": 6828, "isUnique": 1 }, "geometry": { "type": "Point", "coordinates": [ 88.8275, 23.835 ] } },
{ "type": "Feature", "properties": { "inst_name": "GANGNI SIDDIKIA SENIOR ALIM MADRASAH", "eiin": 118246, "inst_type": "Madrasha", "district": "MEHERPUR", "thana": "GANGNI", "mauza": "GANGNI BHITA PARA", "long": 88.74857, "lat": 23.81836, "serial": 6829, "isUnique": 1 }, "geometry": { "type": "Point", "coordinates": [ 88.74857, 23.81836 ] } },
{ "type": "Feature", "properties": { "inst_name": "KAZIPUR DARUL ULUM DAKIL MADRASAH", "eiin": 118244, "inst_type": "Madrasha", "district": "MEHERPUR", "thana": "GANGNI", "mauza": "KAZIPUR", "long": 88.76474, "lat": 23.92839, "serial": 6830, "isUnique": 1 }, "geometry": { "type": "Point", "coordinates": [ 88.76474, 23.92839 ] } },
{ "type": "Feature", "properties": { "inst_name": "AiDA KALIM DAKHIL MADRASA", "eiin": 131404, "inst_type": "Madrasha", "district": "MEHERPUR", "thana": "GANGNI", "mauza": "KAZIPUR", "long": 88.75898, "lat": 23.93788, "serial": 6831, "isUnique": 1 }, "geometry": { "type": "Point", "coordinates": [ 88.75898, 23.93788 ] } },
{ "type": "Feature", "properties": { "inst_name": "PIRTOLA DAKIL MADRASHA", "eiin": 131402, "inst_type": "Madrasha", "district": "MEHERPUR", "thana": "GANGNI", "mauza": "BETBARIA", "long": 88.77194, "lat": 23.94611, "serial": 6832, "isUnique": 1 }, "geometry": { "type": "Point", "coordinates": [ 88.77194, 23.94611 ] } },
{ "type": "Feature", "properties": { "inst_name": "BADIAPARA MOHSINIA SIDDKIA DAKHIL MASRASHA", "eiin": 118250, "inst_type": "Madrasha", "district": "MEHERPUR", "thana": "GANGNI", "mauza": "MAHABBATPUR", "long": 88.75716, "lat": 23.94157, "serial": 6833, "isUnique": 1 }, "geometry": { "type": "Point", "coordinates": [ 88.75716, 23.94157 ] } },
{ "type": "Feature", "properties": { "inst_name": "KOLA DAKhIL MADRASHA", "eiin": 118337, "inst_type": "Madrasha", "district": "MEHERPUR", "thana": "MEHERPUR SADAR", "mauza": "KOLA", "long": 88.67819, "lat": 23.78256, "serial": 6834, "isUnique": 1 }, "geometry": { "type": "Point", "coordinates": [ 88.67819, 23.78256 ] } },
{ "type": "Feature", "properties": { "inst_name": "GOVIPUR DAKHIL MADRASaH", "eiin": 118332, "inst_type": "Madrasha", "district": "MEHERPUR", "thana": "MEHERPUR SADAR", "mauza": "GOBIPUR", "long": 88.61886, "lat": 23.79428, "serial": 6835, "isUnique": 1 }, "geometry": { "type": "Point", "coordinates": [ 88.61886, 23.79428 ] } },
{ "type": "Feature", "properties": { "inst_name": "MEHERPUR MOHILA DAKHIL madrasha", "eiin": 118329, "inst_type": "Madrasha", "district": "MEHERPUR", "thana": "MEHERPUR SADAR", "mauza": "DAKSHIN TANTIPARA", "long": 88.64728, "lat": 23.85617, "serial": 6836, "isUnique": 1 }, "geometry": { "type": "Point", "coordinates": [ 88.64728, 23.85617 ] } },
{ "type": "Feature", "properties": { "inst_name": "KULBARIA DAKIL MADRASHA", "eiin": 118336, "inst_type": "Madrasha", "district": "MEHERPUR", "thana": "MEHERPUR SADAR", "mauza": "KULBERIA", "long": 88.5995, "lat": 23.85594, "serial": 6837, "isUnique": 1 }, "geometry": { "type": "Point", "coordinates": [ 88.5995, 23.85594 ] } },
{ "type": "Feature", "properties": { "inst_name": "AMJHUPI ALIM MADRASAH", "eiin": 118334, "inst_type": "Madrasha", "district": "MEHERPUR", "thana": "MEHERPUR SADAR", "mauza": "AMJHUPI", "long": 88.72547, "lat": 23.70097, "serial": 6838, "isUnique": 2 }, "geometry": { "type": "Point", "coordinates": [ 88.72547, 23.70097 ] } },
{ "type": "Feature", "properties": { "inst_name": "ASHRAFPUR DARUS SuNNAH DAKHIL MADRASAH", "eiin": 131501, "inst_type": "Madrasha", "district": "MEHERPUR", "thana": "MEHERPUR SADAR", "mauza": "ASHRAFPUR", "long": 88.63085, "lat": 23.77607, "serial": 6839, "isUnique": 1 }, "geometry": { "type": "Point", "coordinates": [ 88.63085, 23.77607 ] } },
{ "type": "Feature", "properties": { "inst_name": "MANIK NAGAR D. S. AMINIA ALIM MADRASHA", "eiin": 118280, "inst_type": "Madrasha", "district": "MEHERPUR", "thana": "MUJIB NAGAR", "mauza": "MANIKNAGAR", "long": 88.61461, "lat": 23.62581, "serial": 6840, "isUnique": 1 }, "geometry": { "type": "Point", "coordinates": [ 88.61461, 23.62581 ] } },
{ "type": "Feature", "properties": { "inst_name": "DARIA PUR GOUSIA DAKHIL MADRASHA", "eiin": 118279, "inst_type": "Madrasha", "district": "MEHERPUR", "thana": "MUJIB NAGAR", "mauza": "PURANDARPUR", "long": 88.60878, "lat": 23.65864, "serial": 6841, "isUnique": 1 }, "geometry": { "type": "Point", "coordinates": [ 88.60878, 23.65864 ] } },
{ "type": "Feature", "properties": { "inst_name": "AYESHA NAGAR DAKHIL MADRASHA", "eiin": 118281, "inst_type": "Madrasha", "district": "MEHERPUR", "thana": "MUJIB NAGAR", "mauza": "JATARPUR", "long": 88.63008, "lat": 23.61356, "serial": 6842, "isUnique": 1 }, "geometry": { "type": "Point", "coordinates": [ 88.63008, 23.61356 ] } },
{ "type": "Feature", "properties": { "inst_name": "SHIBPUR DARUL QURAN DAKHIL MADRASHA", "eiin": 118282, "inst_type": "Madrasha", "district": "MEHERPUR", "thana": "MUJIB NAGAR", "mauza": "SHIBPUR", "long": 88.68136, "lat": 23.68433, "serial": 6843, "isUnique": 1 }, "geometry": { "type": "Point", "coordinates": [ 88.68136, 23.68433 ] } },
{ "type": "Feature", "properties": { "inst_name": "S.K.R.S GIRLS HIGH SCHOOL", "eiin": 118186, "inst_type": "School", "district": "MEHERPUR", "thana": "GANGNI", "mauza": "MINA PARA", "long": 89.4725, "lat": 23.16833, "serial": 18812, "isUnique": 1 }, "geometry": { "type": "Point", "coordinates": [ 89.4725, 23.16833 ] } },
{ "type": "Feature", "properties": { "inst_name": "DHALA HIGH SCHOOL", "eiin": 118230, "inst_type": "School", "district": "MEHERPUR", "thana": "GANGNI", "mauza": "GARABARIA", "long": 89.48, "lat": 23.16528, "serial": 18813, "isUnique": 1 }, "geometry": { "type": "Point", "coordinates": [ 89.48, 23.16528 ] } },
{ "type": "Feature", "properties": { "inst_name": "ARPARA HIGH SCHOOL", "eiin": 118220, "inst_type": "School", "district": "MEHERPUR", "thana": "GANGNI", "mauza": "ARPARA", "long": 89.48722, "lat": 23.15694, "serial": 18814, "isUnique": 1 }, "geometry": { "type": "Point", "coordinates": [ 89.48722, 23.15694 ] } },
{ "type": "Feature", "properties": { "inst_name": "BHAT PARA SECONDARY SCHOOL", "eiin": 118226, "inst_type": "School", "district": "MEHERPUR", "thana": "GANGNI", "mauza": "KASBA", "long": 89.47583, "lat": 23.1775, "serial": 18815, "isUnique": 1 }, "geometry": { "type": "Point", "coordinates": [ 89.47583, 23.1775 ] } },
{ "type": "Feature", "properties": { "inst_name": "DHANKHOLA HIGH SCHOOL", "eiin": 118229, "inst_type": "School", "district": "MEHERPUR", "thana": "GANGNI", "mauza": "DHANKHOLA", "long": 89.50778, "lat": 23.19194, "serial": 18816, "isUnique": 1 }, "geometry": { "type": "Point", "coordinates": [ 89.50778, 23.19194 ] } },
{ "type": "Feature", "properties": { "inst_name": "CHITLA HIGH SCHOOL", "eiin": 118217, "inst_type": "School", "district": "MEHERPUR", "thana": "GANGNI", "mauza": "CHITLA", "long": 88.75639, "lat": 23.86111, "serial": 18817, "isUnique": 1 }, "geometry": { "type": "Point", "coordinates": [ 88.75639, 23.86111 ] } },
{ "type": "Feature", "properties": { "inst_name": "GARADOB SECONDARY SCHOOL", "eiin": 118216, "inst_type": "School", "district": "MEHERPUR", "thana": "GANGNI", "mauza": "GARADOB", "long": 88.66225, "lat": 23.85669, "serial": 18818, "isUnique": 1 }, "geometry": { "type": "Point", "coordinates": [ 88.66225, 23.85669 ] } },
{ "type": "Feature", "properties": { "inst_name": "SHANGHAT CHANDAMARY JUNIOR HIGH SCHOOL", "eiin": 118242, "inst_type": "School", "district": "MEHERPUR", "thana": "GANGNI", "mauza": "SANGHAT", "long": 88.77731, "lat": 23.77139, "serial": 18819, "isUnique": 1 }, "geometry": { "type": "Point", "coordinates": [ 88.77731, 23.77139 ] } },
{ "type": "Feature", "properties": { "inst_name": "CHANDPUR SECONDARY SCHOOL", "eiin": 118206, "inst_type": "School", "district": "MEHERPUR", "thana": "GANGNI", "mauza": "CHANDPUR", "long": 88.77581, "lat": 23.80069, "serial": 18820, "isUnique": 1 }, "geometry": { "type": "Point", "coordinates": [ 88.77581, 23.80069 ] } },
{ "type": "Feature", "properties": { "inst_name": "LUTFUNNESA SECONDARY SCHOOL", "eiin": 118236, "inst_type": "School", "district": "MEHERPUR", "thana": "GANGNI", "mauza": "GOPALNAGAR", "long": 88.74303, "lat": 23.78389, "serial": 18821, "isUnique": 1 }, "geometry": { "type": "Point", "coordinates": [ 88.74303, 23.78389 ] } },
{ "type": "Feature", "properties": { "inst_name": "HARIADHA MOHISHA KHOLA JUNIOR SCHOOL", "eiin": 118184, "inst_type": "School", "district": "MEHERPUR", "thana": "GANGNI", "mauza": "HARIADAHA", "long": 88.70125, "lat": 23.80133, "serial": 18822, "isUnique": 1 }, "geometry": { "type": "Point", "coordinates": [ 88.70125, 23.80133 ] } },
{ "type": "Feature", "properties": { "inst_name": "RAIPUR MULTILATERAL SECONDARY SCHOOL", "eiin": 118222, "inst_type": "School", "district": "MEHERPUR", "thana": "GANGNI", "mauza": "ROYPUR", "long": 88.77775, "lat": 23.80219, "serial": 18823, "isUnique": 1 }, "geometry": { "type": "Point", "coordinates": [ 88.77775, 23.80219 ] } },
{ "type": "Feature", "properties": { "inst_name": "K.A.B. HIGH SCHOOL", "eiin": 118207, "inst_type": "School", "district": "MEHERPUR", "thana": "GANGNI", "mauza": "KARAIGACHHI", "long": 88.80817, "lat": 23.79414, "serial": 18824, "isUnique": 1 }, "geometry": { "type": "Point", "coordinates": [ 88.80817, 23.79414 ] } },
{ "type": "Feature", "properties": { "inst_name": "M B K HIGH SCHOOL", "eiin": 118183, "inst_type": "School", "district": "MEHERPUR", "thana": "GANGNI", "mauza": "KESHABNAGAR", "long": 88.83028, "lat": 23.83722, "serial": 18825, "isUnique": 1 }, "geometry": { "type": "Point", "coordinates": [ 88.83028, 23.83722 ] } },
{ "type": "Feature", "properties": { "inst_name": "MIKUSHIS SECONDARY SCHOOL", "eiin": 118179, "inst_type": "School", "district": "MEHERPUR", "thana": "GANGNI", "mauza": "MINA PARA", "long": 88.78, "lat": 23.79806, "serial": 18826, "isUnique": 1 }, "geometry": { "type": "Point", "coordinates": [ 88.78, 23.79806 ] } },
{ "type": "Feature", "properties": { "inst_name": "BANSBARIA HIGH SCHOOL", "eiin": 118228, "inst_type": "School", "district": "MEHERPUR", "thana": "GANGNI", "mauza": "BANSHBARIA PURBAPARA", "long": 88.8075, "lat": 23.83139, "serial": 18827, "isUnique": 1 }, "geometry": { "type": "Point", "coordinates": [ 88.8075, 23.83139 ] } },
{ "type": "Feature", "properties": { "inst_name": "GANGNI PRE CADET AND JUNIOR HIGH SCHOOL", "eiin": 118227, "inst_type": "School", "district": "MEHERPUR", "thana": "GANGNI", "mauza": "GANGNI DEGREE COLLEGE PARA", "long": 88.86194, "lat": 23.84472, "serial": 18828, "isUnique": 1 }, "geometry": { "type": "Point", "coordinates": [ 88.86194, 23.84472 ] } },
{ "type": "Feature", "properties": { "inst_name": "GANGNI POURO SECONDARY SCHOOL", "eiin": 118194, "inst_type": "School", "district": "MEHERPUR", "thana": "GANGNI", "mauza": "CHAUGACHHA SCHOOL PARA", "long": 88.86167, "lat": 23.86311, "serial": 18829, "isUnique": 1 }, "geometry": { "type": "Point", "coordinates": [ 88.86167, 23.86311 ] } },
{ "type": "Feature", "properties": { "inst_name": "GANGNI  pilot SECONDARY GIRLS SCHOOL", "eiin": 118211, "inst_type": "School", "district": "MEHERPUR", "thana": "GANGNI", "mauza": "CHAUGACHHA PURBAPARA", "long": 88.73596, "lat": 23.81282, "serial": 18830, "isUnique": 1 }, "geometry": { "type": "Point", "coordinates": [ 88.73596, 23.81282 ] } },
{ "type": "Feature", "properties": { "inst_name": "FAZLUL HAQUE IDEAL SCHOOL", "eiin": 130651, "inst_type": "School", "district": "MEHERPUR", "thana": "GANGNI", "mauza": "CHAUGACHHA HOSPITALPARA", "long": 88.7324, "lat": 23.81317, "serial": 18831, "isUnique": 1 }, "geometry": { "type": "Point", "coordinates": [ 88.7324, 23.81317 ] } },
{ "type": "Feature", "properties": { "inst_name": "C.F.M. SECONDARY SCHOOL", "eiin": 118192, "inst_type": "School", "district": "MEHERPUR", "thana": "GANGNI", "mauza": "FATAIPUR", "long": 88.74182, "lat": 23.81722, "serial": 18832, "isUnique": 1 }, "geometry": { "type": "Point", "coordinates": [ 88.74182, 23.81722 ] } },
{ "type": "Feature", "properties": { "inst_name": "BHOMORDHA DHARMOCHAKI BD HIGH SCHOOL", "eiin": 118201, "inst_type": "School", "district": "MEHERPUR", "thana": "GANGNI", "mauza": "BHAMRADAHA", "long": 88.74883, "lat": 23.81447, "serial": 18833, "isUnique": 1 }, "geometry": { "type": "Point", "coordinates": [ 88.74883, 23.81447 ] } },
{ "type": "Feature", "properties": { "inst_name": "BHAT PARA HIGH SCHOOL", "eiin": 118203, "inst_type": "School", "district": "MEHERPUR", "thana": "GANGNI", "mauza": "SHAHARBATI", "long": 88.74496, "lat": 23.81821, "serial": 18834, "isUnique": 1 }, "geometry": { "type": "Point", "coordinates": [ 88.74496, 23.81821 ] } },
{ "type": "Feature", "properties": { "inst_name": "HIJALBARIA SECONDARY SCHOOL", "eiin": 118214, "inst_type": "School", "district": "MEHERPUR", "thana": "GANGNI", "mauza": "HIJALBARIA", "long": 88.80361, "lat": 23.88942, "serial": 18835, "isUnique": 1 }, "geometry": { "type": "Point", "coordinates": [ 88.80361, 23.88942 ] } },
{ "type": "Feature", "properties": { "inst_name": "J. T. S. GIRLS HIGH SCHOOL", "eiin": 118199, "inst_type": "School", "district": "MEHERPUR", "thana": "GANGNI", "mauza": "JOR PUKHURIA", "long": 88.75802, "lat": 23.83446, "serial": 18836, "isUnique": 1 }, "geometry": { "type": "Point", "coordinates": [ 88.75802, 23.83446 ] } },
{ "type": "Feature", "properties": { "inst_name": "JOREPUKURIA SECONDARY SCHOOL", "eiin": 118213, "inst_type": "School", "district": "MEHERPUR", "thana": "GANGNI", "mauza": "JOR PUKHURIA", "long": 88.75326, "lat": 23.81689, "serial": 18837, "isUnique": 1 }, "geometry": { "type": "Point", "coordinates": [ 88.75326, 23.81689 ] } },
{ "type": "Feature", "properties": { "inst_name": "BETBARIA HIGH SCHOOL", "eiin": 118196, "inst_type": "School", "district": "MEHERPUR", "thana": "GANGNI", "mauza": "BETBARIA", "long": 88.70183, "lat": 23.84783, "serial": 18838, "isUnique": 1 }, "geometry": { "type": "Point", "coordinates": [ 88.70183, 23.84783 ] } },
{ "type": "Feature", "properties": { "inst_name": "H.S.K. SECONDARY SCHOOL", "eiin": 118204, "inst_type": "School", "district": "MEHERPUR", "thana": "GANGNI", "mauza": "HARABHANGA", "long": 88.73411, "lat": 23.85551, "serial": 18839, "isUnique": 1 }, "geometry": { "type": "Point", "coordinates": [ 88.73411, 23.85551 ] } },
{ "type": "Feature", "properties": { "inst_name": "HARABHANGA JUNIOR secondary SCHOOL", "eiin": 118205, "inst_type": "School", "district": "MEHERPUR", "thana": "GANGNI", "mauza": "HARABHANGA", "long": 88.7797, "lat": 23.86361, "serial": 18840, "isUnique": 1 }, "geometry": { "type": "Point", "coordinates": [ 88.7797, 23.86361 ] } },
{ "type": "Feature", "properties": { "inst_name": "HARABHANGA ADaRSHa secondary SCHOOL", "eiin": 118176, "inst_type": "School", "district": "MEHERPUR", "thana": "GANGNI", "mauza": "HARABHANGA", "long": 88.77688, "lat": 23.86149, "serial": 18841, "isUnique": 1 }, "geometry": { "type": "Point", "coordinates": [ 88.77688, 23.86149 ] } },
{ "type": "Feature", "properties": { "inst_name": "K.N.S.H. GIRLS SECONDARY SCHOOL", "eiin": 118225, "inst_type": "School", "district": "MEHERPUR", "thana": "GANGNI", "mauza": "KAZIPUR", "long": 88.70249, "lat": 23.84777, "serial": 18842, "isUnique": 1 }, "geometry": { "type": "Point", "coordinates": [ 88.70249, 23.84777 ] } },
{ "type": "Feature", "properties": { "inst_name": "N.P. HIGH SCHOOL", "eiin": 118233, "inst_type": "School", "district": "MEHERPUR", "thana": "GANGNI", "mauza": "BETBARIA", "long": 88.7938, "lat": 23.95897, "serial": 18843, "isUnique": 1 }, "geometry": { "type": "Point", "coordinates": [ 88.7938, 23.95897 ] } },
{ "type": "Feature", "properties": { "inst_name": "B B N JUNIOR HIGH SCHOOL", "eiin": 118188, "inst_type": "School", "district": "MEHERPUR", "thana": "GANGNI", "mauza": "BETBARIA", "long": 88.7527, "lat": 23.9217, "serial": 18844, "isUnique": 1 }, "geometry": { "type": "Point", "coordinates": [ 88.7527, 23.9217 ] } },
{ "type": "Feature", "properties": { "inst_name": "SAHEB NAGAR HIGH SCHOOL", "eiin": 118218, "inst_type": "School", "district": "MEHERPUR", "thana": "GANGNI", "mauza": "KAZIPUR", "long": 88.78242, "lat": 23.91798, "serial": 18845, "isUnique": 1 }, "geometry": { "type": "Point", "coordinates": [ 88.78242, 23.91798 ] } },
{ "type": "Feature", "properties": { "inst_name": "BAMONDI SECONDARY GIRLS SCHOOL", "eiin": 118234, "inst_type": "School", "district": "MEHERPUR", "thana": "GANGNI", "mauza": "BAMANDI", "long": 88.76403, "lat": 23.93764, "serial": 18846, "isUnique": 1 }, "geometry": { "type": "Point", "coordinates": [ 88.76403, 23.93764 ] } },
{ "type": "Feature", "properties": { "inst_name": "JOTHY GIRLS HIGH SCHOOL", "eiin": 118231, "inst_type": "School", "district": "MEHERPUR", "thana": "GANGNI", "mauza": "TERAIL", "long": 88.75535, "lat": 23.94267, "serial": 18847, "isUnique": 1 }, "geometry": { "type": "Point", "coordinates": [ 88.75535, 23.94267 ] } },
{ "type": "Feature", "properties": { "inst_name": "D.J.M.C HIGH SCHOOL", "eiin": 118209, "inst_type": "School", "district": "MEHERPUR", "thana": "GANGNI", "mauza": "DEBIPUR", "long": 88.76125, "lat": 23.93505, "serial": 18848, "isUnique": 1 }, "geometry": { "type": "Point", "coordinates": [ 88.76125, 23.93505 ] } },
{ "type": "Feature", "properties": { "inst_name": "BAOT SOLAIMANI HIGH SCHOOL", "eiin": 118212, "inst_type": "School", "district": "MEHERPUR", "thana": "GANGNI", "mauza": "BAOT", "long": 88.80317, "lat": 23.88706, "serial": 18849, "isUnique": 1 }, "geometry": { "type": "Point", "coordinates": [ 88.80317, 23.88706 ] } },
{ "type": "Feature", "properties": { "inst_name": "KUMARI DANGA SECONDARY HIGH SCHOOL", "eiin": 118223, "inst_type": "School", "district": "MEHERPUR", "thana": "GANGNI", "mauza": "KUMARIDANGA", "long": 88.781, "lat": 23.86541, "serial": 18850, "isUnique": 1 }, "geometry": { "type": "Point", "coordinates": [ 88.781, 23.86541 ] } },
{ "type": "Feature", "properties": { "inst_name": "BAOT ADARSHA GIRLS HIGH SCHOOL", "eiin": 118190, "inst_type": "School", "district": "MEHERPUR", "thana": "GANGNI", "mauza": "BAOT", "long": 88.78055, "lat": 23.89562, "serial": 18851, "isUnique": 1 }, "geometry": { "type": "Point", "coordinates": [ 88.78055, 23.89562 ] } },
{ "type": "Feature", "properties": { "inst_name": "HOGALBARIA-MOHAMMADPUR HAJI BHARASH UDDIN SECONDARY SCHOOL", "eiin": 118193, "inst_type": "School", "district": "MEHERPUR", "thana": "GANGNI", "mauza": "MOHAMMADPUR", "long": 88.78425, "lat": 23.86803, "serial": 18852, "isUnique": 1 }, "geometry": { "type": "Point", "coordinates": [ 88.78425, 23.86803 ] } },
{ "type": "Feature", "properties": { "inst_name": "MOHAMMADPUR ADORSHA HIGH SCHOOL", "eiin": 118243, "inst_type": "School", "district": "MEHERPUR", "thana": "GANGNI", "mauza": "MOHAMMADPUR", "long": 88.81747, "lat": 23.86846, "serial": 18853, "isUnique": 1 }, "geometry": { "type": "Point", "coordinates": [ 88.81747, 23.86846 ] } },
{ "type": "Feature", "properties": { "inst_name": "M.G.G.M. HIGH SCHOOL", "eiin": 118239, "inst_type": "School", "district": "MEHERPUR", "thana": "GANGNI", "mauza": "DAKSHIN CHAR GOALGRAM", "long": 88.82882, "lat": 23.88512, "serial": 18854, "isUnique": 1 }, "geometry": { "type": "Point", "coordinates": [ 88.82882, 23.88512 ] } },
{ "type": "Feature", "properties": { "inst_name": "MOTMURA SECONDARY SCHOOL", "eiin": 118237, "inst_type": "School", "district": "MEHERPUR", "thana": "GANGNI", "mauza": "MATMURA", "long": 88.85136, "lat": 23.86627, "serial": 18855, "isUnique": 1 }, "geometry": { "type": "Point", "coordinates": [ 88.85136, 23.86627 ] } },
{ "type": "Feature", "properties": { "inst_name": "S.K.S SECONDARY SCHOOL", "eiin": 118191, "inst_type": "School", "district": "MEHERPUR", "thana": "GANGNI", "mauza": "SINDUR KAUTA", "long": 88.83391, "lat": 23.88623, "serial": 18856, "isUnique": 1 }, "geometry": { "type": "Point", "coordinates": [ 88.83391, 23.88623 ] } },
{ "type": "Feature", "properties": { "inst_name": "KARAMDI SECONDARY SCHOOL", "eiin": 118181, "inst_type": "School", "district": "MEHERPUR", "thana": "GANGNI", "mauza": "KARAMDI", "long": 88.8415, "lat": 23.92365, "serial": 18857, "isUnique": 1 }, "geometry": { "type": "Point", "coordinates": [ 88.8415, 23.92365 ] } },
{ "type": "Feature", "properties": { "inst_name": "TANTUL BARIA ISLAMIA HIGH SCHOOL", "eiin": 118224, "inst_type": "School", "district": "MEHERPUR", "thana": "GANGNI", "mauza": "CHAUGACHHA PASCHIMPARA", "long": 88.82822, "lat": 23.93463, "serial": 18858, "isUnique": 1 }, "geometry": { "type": "Point", "coordinates": [ 88.82822, 23.93463 ] } },
{ "type": "Feature", "properties": { "inst_name": "KARAMDI KALLANPUR  GIRLS HIGH SCHOOL", "eiin": 118185, "inst_type": "School", "district": "MEHERPUR", "thana": "GANGNI", "mauza": "KARAMDI", "long": 88.83975, "lat": 23.89719, "serial": 18859, "isUnique": 1 }, "geometry": { "type": "Point", "coordinates": [ 88.83975, 23.89719 ] } },
{ "type": "Feature", "properties": { "inst_name": "T.R.I.M JUNIOR GIRLS HIGH SCHOOL", "eiin": 118177, "inst_type": "School", "district": "MEHERPUR", "thana": "GANGNI", "mauza": "TENTULBARIA", "long": 88.8293, "lat": 23.87048, "serial": 18860, "isUnique": 1 }, "geometry": { "type": "Point", "coordinates": [ 88.8293, 23.87048 ] } },
{ "type": "Feature", "properties": { "inst_name": "B.T.D HIGH SCHOOL", "eiin": 118182, "inst_type": "School", "district": "MEHERPUR", "thana": "GANGNI", "mauza": "KARAMDI", "long": 88.83327, "lat": 23.88717, "serial": 18861, "isUnique": 1 }, "geometry": { "type": "Point", "coordinates": [ 88.83327, 23.88717 ] } },
{ "type": "Feature", "properties": { "inst_name": "M.H.A. SECONDARY GIRLS SCHOOL", "eiin": 118235, "inst_type": "School", "district": "MEHERPUR", "thana": "GANGNI", "mauza": "MOHAMMADPUR", "long": 88.72544, "lat": 23.89765, "serial": 18862, "isUnique": 1 }, "geometry": { "type": "Point", "coordinates": [ 88.72544, 23.89765 ] } },
{ "type": "Feature", "properties": { "inst_name": "H.B.  HIGH SCHOOL", "eiin": 118195, "inst_type": "School", "district": "MEHERPUR", "thana": "GANGNI", "mauza": "HARABHANGA", "long": 88.75499, "lat": 23.91102, "serial": 18863, "isUnique": 1 }, "geometry": { "type": "Point", "coordinates": [ 88.75499, 23.91102 ] } },
{ "type": "Feature", "properties": { "inst_name": "KUTUBPUR HIGH SCHOOL", "eiin": 118215, "inst_type": "School", "district": "MEHERPUR", "thana": "GANGNI", "mauza": "GARABARIA", "long": 88.71735, "lat": 23.9034, "serial": 18864, "isUnique": 1 }, "geometry": { "type": "Point", "coordinates": [ 88.71735, 23.9034 ] } },
{ "type": "Feature", "properties": { "inst_name": "JUGINDA HIGH SCHOOL", "eiin": 118208, "inst_type": "School", "district": "MEHERPUR", "thana": "GANGNI", "mauza": "JOGINDA", "long": 88.76555, "lat": 23.87713, "serial": 18865, "isUnique": 1 }, "geometry": { "type": "Point", "coordinates": [ 88.76555, 23.87713 ] } },
{ "type": "Feature", "properties": { "inst_name": "GARABARIA JUNIOR GIRLS HIGH SCHOOL", "eiin": 118180, "inst_type": "School", "district": "MEHERPUR", "thana": "GANGNI", "mauza": "GARABARIA", "long": 88.7493, "lat": 23.905, "serial": 18866, "isUnique": 1 }, "geometry": { "type": "Point", "coordinates": [ 88.7493, 23.905 ] } },
{ "type": "Feature", "properties": { "inst_name": "CHAK SHYAM NAGAR secondary SCHOOL", "eiin": 118319, "inst_type": "School", "district": "MEHERPUR", "thana": "MEHERPUR SADAR", "mauza": "AMDA", "long": 88.83707, "lat": 23.93325, "serial": 18867, "isUnique": 1 }, "geometry": { "type": "Point", "coordinates": [ 88.83707, 23.93325 ] } },
{ "type": "Feature", "properties": { "inst_name": "KAZI QUDRUTUL ISLAM secondary SCHOOL", "eiin": 118303, "inst_type": "School", "district": "MEHERPUR", "thana": "MEHERPUR SADAR", "mauza": "BAMAN PARA", "long": 88.77249, "lat": 23.92522, "serial": 18868, "isUnique": 1 }, "geometry": { "type": "Point", "coordinates": [ 88.77249, 23.92522 ] } },
{ "type": "Feature", "properties": { "inst_name": "SHAHEBPUR secondary SCHOOL", "eiin": 118309, "inst_type": "School", "district": "MEHERPUR", "thana": "MEHERPUR SADAR", "mauza": "BHABANANDAPUR", "long": 88.65131, "lat": 23.85539, "serial": 18869, "isUnique": 1 }, "geometry": { "type": "Point", "coordinates": [ 88.65131, 23.85539 ] } },
{ "type": "Feature", "properties": { "inst_name": "GOPALPUR secondary SCHOOL", "eiin": 118300, "inst_type": "School", "district": "MEHERPUR", "thana": "MEHERPUR SADAR", "mauza": "BASANTAPUR", "long": 88.72214, "lat": 23.72592, "serial": 18870, "isUnique": 1 }, "geometry": { "type": "Point", "coordinates": [ 88.72214, 23.72592 ] } },
{ "type": "Feature", "properties": { "inst_name": "MODNA DANGA GIRLS HIGH SCHOOL", "eiin": 118314, "inst_type": "School", "district": "MEHERPUR", "thana": "MEHERPUR SADAR", "mauza": "GOPALPUR", "long": 88.65069, "lat": 23.84919, "serial": 18871, "isUnique": 1 }, "geometry": { "type": "Point", "coordinates": [ 88.65069, 23.84919 ] } },
{ "type": "Feature", "properties": { "inst_name": "JHAUBARIA SECONDARY SCHOOL", "eiin": 118295, "inst_type": "School", "district": "MEHERPUR", "thana": "MEHERPUR SADAR", "mauza": "JHAUBARIA", "long": 88.62072, "lat": 23.73594, "serial": 18872, "isUnique": 1 }, "geometry": { "type": "Point", "coordinates": [ 88.62072, 23.73594 ] } },
{ "type": "Feature", "properties": { "inst_name": "KOLMIZOL secondary school", "eiin": 118310, "inst_type": "School", "district": "MEHERPUR", "thana": "MEHERPUR SADAR", "mauza": "SHYAMPUR", "long": 88.63444, "lat": 23.74967, "serial": 18873, "isUnique": 1 }, "geometry": { "type": "Point", "coordinates": [ 88.63444, 23.74967 ] } },
{ "type": "Feature", "properties": { "inst_name": "SHYAMPUR SHALIKA SECONDARY GIRLS SCHOOL", "eiin": 118323, "inst_type": "School", "district": "MEHERPUR", "thana": "MEHERPUR SADAR", "mauza": "SHYAMPUR", "long": 88.66092, "lat": 23.67636, "serial": 18874, "isUnique": 1 }, "geometry": { "type": "Point", "coordinates": [ 88.66092, 23.67636 ] } },
{ "type": "Feature", "properties": { "inst_name": "HATI BHAnga HIGH SCHOOL", "eiin": 118287, "inst_type": "School", "district": "MEHERPUR", "thana": "MEHERPUR SADAR", "mauza": "BILKOLA", "long": 88.67364, "lat": 23.77908, "serial": 18875, "isUnique": 1 }, "geometry": { "type": "Point", "coordinates": [ 88.67364, 23.77908 ] } },
{ "type": "Feature", "properties": { "inst_name": "BARIBAKA SIMANTO GIRLS secondary SCHOOL", "eiin": 118318, "inst_type": "School", "district": "MEHERPUR", "thana": "MEHERPUR SADAR", "mauza": "BARIBAKA", "long": 88.6665, "lat": 23.81147, "serial": 18876, "isUnique": 1 }, "geometry": { "type": "Point", "coordinates": [ 88.6665, 23.81147 ] } },
{ "type": "Feature", "properties": { "inst_name": "GOVIPUR secondary SCHOOL", "eiin": 118304, "inst_type": "School", "district": "MEHERPUR", "thana": "MEHERPUR SADAR", "mauza": "GOBIPUR", "long": 88.68233, "lat": 23.81719, "serial": 18877, "isUnique": 1 }, "geometry": { "type": "Point", "coordinates": [ 88.68233, 23.81719 ] } },
{ "type": "Feature", "properties": { "inst_name": "KAMDEB PUR HIGH SCHOOL", "eiin": 118289, "inst_type": "School", "district": "MEHERPUR", "thana": "MEHERPUR SADAR", "mauza": "KAMDEBPUR", "long": 88.68744, "lat": 23.81969, "serial": 18878, "isUnique": 1 }, "geometry": { "type": "Point", "coordinates": [ 88.68744, 23.81969 ] } },
{ "type": "Feature", "properties": { "inst_name": "HORIRAMPUR HIGH SCHOOL", "eiin": 118313, "inst_type": "School", "district": "MEHERPUR", "thana": "MEHERPUR SADAR", "mauza": "HARIRAMPUR", "long": 88.65944, "lat": 23.73058, "serial": 18879, "isUnique": 1 }, "geometry": { "type": "Point", "coordinates": [ 88.65944, 23.73058 ] } },
{ "type": "Feature", "properties": { "inst_name": "R.R. SECONDARY SCHOOL", "eiin": 118296, "inst_type": "School", "district": "MEHERPUR", "thana": "MEHERPUR SADAR", "mauza": "RADHAKANTAPUR", "long": 88.67008, "lat": 23.72303, "serial": 18880, "isUnique": 1 }, "geometry": { "type": "Point", "coordinates": [ 88.67008, 23.72303 ] } },
{ "type": "Feature", "properties": { "inst_name": "SHALIKA secondary  SCHOOL", "eiin": 118297, "inst_type": "School", "district": "MEHERPUR", "thana": "MEHERPUR SADAR", "mauza": "BARIBAKA", "long": 88.59675, "lat": 23.74733, "serial": 18881, "isUnique": 1 }, "geometry": { "type": "Point", "coordinates": [ 88.59675, 23.74733 ] } },
{ "type": "Feature", "properties": { "inst_name": "C.H.S  HIGH SCHOOL", "eiin": 118324, "inst_type": "School", "district": "MEHERPUR", "thana": "MEHERPUR SADAR", "mauza": "CHANDPUR", "long": 88.62714, "lat": 23.77503, "serial": 18882, "isUnique": 1 }, "geometry": { "type": "Point", "coordinates": [ 88.62714, 23.77503 ] } },
{ "type": "Feature", "properties": { "inst_name": "K r r S  HIGH SCHOOL", "eiin": 118320, "inst_type": "School", "district": "MEHERPUR", "thana": "MEHERPUR SADAR", "mauza": "SHUBHARAJPUR", "long": 88.60178, "lat": 23.74836, "serial": 18883, "isUnique": 1 }, "geometry": { "type": "Point", "coordinates": [ 88.60178, 23.74836 ] } },
{ "type": "Feature", "properties": { "inst_name": "KULBARIA SECONDARY SCHOOL", "eiin": 118294, "inst_type": "School", "district": "MEHERPUR", "thana": "MEHERPUR SADAR", "mauza": "KULBERIA", "long": 88.62175, "lat": 23.74364, "serial": 18884, "isUnique": 1 }, "geometry": { "type": "Point", "coordinates": [ 88.62175, 23.74364 ] } },
{ "type": "Feature", "properties": { "inst_name": "SHOLMARI HIGH SCHOOL", "eiin": 118311, "inst_type": "School", "district": "MEHERPUR", "thana": "MEHERPUR SADAR", "mauza": "SAULMARI", "long": 88.59736, "lat": 23.74403, "serial": 18885, "isUnique": 1 }, "geometry": { "type": "Point", "coordinates": [ 88.59736, 23.74403 ] } },
{ "type": "Feature", "properties": { "inst_name": "SHIMANTO GIRLS HIGH SCHOOL", "eiin": 118316, "inst_type": "School", "district": "MEHERPUR", "thana": "MEHERPUR SADAR", "mauza": "KUTUBPUR", "long": 88.64467, "lat": 23.844, "serial": 18886, "isUnique": 1 }, "geometry": { "type": "Point", "coordinates": [ 88.64467, 23.844 ] } },
{ "type": "Feature", "properties": { "inst_name": "SHOLMARI secondary GIRLS HIGH SCHOOL", "eiin": 118325, "inst_type": "School", "district": "MEHERPUR", "thana": "MEHERPUR SADAR", "mauza": "CHAK SUBHARAJPUR", "long": 88.62244, "lat": 23.78181, "serial": 18887, "isUnique": 1 }, "geometry": { "type": "Point", "coordinates": [ 88.62244, 23.78181 ] } },
{ "type": "Feature", "properties": { "inst_name": "SUBIDPUR JUNIOR HIGH SCHOOL", "eiin": 118293, "inst_type": "School", "district": "MEHERPUR", "thana": "MEHERPUR SADAR", "mauza": "SUBIDPUR", "long": 88.62875, "lat": 23.86231, "serial": 18888, "isUnique": 1 }, "geometry": { "type": "Point", "coordinates": [ 88.62875, 23.86231 ] } },
{ "type": "Feature", "properties": { "inst_name": "UJAlPUR secondary SCHOOL", "eiin": 118305, "inst_type": "School", "district": "MEHERPUR", "thana": "MEHERPUR SADAR", "mauza": "UJJALPUR", "long": 88.64003, "lat": 23.83311, "serial": 18889, "isUnique": 1 }, "geometry": { "type": "Point", "coordinates": [ 88.64003, 23.83311 ] } },
{ "type": "Feature", "properties": { "inst_name": "BHAIRAB GIRLS HIGH SCHOOL", "eiin": 118315, "inst_type": "School", "district": "MEHERPUR", "thana": "MEHERPUR SADAR", "mauza": "UJJALPUR", "long": 88.60811, "lat": 23.85556, "serial": 18890, "isUnique": 1 }, "geometry": { "type": "Point", "coordinates": [ 88.60811, 23.85556 ] } },
{ "type": "Feature", "properties": { "inst_name": "C.M C SECONDARY SCHOOL", "eiin": 118321, "inst_type": "School", "district": "MEHERPUR", "thana": "MEHERPUR SADAR", "mauza": "CHAND BIL", "long": 88.62108, "lat": 23.80572, "serial": 18891, "isUnique": 1 }, "geometry": { "type": "Point", "coordinates": [ 88.62108, 23.80572 ] } },
{ "type": "Feature", "properties": { "inst_name": "GENIUS LABORATORY SCHOOL & COLLEGE", "eiin": 130628, "inst_type": "School", "district": "MEHERPUR", "thana": "MEHERPUR SADAR", "mauza": "KASHARI PARA", "long": 88.63072, "lat": 23.79025, "serial": 18892, "isUnique": 1 }, "geometry": { "type": "Point", "coordinates": [ 88.63072, 23.79025 ] } },
{ "type": "Feature", "properties": { "inst_name": "KABI NAZRUL SHIKHYA MANJIL", "eiin": 118299, "inst_type": "School", "district": "MEHERPUR", "thana": "MEHERPUR SADAR", "mauza": "MALLIK PARA(NAZRUL SARAK UTTAR", "long": 88.67036, "lat": 23.75304, "serial": 18894, "isUnique": 1 }, "geometry": { "type": "Point", "coordinates": [ 88.67036, 23.75304 ] } },
{ "type": "Feature", "properties": { "inst_name": "POURO JUNIOR GIRLS SCHOOL", "eiin": 118322, "inst_type": "School", "district": "MEHERPUR", "thana": "MEHERPUR SADAR", "mauza": "GURASTHAN PARA", "long": 88.6324, "lat": 23.77229, "serial": 18895, "isUnique": 1 }, "geometry": { "type": "Point", "coordinates": [ 88.6324, 23.77229 ] } },
{ "type": "Feature", "properties": { "inst_name": "AMJHUPI GIRLS HIGH SCHOOL", "eiin": 118307, "inst_type": "School", "district": "MEHERPUR", "thana": "MEHERPUR SADAR", "mauza": "AMJHUPI", "long": 88.64064, "lat": 23.76991, "serial": 18896, "isUnique": 1 }, "geometry": { "type": "Point", "coordinates": [ 88.64064, 23.76991 ] } },
{ "type": "Feature", "properties": { "inst_name": "MOMINPUR SECONDARY SCHOOL", "eiin": 118292, "inst_type": "School", "district": "MEHERPUR", "thana": "MEHERPUR SADAR", "mauza": "BARADI", "long": 88.64149, "lat": 23.76219, "serial": 18897, "isUnique": 1 }, "geometry": { "type": "Point", "coordinates": [ 88.64149, 23.76219 ] } },
{ "type": "Feature", "properties": { "inst_name": "PIRUJPUR secondary SCHOOL", "eiin": 118312, "inst_type": "School", "district": "MEHERPUR", "thana": "MEHERPUR SADAR", "mauza": "PIROJPUR", "long": 88.68336, "lat": 23.74919, "serial": 18898, "isUnique": 1 }, "geometry": { "type": "Point", "coordinates": [ 88.68336, 23.74919 ] } },
{ "type": "Feature", "properties": { "inst_name": "MOMINPUR secondary GIRLS  SCHOOL", "eiin": 118291, "inst_type": "School", "district": "MEHERPUR", "thana": "MEHERPUR SADAR", "mauza": "BARADI", "long": 88.67314, "lat": 23.78823, "serial": 18899, "isUnique": 1 }, "geometry": { "type": "Point", "coordinates": [ 88.67314, 23.78823 ] } },
{ "type": "Feature", "properties": { "inst_name": "MEHERPUR GOVT. GIRLS HIGH SCHOOL", "eiin": 118301, "inst_type": "School", "district": "MEHERPUR", "thana": "MEHERPUR SADAR", "mauza": "GOVT. GIRLS' SCHOOL PARA", "long": 88.7082, "lat": 23.73752, "serial": 18900, "isUnique": 1 }, "geometry": { "type": "Point", "coordinates": [ 88.7082, 23.73752 ] } },
{ "type": "Feature", "properties": { "inst_name": "BARSHIBARIA HIGH SCHOOL", "eiin": 118290, "inst_type": "School", "district": "MEHERPUR", "thana": "MEHERPUR SADAR", "mauza": "BARSHIBARI", "long": 88.68418, "lat": 23.7461, "serial": 18901, "isUnique": 1 }, "geometry": { "type": "Point", "coordinates": [ 88.68418, 23.7461 ] } },
{ "type": "Feature", "properties": { "inst_name": "BALIARPUR secondary SCHOOL", "eiin": 118285, "inst_type": "School", "district": "MEHERPUR", "thana": "MEHERPUR SADAR", "mauza": "BALIARPUR", "long": 88.73423, "lat": 23.72284, "serial": 18902, "isUnique": 1 }, "geometry": { "type": "Point", "coordinates": [ 88.73423, 23.72284 ] } },
{ "type": "Feature", "properties": { "inst_name": "ASHRAFPUR HIGH SCHOOL", "eiin": 118308, "inst_type": "School", "district": "MEHERPUR", "thana": "MEHERPUR SADAR", "mauza": "ASHRAFPUR", "long": 88.67848, "lat": 23.70491, "serial": 18903, "isUnique": 1 }, "geometry": { "type": "Point", "coordinates": [ 88.67848, 23.70491 ] } },
{ "type": "Feature", "properties": { "inst_name": "TENGRAMARI SECONDARY SCHOOL", "eiin": 118306, "inst_type": "School", "district": "MEHERPUR", "thana": "MEHERPUR SADAR", "mauza": "BHABANANDAPUR", "long": 88.72724, "lat": 23.72572, "serial": 18904, "isUnique": 1 }, "geometry": { "type": "Point", "coordinates": [ 88.72724, 23.72572 ] } },
{ "type": "Feature", "properties": { "inst_name": "ANANDA BASH MIA MUNSUR ACADEMY", "eiin": 118269, "inst_type": "School", "district": "MEHERPUR", "thana": "MUJIB NAGAR", "mauza": "ANANDABAS", "long": 88.74328, "lat": 23.74142, "serial": 18905, "isUnique": 1 }, "geometry": { "type": "Point", "coordinates": [ 88.74328, 23.74142 ] } },
{ "type": "Feature", "properties": { "inst_name": "ANANDABAS GIRLS HIGH SCHOOL", "eiin": 118275, "inst_type": "School", "district": "MEHERPUR", "thana": "MUJIB NAGAR", "mauza": "ANANDABAS", "long": 88.72547, "lat": 23.70097, "serial": 18906, "isUnique": 2 }, "geometry": { "type": "Point", "coordinates": [ 88.72547, 23.70097 ] } },
{ "type": "Feature", "properties": { "inst_name": "BAGOWAN HIGH SCHOOL", "eiin": 118266, "inst_type": "School", "district": "MEHERPUR", "thana": "MUJIB NAGAR", "mauza": "BAGOAN", "long": 88.65122, "lat": 23.70028, "serial": 18907, "isUnique": 1 }, "geometry": { "type": "Point", "coordinates": [ 88.65122, 23.70028 ] } },
{ "type": "Feature", "properties": { "inst_name": "MUJIBNAGAR AMRO KANAN JUNIOR HIGH SCHOL", "eiin": 130639, "inst_type": "School", "district": "MEHERPUR", "thana": "MUJIB NAGAR", "mauza": "SONAPUR", "long": 88.65253, "lat": 23.67303, "serial": 18908, "isUnique": 1 }, "geometry": { "type": "Point", "coordinates": [ 88.65253, 23.67303 ] } },
{ "type": "Feature", "properties": { "inst_name": "MUJIB NAGAR SECONDARY SCHOOL", "eiin": 118265, "inst_type": "School", "district": "MEHERPUR", "thana": "MUJIB NAGAR", "mauza": "MANIKNAGAR", "long": 88.65222, "lat": 23.70056, "serial": 18909, "isUnique": 1 }, "geometry": { "type": "Point", "coordinates": [ 88.65222, 23.70056 ] } },
{ "type": "Feature", "properties": { "inst_name": "BOLLOVPUR MISSION JUNIOR HIGH SCHOOL", "eiin": 130638, "inst_type": "School", "district": "MEHERPUR", "thana": "MUJIB NAGAR", "mauza": "BALLABHPUR", "long": 88.62147, "lat": 23.65575, "serial": 18910, "isUnique": 1 }, "geometry": { "type": "Point", "coordinates": [ 88.62147, 23.65575 ] } },
{ "type": "Feature", "properties": { "inst_name": "DARIAPUR SECONDARY SCHOOL", "eiin": 118267, "inst_type": "School", "district": "MEHERPUR", "thana": "MUJIB NAGAR", "mauza": "DARIAPUR", "long": 88.60604, "lat": 23.63357, "serial": 18911, "isUnique": 1 }, "geometry": { "type": "Point", "coordinates": [ 88.60604, 23.63357 ] } },
{ "type": "Feature", "properties": { "inst_name": "DARIA PUR GIRLS HIGH SCHOOL", "eiin": 118270, "inst_type": "School", "district": "MEHERPUR", "thana": "MUJIB NAGAR", "mauza": "DARIAPUR", "long": 88.60908, "lat": 23.65983, "serial": 18912, "isUnique": 1 }, "geometry": { "type": "Point", "coordinates": [ 88.60908, 23.65983 ] } },
{ "type": "Feature", "properties": { "inst_name": "JOYPUR TARANAGAR HIGH SCHOOL", "eiin": 118264, "inst_type": "School", "district": "MEHERPUR", "thana": "MUJIB NAGAR", "mauza": "DARI JAGANNATHPUR", "long": 88.61708, "lat": 23.62728, "serial": 18913, "isUnique": 1 }, "geometry": { "type": "Point", "coordinates": [ 88.61708, 23.62728 ] } },
{ "type": "Feature", "properties": { "inst_name": "KAMORPUR HIGH SCHOOL", "eiin": 118271, "inst_type": "School", "district": "MEHERPUR", "thana": "MUJIB NAGAR", "mauza": "KAMARPUR", "long": 88.63261, "lat": 23.64514, "serial": 18914, "isUnique": 1 }, "geometry": { "type": "Point", "coordinates": [ 88.63261, 23.64514 ] } },
{ "type": "Feature", "properties": { "inst_name": "MOHAJONPUR HIGH SCHOOL", "eiin": 118272, "inst_type": "School", "district": "MEHERPUR", "thana": "MUJIB NAGAR", "mauza": "MAHAJANPUR", "long": 88.61233, "lat": 23.70408, "serial": 18915, "isUnique": 1 }, "geometry": { "type": "Point", "coordinates": [ 88.61233, 23.70408 ] } },
{ "type": "Feature", "properties": { "inst_name": "GOPAL NAGAR SECONDARY GIRLS SCHOOL", "eiin": 118276, "inst_type": "School", "district": "MEHERPUR", "thana": "MUJIB NAGAR", "mauza": "RAMNAGAR", "long": 88.57974, "lat": 23.69496, "serial": 18916, "isUnique": 1 }, "geometry": { "type": "Point", "coordinates": [ 88.57974, 23.69496 ] } },
{ "type": "Feature", "properties": { "inst_name": "MONAKHALI HIGH SCHOOL", "eiin": 118274, "inst_type": "School", "district": "MEHERPUR", "thana": "MUJIB NAGAR", "mauza": "MONAKHALI", "long": 88.61419, "lat": 23.70264, "serial": 18917, "isUnique": 1 }, "geometry": { "type": "Point", "coordinates": [ 88.61419, 23.70264 ] } },
{ "type": "Feature", "properties": { "inst_name": "ADARSHAW HIGH SCHOOL SHIBPUR", "eiin": 118273, "inst_type": "School", "district": "MEHERPUR", "thana": "MUJIB NAGAR", "mauza": "SHIBPUR", "long": 88.67807, "lat": 23.65455, "serial": 18918, "isUnique": 1 }, "geometry": { "type": "Point", "coordinates": [ 88.67807, 23.65455 ] } },
{ "type": "Feature", "properties": { "inst_name": "BAMONDI NISHIPUR SCHOOL AND COLLEGE", "eiin": 118263, "inst_type": "School and College", "district": "MEHERPUR", "thana": "GANGNI", "mauza": "BAMANDI", "long": 88.73898, "lat": 23.81766, "serial": 26135, "isUnique": 1 }, "geometry": { "type": "Point", "coordinates": [ 88.73898, 23.81766 ] } },
{ "type": "Feature", "properties": { "inst_name": "MEHERPUR  GIRLS  SCHOOL &  B.M COLLEGE", "eiin": 118341, "inst_type": "School and College", "district": "MEHERPUR", "thana": "MEHERPUR SADAR", "mauza": "BUS STAND PARA", "long": 88.63936, "lat": 23.83797, "serial": 26136, "isUnique": 1 }, "geometry": { "type": "Point", "coordinates": [ 88.63936, 23.83797 ] } },
{ "type": "Feature", "properties": { "inst_name": "JADUKHALI SCHOOL AND COLLEGE", "eiin": 118344, "inst_type": "School and College", "district": "MEHERPUR", "thana": "MEHERPUR SADAR", "mauza": "TANGI", "long": 88.61308, "lat": 23.67014, "serial": 26137, "isUnique": 1 }, "geometry": { "type": "Point", "coordinates": [ 88.61308, 23.67014 ] } }
]
}
