{
"type": "FeatureCollection",
"crs": { "type": "name", "properties": { "name": "urn:ogc:def:crs:OGC:1.3:CRS84" } },
"features": [
{ "type": "Feature", "properties": { "inst name": "ADARSHA DEGREE COLLEGe", "eiin": 111230, "inst_type": "College", "district": "MUNSHIGANJ", "thana": "SREENAGAR", "mauza": "BILARAI", "long": 90.294884, "lat": 23.54281, "serial": 1342, "isUnique": 1, "field_11": null }, "geometry": { "type": "Point", "coordinates": [ 90.294884, 23.54281 ] } },
{ "type": "Feature", "properties": { "inst name": "BIKRAMPUR TONGIBARI DEGREE COLLEGE", "eiin": 111255, "inst_type": "College", "district": "MUNSHIGANJ", "thana": "TONGIBARI", "mauza": "NAYANANDA", "long": 90.439, "lat": 23.51275, "serial": 1343, "isUnique": 1, "field_11": null }, "geometry": { "type": "Point", "coordinates": [ 90.439, 23.51275 ] } },
{ "type": "Feature", "properties": { "inst name": "SERAJABAD RANA SHAFIUAH COLLEGE", "eiin": 131938, "inst_type": "College", "district": "MUNSHIGANJ", "thana": "TONGIBARI", "mauza": "SERAJABAD", "long": 90.46406, "lat": 23.49122, "serial": 1344, "isUnique": 1, "field_11": null }, "geometry": { "type": "Point", "coordinates": [ 90.46406, 23.49122 ] } },
{ "type": "Feature", "properties": { "inst name": "SREENAGAR  GOVT.  COLLEGE", "eiin": 111231, "inst_type": "College", "district": "MUNSHIGANJ", "thana": "SREENAGAR", "mauza": "SREENAGAR", "long": 90.24914, "lat": 23.51894, "serial": 1345, "isUnique": 1, "field_11": null }, "geometry": { "type": "Point", "coordinates": [ 90.24914, 23.51894 ] } },
{ "type": "Feature", "properties": { "inst name": "VIKRAMPUR K. B. DEGREE COLLEGE", "eiin": 111200, "inst_type": "College", "district": "MUNSHIGANJ", "thana": "SERAJDIKHAN", "mauza": "ICHHAPUR", "long": 90.39225, "lat": 23.54894, "serial": 1346, "isUnique": 1, "field_11": null }, "geometry": { "type": "Point", "coordinates": [ 90.39225, 23.54894 ] } },
{ "type": "Feature", "properties": { "inst name": "BIKRAMPUR ADRASHA DEGREE COLLAGE", "eiin": 111201, "inst_type": "College", "district": "MUNSHIGANJ", "thana": "SERAJDIKHAN", "mauza": "KUCHIAMORA", "long": 90.39128, "lat": 23.57019, "serial": 1347, "isUnique": 1, "field_11": null }, "geometry": { "type": "Point", "coordinates": [ 90.39128, 23.57019 ] } },
{ "type": "Feature", "properties": { "inst name": "ALI ASGAR  ABDULLAH AND COLLEGE", "eiin": 111199, "inst_type": "College", "district": "MUNSHIGANJ", "thana": "SERAJDIKHAN", "mauza": "GOPALPUR", "long": 90.30172, "lat": 23.63161, "serial": 1348, "isUnique": 1, "field_11": null }, "geometry": { "type": "Point", "coordinates": [ 90.30172, 23.63161 ] } },
{ "type": "Feature", "properties": { "inst name": "MUNSHIGONJ GOVT. MOHILA COLLEGE", "eiin": 111159, "inst_type": "College", "district": "MUNSHIGANJ", "thana": "MUNSHIGANJ SADAR", "mauza": "MADHYA COURTGAON", "long": 90.27547, "lat": 23.61972, "serial": 1349, "isUnique": 1, "field_11": null }, "geometry": { "type": "Point", "coordinates": [ 90.27547, 23.61972 ] } },
{ "type": "Feature", "properties": { "inst name": "GOVT. HARAGANGA COLLEGE", "eiin": 111160, "inst_type": "College", "district": "MUNSHIGANJ", "thana": "MUNSHIGANJ SADAR", "mauza": "MATPARA", "long": 90.27892, "lat": 23.62283, "serial": 1350, "isUnique": 1, "field_11": null }, "geometry": { "type": "Point", "coordinates": [ 90.27892, 23.62283 ] } },
{ "type": "Feature", "properties": { "inst name": "RAMPAL COLLEGE", "eiin": 111161, "inst_type": "College", "district": "MUNSHIGANJ", "thana": "MUNSHIGANJ SADAR", "mauza": "GOBINDAPUR", "long": 90.49378, "lat": 23.56483, "serial": 1351, "isUnique": 1, "field_11": null }, "geometry": { "type": "Point", "coordinates": [ 90.49378, 23.56483 ] } },
{ "type": "Feature", "properties": { "inst name": "MIRKADIM HAZI AMZAD ALI (DEGREE) COLLEGE", "eiin": 132058, "inst_type": "College", "district": "MUNSHIGANJ", "thana": "MUNSHIGANJ SADAR", "mauza": "MURMA", "long": 90.49572, "lat": 23.54258, "serial": 1352, "isUnique": 1, "field_11": null }, "geometry": { "type": "Point", "coordinates": [ 90.49572, 23.54258 ] } },
{ "type": "Feature", "properties": { "inst name": "MEDINI MANDAL GIRLS COLLEGE", "eiin": 111128, "inst_type": "College", "district": "MUNSHIGANJ", "thana": "LOHAJANG", "mauza": "UTTAR MEDINI MANDAL", "long": 90.41375, "lat": 23.45225, "serial": 1353, "isUnique": 1, "field_11": null }, "geometry": { "type": "Point", "coordinates": [ 90.41375, 23.45225 ] } },
{ "type": "Feature", "properties": { "inst name": "LOHAJANG DEGREE  COLLEGE", "eiin": 111127, "inst_type": "College", "district": "MUNSHIGANJ", "thana": "LOHAJANG", "mauza": "BARA NAOPARA", "long": 90.24767, "lat": 23.48375, "serial": 1354, "isUnique": 1, "field_11": null }, "geometry": { "type": "Point", "coordinates": [ 90.24767, 23.48375 ] } },
{ "type": "Feature", "properties": { "inst name": "BALIGAON AMZAD ALI COLLEGE", "eiin": 111254, "inst_type": "College", "district": "MUNSHIGANJ", "thana": "TONGIBARI", "mauza": "HAT BALIGAON", "long": 90.26581, "lat": 23.48228, "serial": 1355, "isUnique": 1, "field_11": null }, "geometry": { "type": "Point", "coordinates": [ 90.26581, 23.48228 ] } },
{ "type": "Feature", "properties": { "inst name": "GAZARIA thana KALIMULLAH  COLLEGE", "eiin": 111107, "inst_type": "College", "district": "MUNSHIGANJ", "thana": "GAZARIA", "mauza": "SREENAGAR", "long": 90.67106, "lat": 23.53967, "serial": 1356, "isUnique": 1, "field_11": null }, "geometry": { "type": "Point", "coordinates": [ 90.67106, 23.53967 ] } },
{ "type": "Feature", "properties": { "inst name": "GOVT. GAZARIA COLLEGE", "eiin": 111108, "inst_type": "College", "district": "MUNSHIGANJ", "thana": "GAZARIA", "mauza": "SEBAK CHAR", "long": 90.69164, "lat": 23.50775, "serial": 1357, "isUnique": 1, "field_11": null }, "geometry": { "type": "Point", "coordinates": [ 90.69164, 23.50775 ] } },
{ "type": "Feature", "properties": { "inst name": "BALAI ISLAMIA DAKHIL MADRASHA", "eiin": 111253, "inst_type": "Madrasha", "district": "MUNSHIGANJ", "thana": "TONGIBARI", "mauza": "BALAI", "long": 90.47703, "lat": 23.46247, "serial": 6844, "isUnique": 1, "field_11": null }, "geometry": { "type": "Point", "coordinates": [ 90.47703, 23.46247 ] } },
{ "type": "Feature", "properties": { "inst name": "DHIPUR ISLAMIA FAZIL MADRASAH", "eiin": 111250, "inst_type": "Madrasha", "district": "MUNSHIGANJ", "thana": "TONGIBARI", "mauza": "DHIPUR", "long": 90.43633, "lat": 23.51975, "serial": 6845, "isUnique": 1, "field_11": null }, "geometry": { "type": "Point", "coordinates": [ 90.43633, 23.51975 ] } },
{ "type": "Feature", "properties": { "inst name": "DIGHIRPAR MOHAMMAADIA ISLAMIA DAKHIL MADRASHA", "eiin": 111252, "inst_type": "Madrasha", "district": "MUNSHIGANJ", "thana": "TONGIBARI", "mauza": "PURA", "long": 90.462, "lat": 23.50389, "serial": 6846, "isUnique": 1, "field_11": null }, "geometry": { "type": "Point", "coordinates": [ 90.462, 23.50389 ] } },
{ "type": "Feature", "properties": { "inst name": "KAMARGAON AL-AMIN ISLAMIA ALIM MADRASHA", "eiin": 111226, "inst_type": "Madrasha", "district": "MUNSHIGANJ", "thana": "SREENAGAR", "mauza": "KAMARGAON", "long": 90.22778, "lat": 23.59917, "serial": 6847, "isUnique": 1, "field_11": null }, "geometry": { "type": "Point", "coordinates": [ 90.22778, 23.59917 ] } },
{ "type": "Feature", "properties": { "inst name": "LASKARPUR HOSSAINIA KASEMUL ULUM ALIM MADRASHA", "eiin": 111225, "inst_type": "Madrasha", "district": "MUNSHIGANJ", "thana": "SREENAGAR", "mauza": "ALAMPUR", "long": 90.20961, "lat": 23.51506, "serial": 6848, "isUnique": 1, "field_11": null }, "geometry": { "type": "Point", "coordinates": [ 90.20961, 23.51506 ] } },
{ "type": "Feature", "properties": { "inst name": "HOGLAGAON HAZI RIAZUL ISLAM DARUSSUNNAT D. MADRASHA", "eiin": 111228, "inst_type": "Madrasha", "district": "MUNSHIGANJ", "thana": "SREENAGAR", "mauza": "PATABHOG", "long": 90.26381, "lat": 23.50475, "serial": 6849, "isUnique": 1, "field_11": null }, "geometry": { "type": "Point", "coordinates": [ 90.26381, 23.50475 ] } },
{ "type": "Feature", "properties": { "inst name": "DAYHATA GOWSUL AZAM JILANIA DAKHIL MADrasah", "eiin": 111229, "inst_type": "Madrasha", "district": "MUNSHIGANJ", "thana": "SREENAGAR", "mauza": "DAYHATA", "long": 90.30222, "lat": 23.52225, "serial": 6850, "isUnique": 1, "field_11": null }, "geometry": { "type": "Point", "coordinates": [ 90.30222, 23.52225 ] } },
{ "type": "Feature", "properties": { "inst name": "GADIGHAT ISLAMIA DAKHIL MADRASAH", "eiin": 111227, "inst_type": "Madrasha", "district": "MUNSHIGANJ", "thana": "SREENAGAR", "mauza": "GADIGHAT", "long": 90.28311, "lat": 23.53806, "serial": 6851, "isUnique": 1, "field_11": null }, "geometry": { "type": "Point", "coordinates": [ 90.28311, 23.53806 ] } },
{ "type": "Feature", "properties": { "inst name": "KALINAGAR MOHAMMADIA DAKHIL MADRASAH", "eiin": 131712, "inst_type": "Madrasha", "district": "MUNSHIGANJ", "thana": "SERAJDIKHAN", "mauza": "CHAR BAKTABALI", "long": 90.33522, "lat": 23.60075, "serial": 6852, "isUnique": 1, "field_11": null }, "geometry": { "type": "Point", "coordinates": [ 90.33522, 23.60075 ] } },
{ "type": "Feature", "properties": { "inst name": "KHASKANDI ISLAMIA DAKHIL MDRASHA", "eiin": 111196, "inst_type": "Madrasha", "district": "MUNSHIGANJ", "thana": "SERAJDIKHAN", "mauza": "CHAR KHASKANDI", "long": 90.43997, "lat": 23.59242, "serial": 6853, "isUnique": 1, "field_11": null }, "geometry": { "type": "Point", "coordinates": [ 90.43997, 23.59242 ] } },
{ "type": "Feature", "properties": { "inst name": "MOHSINIA ISLAMIA DAKHIL MADRASAH", "eiin": 111197, "inst_type": "Madrasha", "district": "MUNSHIGANJ", "thana": "SERAJDIKHAN", "mauza": "CHAR BAKTABALI", "long": 90.38933, "lat": 23.6465, "serial": 6854, "isUnique": 1, "field_11": null }, "geometry": { "type": "Point", "coordinates": [ 90.38933, 23.6465 ] } },
{ "type": "Feature", "properties": { "inst name": "NESARABAD NURIA DAKHIL MADRASAH", "eiin": 111192, "inst_type": "Madrasha", "district": "MUNSHIGANJ", "thana": "SERAJDIKHAN", "mauza": "RAJDIA", "long": 90.25039, "lat": 23.6385, "serial": 6855, "isUnique": 1, "field_11": null }, "geometry": { "type": "Point", "coordinates": [ 90.25039, 23.6385 ] } },
{ "type": "Feature", "properties": { "inst name": "ISLAMPUR KAMIL MADRASHA", "eiin": 111190, "inst_type": "Madrasha", "district": "MUNSHIGANJ", "thana": "SERAJDIKHAN", "mauza": "BARA BARTA", "long": 90.38889, "lat": 23.57114, "serial": 6856, "isUnique": 1, "field_11": null }, "geometry": { "type": "Point", "coordinates": [ 90.38889, 23.57114 ] } },
{ "type": "Feature", "properties": { "inst name": "MADHYAPARA RAIHANIA MOHAMMADIA DAKHIL MADRASHA", "eiin": 111194, "inst_type": "Madrasha", "district": "MUNSHIGANJ", "thana": "SERAJDIKHAN", "mauza": "MALAPDIA", "long": 90.35069, "lat": 23.55261, "serial": 6857, "isUnique": 1, "field_11": null }, "geometry": { "type": "Point", "coordinates": [ 90.35069, 23.55261 ] } },
{ "type": "Feature", "properties": { "inst name": "MALKHANAGAR ISLAMIA DAKHIL MADRASHA", "eiin": 111198, "inst_type": "Madrasha", "district": "MUNSHIGANJ", "thana": "SERAJDIKHAN", "mauza": "MALKHANAGAR", "long": 90.38656, "lat": 23.59517, "serial": 6858, "isUnique": 1, "field_11": null }, "geometry": { "type": "Point", "coordinates": [ 90.38656, 23.59517 ] } },
{ "type": "Feature", "properties": { "inst name": "SIDDIQUE AKBAR DAKHIL MADRASAH", "eiin": 111195, "inst_type": "Madrasha", "district": "MUNSHIGANJ", "thana": "SERAJDIKHAN", "mauza": "RAJANAGAR", "long": 90.42483, "lat": 23.55253, "serial": 6859, "isUnique": 1, "field_11": null }, "geometry": { "type": "Point", "coordinates": [ 90.42483, 23.55253 ] } },
{ "type": "Feature", "properties": { "inst name": "HAZRAT PUR GOPALPUR AHMADIA DAKHIL MADRASHA", "eiin": 111193, "inst_type": "Madrasha", "district": "MUNSHIGANJ", "thana": "SERAJDIKHAN", "mauza": "GOPALPUR", "long": 90.30144, "lat": 23.631, "serial": 6860, "isUnique": 1, "field_11": null }, "geometry": { "type": "Point", "coordinates": [ 90.30144, 23.631 ] } },
{ "type": "Feature", "properties": { "inst name": "MUNSHI GANJ ADARSHA ALIM MADRASAH", "eiin": 111157, "inst_type": "Madrasha", "district": "MUNSHIGANJ", "thana": "MUNSHIGANJ SADAR", "mauza": "SUTRADHAR PARA", "long": 90.52992, "lat": 23.54872, "serial": 6861, "isUnique": 1, "field_11": null }, "geometry": { "type": "Point", "coordinates": [ 90.52992, 23.54872 ] } },
{ "type": "Feature", "properties": { "inst name": "ADHARA DARUS SUNNAT ISLAMIA DAKHIL MADRASHA", "eiin": 131703, "inst_type": "Madrasha", "district": "MUNSHIGANJ", "thana": "MUNSHIGANJ SADAR", "mauza": "ADHARA", "long": 90.52781, "lat": 23.53728, "serial": 6862, "isUnique": 1, "field_11": null }, "geometry": { "type": "Point", "coordinates": [ 90.52781, 23.53728 ] } },
{ "type": "Feature", "properties": { "inst name": "AKAL MEGH AZIZIA DAKHIL MADRASHA", "eiin": 111155, "inst_type": "Madrasha", "district": "MUNSHIGANJ", "thana": "MUNSHIGANJ SADAR", "mauza": "AKAL MEGH", "long": 90.53603, "lat": 23.43039, "serial": 6863, "isUnique": 1, "field_11": null }, "geometry": { "type": "Point", "coordinates": [ 90.53603, 23.43039 ] } },
{ "type": "Feature", "properties": { "inst name": "PANCHASAR DARUSSUNNAT ISLAMIA ALIM MADRASAH", "eiin": 111156, "inst_type": "Madrasha", "district": "MUNSHIGANJ", "thana": "MUNSHIGANJ SADAR", "mauza": "PANCHASAR", "long": 90.53367, "lat": 23.55697, "serial": 6864, "isUnique": 1, "field_11": null }, "geometry": { "type": "Point", "coordinates": [ 90.53367, 23.55697 ] } },
{ "type": "Feature", "properties": { "inst name": "JALIL JABBAR DARUS SONNAT ALIM MADRASAH", "eiin": 111158, "inst_type": "Madrasha", "district": "MUNSHIGANJ", "thana": "MUNSHIGANJ SADAR", "mauza": "RAMPAL", "long": 90.49583, "lat": 23.572, "serial": 6865, "isUnique": 1, "field_11": null }, "geometry": { "type": "Point", "coordinates": [ 90.49583, 23.572 ] } },
{ "type": "Feature", "properties": { "inst name": "JANGALIA ISLAMIA DAKHIL MADRASAH", "eiin": 111123, "inst_type": "Madrasha", "district": "MUNSHIGANJ", "thana": "LOHAJANG", "mauza": "JANGALIA", "long": 90.50058, "lat": 23.54161, "serial": 6866, "isUnique": 1, "field_11": null }, "geometry": { "type": "Point", "coordinates": [ 90.50058, 23.54161 ] } },
{ "type": "Feature", "properties": { "inst name": "PAISA KARAMATIA ALIM MADRASAH", "eiin": 111125, "inst_type": "Madrasha", "district": "MUNSHIGANJ", "thana": "LOHAJANG", "mauza": "PAYSA", "long": 90.34069, "lat": 23.4705, "serial": 6867, "isUnique": 1, "field_11": null }, "geometry": { "type": "Point", "coordinates": [ 90.34069, 23.4705 ] } },
{ "type": "Feature", "properties": { "inst name": "MOUCHA AMANA HAKIM DAKHIL MADRASAH", "eiin": 111126, "inst_type": "Madrasha", "district": "MUNSHIGANJ", "thana": "LOHAJANG", "mauza": "MAUCHHA", "long": 90.34208, "lat": 23.47647, "serial": 6868, "isUnique": 1, "field_11": null }, "geometry": { "type": "Point", "coordinates": [ 90.34208, 23.47647 ] } },
{ "type": "Feature", "properties": { "inst name": "BHATER CHAR ISLAMIA DAKHIL MADRASHA", "eiin": 111105, "inst_type": "Madrasha", "district": "MUNSHIGANJ", "thana": "GAZARIA", "mauza": "BHATER CHAR", "long": 90.63994, "lat": 23.61306, "serial": 6870, "isUnique": 1, "field_11": null }, "geometry": { "type": "Point", "coordinates": [ 90.63994, 23.61306 ] } },
{ "type": "Feature", "properties": { "inst name": "SHIMULIA SIDDIKIA ALIM MADRASHA", "eiin": 111104, "inst_type": "Madrasha", "district": "MUNSHIGANJ", "thana": "GAZARIA", "mauza": "SHIMULIA", "long": 90.65139, "lat": 23.55597, "serial": 6871, "isUnique": 1, "field_11": null }, "geometry": { "type": "Point", "coordinates": [ 90.65139, 23.55597 ] } },
{ "type": "Feature", "properties": { "inst name": "HOSSAINDI  DAKHIL MADRASA", "eiin": 111103, "inst_type": "Madrasha", "district": "MUNSHIGANJ", "thana": "GAZARIA", "mauza": "HOSSAINDI", "long": 90.60689, "lat": 23.54311, "serial": 6872, "isUnique": 1, "field_11": null }, "geometry": { "type": "Point", "coordinates": [ 90.60689, 23.54311 ] } },
{ "type": "Feature", "properties": { "inst name": "MATHA VANGA MOHILA ALIM MADRASA", "eiin": 111106, "inst_type": "Madrasha", "district": "MUNSHIGANJ", "thana": "GAZARIA", "mauza": "CHAR SAHEBANI 16", "long": 90.66142, "lat": 23.50658, "serial": 6873, "isUnique": 1, "field_11": null }, "geometry": { "type": "Point", "coordinates": [ 90.66142, 23.50658 ] } },
{ "type": "Feature", "properties": { "inst name": "GAZARIA BATENIA ALIM MADRASHA", "eiin": 111102, "inst_type": "Madrasha", "district": "MUNSHIGANJ", "thana": "GAZARIA", "mauza": "RASULPUR", "long": 90.59878, "lat": 23.58811, "serial": 6874, "isUnique": 1, "field_11": null }, "geometry": { "type": "Point", "coordinates": [ 90.59878, 23.58811 ] } },
{ "type": "Feature", "properties": { "inst name": "DULAL MIAR HAT ISLAMIA AZIZIA DAKHIL MADRASHA", "eiin": 107632, "inst_type": "Madrasha", "district": "MUNSHIGANJ", "thana": "TONGIBARI", "mauza": "APARKATI", "long": 91.07653, "lat": 22.29147, "serial": 6875, "isUnique": 2, "field_11": null }, "geometry": { "type": "Point", "coordinates": [ 91.07653, 22.29147 ] } },
{ "type": "Feature", "properties": { "inst name": "HAZI ABDUL. GONI ABDUL.KARIM HIGH SCHOOL", "eiin": 111233, "inst_type": "School", "district": "MUNSHIGANJ", "thana": "TONGIBARI", "mauza": "JASHALONG", "long": 90.8025, "lat": 24.23794, "serial": 18919, "isUnique": 1, "field_11": null }, "geometry": { "type": "Point", "coordinates": [ 90.8025, 24.23794 ] } },
{ "type": "Feature", "properties": { "inst name": "PAIKPARA UNION HIGH SCHOOL", "eiin": 111241, "inst_type": "School", "district": "MUNSHIGANJ", "thana": "TONGIBARI", "mauza": "PAIK PARA", "long": 90.82647, "lat": 24.33928, "serial": 18920, "isUnique": 1, "field_11": null }, "geometry": { "type": "Point", "coordinates": [ 90.82647, 24.33928 ] } },
{ "type": "Feature", "properties": { "inst name": "ABDULLAPUR HIGH SCHOOL", "eiin": 111240, "inst_type": "School", "district": "MUNSHIGANJ", "thana": "TONGIBARI", "mauza": "SELIMABAD", "long": 90.87597, "lat": 24.32542, "serial": 18921, "isUnique": 1, "field_11": null }, "geometry": { "type": "Point", "coordinates": [ 90.87597, 24.32542 ] } },
{ "type": "Feature", "properties": { "inst name": "ARIAL SWARNA MOYEE HIGH SCHOOL", "eiin": 111244, "inst_type": "School", "district": "MUNSHIGANJ", "thana": "TONGIBARI", "mauza": "ARIAL (PART-B)", "long": 90.82592, "lat": 24.34525, "serial": 18922, "isUnique": 1, "field_11": null }, "geometry": { "type": "Point", "coordinates": [ 90.82592, 24.34525 ] } },
{ "type": "Feature", "properties": { "inst name": "OUT SHAHEE RADHA NATH HIGH SCHOOL", "eiin": 111242, "inst_type": "School", "district": "MUNSHIGANJ", "thana": "TONGIBARI", "mauza": "AUTSHAHI", "long": 90.82536, "lat": 24.33986, "serial": 18923, "isUnique": 1, "field_11": null }, "geometry": { "type": "Point", "coordinates": [ 90.82536, 24.33986 ] } },
{ "type": "Feature", "properties": { "inst name": "BETKA UNION HIGH SCHOOL", "eiin": 111249, "inst_type": "School", "district": "MUNSHIGANJ", "thana": "TONGIBARI", "mauza": "UTTAR BETKA", "long": 90.46544, "lat": 23.54058, "serial": 18924, "isUnique": 1, "field_11": null }, "geometry": { "type": "Point", "coordinates": [ 90.46544, 23.54058 ] } },
{ "type": "Feature", "properties": { "inst name": "BRAHMAN BHITA UNION HIGH SCHOOL", "eiin": 111239, "inst_type": "School", "district": "MUNSHIGANJ", "thana": "TONGIBARI", "mauza": "DHIPUR", "long": 90.47294, "lat": 23.54986, "serial": 18925, "isUnique": 1, "field_11": null }, "geometry": { "type": "Point", "coordinates": [ 90.47294, 23.54986 ] } },
{ "type": "Feature", "properties": { "inst name": "RONGMAHER HIGH SCHOOL", "eiin": 111246, "inst_type": "School", "district": "MUNSHIGANJ", "thana": "TONGIBARI", "mauza": "MARIAIL", "long": 90.43272, "lat": 23.48647, "serial": 18926, "isUnique": 1, "field_11": null }, "geometry": { "type": "Point", "coordinates": [ 90.43272, 23.48647 ] } },
{ "type": "Feature", "properties": { "inst name": "BANARI MULTILATERAL HIGH SCHOOL", "eiin": 111236, "inst_type": "School", "district": "MUNSHIGANJ", "thana": "TONGIBARI", "mauza": "HASAIL", "long": 90.45533, "lat": 23.54003, "serial": 18927, "isUnique": 1, "field_11": null }, "geometry": { "type": "Point", "coordinates": [ 90.45533, 23.54003 ] } },
{ "type": "Feature", "properties": { "inst name": "PURA D C HIGH SCHOOL", "eiin": 111245, "inst_type": "School", "district": "MUNSHIGANJ", "thana": "TONGIBARI", "mauza": "PURA", "long": 90.47017, "lat": 23.48369, "serial": 18928, "isUnique": 1, "field_11": null }, "geometry": { "type": "Point", "coordinates": [ 90.47017, 23.48369 ] } },
{ "type": "Feature", "properties": { "inst name": "DIGHIRPAR A.C. INSTITUTION", "eiin": 111243, "inst_type": "School", "district": "MUNSHIGANJ", "thana": "TONGIBARI", "mauza": "MULCHAR", "long": 90.46164, "lat": 23.50269, "serial": 18929, "isUnique": 1, "field_11": null }, "geometry": { "type": "Point", "coordinates": [ 90.46164, 23.50269 ] } },
{ "type": "Feature", "properties": { "inst name": "SWARNAGRAM R N HIGH SCHOOL", "eiin": 111235, "inst_type": "School", "district": "MUNSHIGANJ", "thana": "TONGIBARI", "mauza": "KAMARKHARA", "long": 90.45158, "lat": 23.44386, "serial": 18930, "isUnique": 1, "field_11": null }, "geometry": { "type": "Point", "coordinates": [ 90.45158, 23.44386 ] } },
{ "type": "Feature", "properties": { "inst name": "CHATHATI PARA SHEIKH KABEL ADARSHA HIGH SCHOOL", "eiin": 111248, "inst_type": "School", "district": "MUNSHIGANJ", "thana": "TONGIBARI", "mauza": "CHATATI PARA", "long": 90.49011, "lat": 23.45017, "serial": 18931, "isUnique": 1, "field_11": null }, "geometry": { "type": "Point", "coordinates": [ 90.49011, 23.45017 ] } },
{ "type": "Feature", "properties": { "inst name": "PANCHAON AL HAZ WAHED ALI DEWAN HIGH SCHOOL", "eiin": 111247, "inst_type": "School", "district": "MUNSHIGANJ", "thana": "TONGIBARI", "mauza": "MANDRA", "long": 90.49519, "lat": 23.44839, "serial": 18932, "isUnique": 1, "field_11": null }, "geometry": { "type": "Point", "coordinates": [ 90.49519, 23.44839 ] } },
{ "type": "Feature", "properties": { "inst name": "SONARANG MULTILATERAL PILOT HIGH SCHOOL", "eiin": 111238, "inst_type": "School", "district": "MUNSHIGANJ", "thana": "TONGIBARI", "mauza": "SONARANG", "long": 90.49778, "lat": 23.46136, "serial": 18933, "isUnique": 1, "field_11": null }, "geometry": { "type": "Point", "coordinates": [ 90.49778, 23.46136 ] } },
{ "type": "Feature", "properties": { "inst name": "TONGIBARI PILOT GIRLS HIGH SCHOOL", "eiin": 111237, "inst_type": "School", "district": "MUNSHIGANJ", "thana": "TONGIBARI", "mauza": "TONGIBARI", "long": 90.48744, "lat": 23.43711, "serial": 18934, "isUnique": 1, "field_11": null }, "geometry": { "type": "Point", "coordinates": [ 90.48744, 23.43711 ] } },
{ "type": "Feature", "properties": { "inst name": "BAGHRA SWARUP CHANDRA PILOT HIGH SCHOOL", "eiin": 111217, "inst_type": "School", "district": "MUNSHIGANJ", "thana": "SREENAGAR", "mauza": "BAGHRA", "long": 90.44392, "lat": 23.46072, "serial": 18935, "isUnique": 1, "field_11": null }, "geometry": { "type": "Point", "coordinates": [ 90.44392, 23.46072 ] } },
{ "type": "Feature", "properties": { "inst name": "BARAIKHALI HIGH SCHOOL", "eiin": 111209, "inst_type": "School", "district": "MUNSHIGANJ", "thana": "SREENAGAR", "mauza": "BARAIKHALI", "long": 90.44208, "lat": 23.45406, "serial": 18936, "isUnique": 1, "field_11": null }, "geometry": { "type": "Point", "coordinates": [ 90.44208, 23.45406 ] } },
{ "type": "Feature", "properties": { "inst name": "MADANKLI HIGH SCHOOL", "eiin": 111210, "inst_type": "School", "district": "MUNSHIGANJ", "thana": "SREENAGAR", "mauza": "BILARAI", "long": 90.46453, "lat": 23.52197, "serial": 18937, "isUnique": 1, "field_11": null }, "geometry": { "type": "Point", "coordinates": [ 90.46453, 23.52197 ] } },
{ "type": "Feature", "properties": { "inst name": "SHIBRAMPUR HIGH SCHOOL", "eiin": 111220, "inst_type": "School", "district": "MUNSHIGANJ", "thana": "SREENAGAR", "mauza": "SHIBRAMPUR", "long": 90.46744, "lat": 23.5115, "serial": 18938, "isUnique": 1, "field_11": null }, "geometry": { "type": "Point", "coordinates": [ 90.46744, 23.5115 ] } },
{ "type": "Feature", "properties": { "inst name": "BHAGYAKUL HARENDRA LAL HIGH SCHOOL", "eiin": 111215, "inst_type": "School", "district": "MUNSHIGANJ", "thana": "SREENAGAR", "mauza": "BHAGYAKUL", "long": 90.31406, "lat": 23.53414, "serial": 18939, "isUnique": 1, "field_11": null }, "geometry": { "type": "Point", "coordinates": [ 90.31406, 23.53414 ] } },
{ "type": "Feature", "properties": { "inst name": "ALHAJ KAZI FAZLUL HOQUE  HIGH SCHOOL", "eiin": 111224, "inst_type": "School", "district": "MUNSHIGANJ", "thana": "SREENAGAR", "mauza": "KAMARGAON", "long": 90.18564, "lat": 23.52397, "serial": 18940, "isUnique": 1, "field_11": null }, "geometry": { "type": "Point", "coordinates": [ 90.18564, 23.52397 ] } },
{ "type": "Feature", "properties": { "inst name": "KAMARGOAN IDEAL HIGH SCHOOL", "eiin": 111222, "inst_type": "School", "district": "MUNSHIGANJ", "thana": "SREENAGAR", "mauza": "KAMARGAON", "long": 90.24778, "lat": 23.60794, "serial": 18941, "isUnique": 1, "field_11": null }, "geometry": { "type": "Point", "coordinates": [ 90.24778, 23.60794 ] } },
{ "type": "Feature", "properties": { "inst name": "MDJIDPUR KAYAHATA K.C. INSTITUTION", "eiin": 111218, "inst_type": "School", "district": "MUNSHIGANJ", "thana": "SREENAGAR", "mauza": "BIRTARA", "long": 90.24458, "lat": 23.62711, "serial": 18942, "isUnique": 1, "field_11": null }, "geometry": { "type": "Point", "coordinates": [ 90.24458, 23.62711 ] } },
{ "type": "Feature", "properties": { "inst name": "HOSSAIN ALI HIGH SCHOOL", "eiin": 111204, "inst_type": "School", "district": "MUNSHIGANJ", "thana": "SREENAGAR", "mauza": "ALAMPUR", "long": 90.21783, "lat": 23.51044, "serial": 18943, "isUnique": 1, "field_11": null }, "geometry": { "type": "Point", "coordinates": [ 90.21783, 23.51044 ] } },
{ "type": "Feature", "properties": { "inst name": "KOLAPARA HIGH SCHOOL", "eiin": 111219, "inst_type": "School", "district": "MUNSHIGANJ", "thana": "SREENAGAR", "mauza": "KOLA PARA", "long": 90.20019, "lat": 23.52611, "serial": 18944, "isUnique": 1, "field_11": null }, "geometry": { "type": "Point", "coordinates": [ 90.20019, 23.52611 ] } },
{ "type": "Feature", "properties": { "inst name": "SAMASHPUR MULTILATeRAL HIGH SCHOOL", "eiin": 111207, "inst_type": "School", "district": "MUNSHIGANJ", "thana": "SREENAGAR", "mauza": "SAMASPUR", "long": 90.32603, "lat": 23.57186, "serial": 18945, "isUnique": 1, "field_11": null }, "geometry": { "type": "Point", "coordinates": [ 90.32603, 23.57186 ] } },
{ "type": "Feature", "properties": { "inst name": "HOGLAGAON ABUL HASHEM  HIGH SCHOOL", "eiin": 111206, "inst_type": "School", "district": "MUNSHIGANJ", "thana": "SREENAGAR", "mauza": "KAMARKHOLA", "long": 90.31594, "lat": 23.59197, "serial": 18946, "isUnique": 1, "field_11": null }, "geometry": { "type": "Point", "coordinates": [ 90.31594, 23.59197 ] } },
{ "type": "Feature", "properties": { "inst name": "KUKUTIA K. K. INSTITUTION", "eiin": 111216, "inst_type": "School", "district": "MUNSHIGANJ", "thana": "SREENAGAR", "mauza": "KUKUTIA", "long": 90.28386, "lat": 23.59867, "serial": 18947, "isUnique": 1, "field_11": null }, "geometry": { "type": "Point", "coordinates": [ 90.28386, 23.59867 ] } },
{ "type": "Feature", "properties": { "inst name": "SHOLAGHAR A. K. S. K. HIGH SCHOOL", "eiin": 111213, "inst_type": "School", "district": "MUNSHIGANJ", "thana": "SREENAGAR", "mauza": "SHOLAGHAR", "long": 90.27192, "lat": 23.50367, "serial": 18948, "isUnique": 1, "field_11": null }, "geometry": { "type": "Point", "coordinates": [ 90.27192, 23.50367 ] } },
{ "type": "Feature", "properties": { "inst name": "SREENAGAR GOVT.SUFIA A.HHE KHAN GIRLS SCHOOL", "eiin": 111212, "inst_type": "School", "district": "MUNSHIGANJ", "thana": "SREENAGAR", "mauza": "SREENAGAR", "long": 90.30214, "lat": 23.52139, "serial": 18949, "isUnique": 1, "field_11": null }, "geometry": { "type": "Point", "coordinates": [ 90.30214, 23.52139 ] } },
{ "type": "Feature", "properties": { "inst name": "SREENAGAR PILOT HIGH SCHOOL", "eiin": 111211, "inst_type": "School", "district": "MUNSHIGANJ", "thana": "SREENAGAR", "mauza": "SREENAGAR", "long": 90.31378, "lat": 23.49853, "serial": 18950, "isUnique": 1, "field_11": null }, "geometry": { "type": "Point", "coordinates": [ 90.31378, 23.49853 ] } },
{ "type": "Feature", "properties": { "inst name": "BEGUM FATEMA ARSHED ALI HIGHSCHOOL", "eiin": 111223, "inst_type": "School", "district": "MUNSHIGANJ", "thana": "SREENAGAR", "mauza": "SELAMATI", "long": 90.28744, "lat": 23.54956, "serial": 18951, "isUnique": 1, "field_11": null }, "geometry": { "type": "Point", "coordinates": [ 90.28744, 23.54956 ] } },
{ "type": "Feature", "properties": { "inst name": "RUSDI HIGH SCHOOL", "eiin": 111205, "inst_type": "School", "district": "MUNSHIGANJ", "thana": "SREENAGAR", "mauza": "RUJDI", "long": 90.28322, "lat": 23.53708, "serial": 18952, "isUnique": 1, "field_11": null }, "geometry": { "type": "Point", "coordinates": [ 90.28322, 23.53708 ] } },
{ "type": "Feature", "properties": { "inst name": "BELTALI G.J. HIGH SCHOOL", "eiin": 111203, "inst_type": "School", "district": "MUNSHIGANJ", "thana": "SREENAGAR", "mauza": "SING PARA", "long": 90.27286, "lat": 23.54806, "serial": 18953, "isUnique": 1, "field_11": null }, "geometry": { "type": "Point", "coordinates": [ 90.27286, 23.54806 ] } },
{ "type": "Feature", "properties": { "inst name": "KAZISAL HAZIGOAN HUMAYOUN MOLLA JR. HIGH SCHOOL", "eiin": 130852, "inst_type": "School", "district": "MUNSHIGANJ", "thana": "SERAJDIKHAN", "mauza": "KAZISAL", "long": 90.28006, "lat": 23.53656, "serial": 18954, "isUnique": 1, "field_11": null }, "geometry": { "type": "Point", "coordinates": [ 90.28006, 23.53656 ] } },
{ "type": "Feature", "properties": { "inst name": "HAJI  ABUBAKAR  SIDDIQUE  ADARSHA HIGH SCHOOL", "eiin": 111187, "inst_type": "School", "district": "MUNSHIGANJ", "thana": "SERAJDIKHAN", "mauza": "BALUR CHAR", "long": 90.25767, "lat": 23.53611, "serial": 18955, "isUnique": 1, "field_11": null }, "geometry": { "type": "Point", "coordinates": [ 90.25767, 23.53611 ] } },
{ "type": "Feature", "properties": { "inst name": "ALHAZ MD GAIZUDDIN HIGH SCHOOL", "eiin": 111189, "inst_type": "School", "district": "MUNSHIGANJ", "thana": "SERAJDIKHAN", "mauza": "CHAR KHASKANDI", "long": 90.24922, "lat": 23.54578, "serial": 18956, "isUnique": 1, "field_11": null }, "geometry": { "type": "Point", "coordinates": [ 90.24922, 23.54578 ] } },
{ "type": "Feature", "properties": { "inst name": "KHASKANDI JENIOR HIGH SCHOOL", "eiin": 111188, "inst_type": "School", "district": "MUNSHIGANJ", "thana": "SERAJDIKHAN", "mauza": "KAIRAKHOLA", "long": 90.34842, "lat": 23.52478, "serial": 18957, "isUnique": 1, "field_11": null }, "geometry": { "type": "Point", "coordinates": [ 90.34842, 23.52478 ] } },
{ "type": "Feature", "properties": { "inst name": "KHASMAHAL BALUCHAR HIGH SCHOOL", "eiin": 111175, "inst_type": "School", "district": "MUNSHIGANJ", "thana": "SERAJDIKHAN", "mauza": "BALUR CHAR", "long": 90.33806, "lat": 23.55139, "serial": 18958, "isUnique": 1, "field_11": null }, "geometry": { "type": "Point", "coordinates": [ 90.33806, 23.55139 ] } },
{ "type": "Feature", "properties": { "inst name": "BASAIL HIGH SCHOOL", "eiin": 111177, "inst_type": "School", "district": "MUNSHIGANJ", "thana": "SERAJDIKHAN", "mauza": "BASAIL", "long": 90.38181, "lat": 23.64761, "serial": 18959, "isUnique": 1, "field_11": null }, "geometry": { "type": "Point", "coordinates": [ 90.38181, 23.64761 ] } },
{ "type": "Feature", "properties": { "inst name": "SOLEPORE  HIGH  SCHOOL", "eiin": 111179, "inst_type": "School", "district": "MUNSHIGANJ", "thana": "SERAJDIKHAN", "mauza": "BARIHAJI", "long": 90.42325, "lat": 23.60636, "serial": 18960, "isUnique": 1, "field_11": null }, "geometry": { "type": "Point", "coordinates": [ 90.42325, 23.60636 ] } },
{ "type": "Feature", "properties": { "inst name": "BAIRAGADI UNION High school", "eiin": 111186, "inst_type": "School", "district": "MUNSHIGANJ", "thana": "SERAJDIKHAN", "mauza": "BAYARAGADI", "long": 90.43753, "lat": 23.59119, "serial": 18961, "isUnique": 1, "field_11": null }, "geometry": { "type": "Point", "coordinates": [ 90.43753, 23.59119 ] } },
{ "type": "Feature", "properties": { "inst name": "KHARSHUR HIGH SCHOOL", "eiin": 111170, "inst_type": "School", "district": "MUNSHIGANJ", "thana": "SERAJDIKHAN", "mauza": "KHARSUL", "long": 90.43747, "lat": 23.59917, "serial": 18962, "isUnique": 1, "field_11": null }, "geometry": { "type": "Point", "coordinates": [ 90.43747, 23.59917 ] } },
{ "type": "Feature", "properties": { "inst name": "ICHHAPURA HIGH SCHOOL", "eiin": 111171, "inst_type": "School", "district": "MUNSHIGANJ", "thana": "SERAJDIKHAN", "mauza": "ICHHAPUR", "long": 90.36878, "lat": 23.60908, "serial": 18963, "isUnique": 1, "field_11": null }, "geometry": { "type": "Point", "coordinates": [ 90.36878, 23.60908 ] } },
{ "type": "Feature", "properties": { "inst name": "KUSUMPUR HIGH SCHOOL", "eiin": 111185, "inst_type": "School", "district": "MUNSHIGANJ", "thana": "SERAJDIKHAN", "mauza": "SIALDI", "long": 90.31839, "lat": 23.61086, "serial": 18964, "isUnique": 1, "field_11": null }, "geometry": { "type": "Point", "coordinates": [ 90.31839, 23.61086 ] } },
{ "type": "Feature", "properties": { "inst name": "RAJDIA ABHOY PILOT HIGH SCHOOL", "eiin": 111172, "inst_type": "School", "district": "MUNSHIGANJ", "thana": "SERAJDIKHAN", "mauza": "RAJDIA", "long": 90.42053, "lat": 23.57272, "serial": 18965, "isUnique": 1, "field_11": null }, "geometry": { "type": "Point", "coordinates": [ 90.42053, 23.57272 ] } },
{ "type": "Feature", "properties": { "inst name": "RAJDIA ABDUL JABBER PILOT GIRLS HIGH SCHOOL", "eiin": 111180, "inst_type": "School", "district": "MUNSHIGANJ", "thana": "SERAJDIKHAN", "mauza": "RAJDIA", "long": 90.28108, "lat": 23.64217, "serial": 18966, "isUnique": 1, "field_11": null }, "geometry": { "type": "Point", "coordinates": [ 90.28108, 23.64217 ] } },
{ "type": "Feature", "properties": { "inst name": "ADARSHA HIGH SCHOOL", "eiin": 111167, "inst_type": "School", "district": "MUNSHIGANJ", "thana": "SERAJDIKHAN", "mauza": "KUCHIAMORA", "long": 90.36864, "lat": 23.54908, "serial": 18967, "isUnique": 1, "field_11": null }, "geometry": { "type": "Point", "coordinates": [ 90.36864, 23.54908 ] } },
{ "type": "Feature", "properties": { "inst name": "CHHATIANTALI HIGH SCHOOL", "eiin": 111176, "inst_type": "School", "district": "MUNSHIGANJ", "thana": "SERAJDIKHAN", "mauza": "CHHATIANTALI", "long": 90.39778, "lat": 23.57481, "serial": 18968, "isUnique": 1, "field_11": null }, "geometry": { "type": "Point", "coordinates": [ 90.39778, 23.57481 ] } },
{ "type": "Feature", "properties": { "inst name": "LATABDI MADOMIK SCHOOL", "eiin": 111184, "inst_type": "School", "district": "MUNSHIGANJ", "thana": "SERAJDIKHAN", "mauza": "LATABDI", "long": 90.39264, "lat": 23.551, "serial": 18969, "isUnique": 1, "field_11": null }, "geometry": { "type": "Point", "coordinates": [ 90.39264, 23.551 ] } },
{ "type": "Feature", "properties": { "inst name": "SK. MD. MIR HOSSAIN HIGH SCHOOL", "eiin": 111165, "inst_type": "School", "district": "MUNSHIGANJ", "thana": "SERAJDIKHAN", "mauza": "RAMKRISHNADI", "long": 90.34572, "lat": 23.63189, "serial": 18970, "isUnique": 1, "field_11": null }, "geometry": { "type": "Point", "coordinates": [ 90.34572, 23.63189 ] } },
{ "type": "Feature", "properties": { "inst name": "MASTER  ABDUR RAHMAN ACADEMY", "eiin": 111169, "inst_type": "School", "district": "MUNSHIGANJ", "thana": "SERAJDIKHAN", "mauza": "MADHYAPARA", "long": 90.33172, "lat": 23.63983, "serial": 18971, "isUnique": 1, "field_11": null }, "geometry": { "type": "Point", "coordinates": [ 90.33172, 23.63983 ] } },
{ "type": "Feature", "properties": { "inst name": "MALPADIA HIGH SCHOOL", "eiin": 111181, "inst_type": "School", "district": "MUNSHIGANJ", "thana": "SERAJDIKHAN", "mauza": "MALAPDIA", "long": 90.34611, "lat": 23.63156, "serial": 18972, "isUnique": 1, "field_11": null }, "geometry": { "type": "Point", "coordinates": [ 90.34611, 23.63156 ] } },
{ "type": "Feature", "properties": { "inst name": "MALKHANAGAR  HIGH  SCHOOL", "eiin": 111202, "inst_type": "School", "district": "MUNSHIGANJ", "thana": "SERAJDIKHAN", "mauza": "MALKHANAGAR", "long": 90.37708, "lat": 23.62681, "serial": 18973, "isUnique": 1, "field_11": null }, "geometry": { "type": "Point", "coordinates": [ 90.37708, 23.62681 ] } },
{ "type": "Feature", "properties": { "inst name": "SYEDPUR ABDUR RAHMAN HIGH SCHOOL", "eiin": 111164, "inst_type": "School", "district": "MUNSHIGANJ", "thana": "SERAJDIKHAN", "mauza": "MADHUPUR", "long": 90.4175, "lat": 23.54575, "serial": 18974, "isUnique": 1, "field_11": null }, "geometry": { "type": "Point", "coordinates": [ 90.4175, 23.54575 ] } },
{ "type": "Feature", "properties": { "inst name": "RAJANAGAR SYEDPUR UNION HIGH SCHOOL", "eiin": 111174, "inst_type": "School", "district": "MUNSHIGANJ", "thana": "SERAJDIKHAN", "mauza": "RAJANAGAR", "long": 90.40617, "lat": 23.53311, "serial": 18975, "isUnique": 1, "field_11": null }, "geometry": { "type": "Point", "coordinates": [ 90.40617, 23.53311 ] } },
{ "type": "Feature", "properties": { "inst name": "SERAJDIKHAN HIGH SCHOOL", "eiin": 111182, "inst_type": "School", "district": "MUNSHIGANJ", "thana": "SERAJDIKHAN", "mauza": "CHAR MARDAN", "long": 90.42531, "lat": 23.55028, "serial": 18976, "isUnique": 1, "field_11": null }, "geometry": { "type": "Point", "coordinates": [ 90.42531, 23.55028 ] } },
{ "type": "Feature", "properties": { "inst name": "SHEKHAR NAGAR GIRLS HIGH SCHOOL", "eiin": 111178, "inst_type": "School", "district": "MUNSHIGANJ", "thana": "SERAJDIKHAN", "mauza": "SEKHARNAGAR", "long": 90.30314, "lat": 23.65517, "serial": 18977, "isUnique": 1, "field_11": null }, "geometry": { "type": "Point", "coordinates": [ 90.30314, 23.65517 ] } },
{ "type": "Feature", "properties": { "inst name": "RAIBAHADUR  SREENATH  INSTITUTION", "eiin": 111168, "inst_type": "School", "district": "MUNSHIGANJ", "thana": "SERAJDIKHAN", "mauza": "SEKHARNAGAR", "long": 90.29808, "lat": 23.63189, "serial": 18978, "isUnique": 1, "field_11": null }, "geometry": { "type": "Point", "coordinates": [ 90.29808, 23.63189 ] } },
{ "type": "Feature", "properties": { "inst name": "RASUNIA  HIGH SCHOOL", "eiin": 111173, "inst_type": "School", "district": "MUNSHIGANJ", "thana": "SERAJDIKHAN", "mauza": "RASUNIA", "long": 90.37156, "lat": 23.57436, "serial": 18979, "isUnique": 1, "field_11": null }, "geometry": { "type": "Point", "coordinates": [ 90.37156, 23.57436 ] } },
{ "type": "Feature", "properties": { "inst name": "REKABI BAZAR HIGH SCHOOL", "eiin": 111144, "inst_type": "School", "district": "MUNSHIGANJ", "thana": "MUNSHIGANJ SADAR", "mauza": "NAIDIGHIR PATHAR", "long": 90.27425, "lat": 23.62047, "serial": 18980, "isUnique": 1, "field_11": null }, "geometry": { "type": "Point", "coordinates": [ 90.27425, 23.62047 ] } },
{ "type": "Feature", "properties": { "inst name": "REKABI BAZAR GIRLS HIGH SCHOOL", "eiin": 111142, "inst_type": "School", "district": "MUNSHIGANJ", "thana": "MUNSHIGANJ SADAR", "mauza": "GOPALNAGAR", "long": 90.28647, "lat": 23.61869, "serial": 18981, "isUnique": 1, "field_11": null }, "geometry": { "type": "Point", "coordinates": [ 90.28647, 23.61869 ] } },
{ "type": "Feature", "properties": { "inst name": "MUNSHIGONJ M.L. HIGH SCHOOL", "eiin": 111137, "inst_type": "School", "district": "MUNSHIGANJ", "thana": "MUNSHIGANJ SADAR", "mauza": "DARGAHBARI", "long": 90.35989, "lat": 23.58556, "serial": 18982, "isUnique": 1, "field_11": null }, "geometry": { "type": "Point", "coordinates": [ 90.35989, 23.58556 ] } },
{ "type": "Feature", "properties": { "inst name": "MD. AMIRUL HAQUE POURA GIRLS HIGH SCHOOL", "eiin": 111152, "inst_type": "School", "district": "MUNSHIGANJ", "thana": "MUNSHIGANJ SADAR", "mauza": "SUDHAR CHAR", "long": 90.53247, "lat": 23.54706, "serial": 18983, "isUnique": 1, "field_11": null }, "geometry": { "type": "Point", "coordinates": [ 90.53247, 23.54706 ] } },
{ "type": "Feature", "properties": { "inst name": "RAMPAL N.B.M. HIGH SCHOOL", "eiin": 111139, "inst_type": "School", "district": "MUNSHIGANJ", "thana": "MUNSHIGANJ SADAR", "mauza": "GOBINDAPUR", "long": 90.53786, "lat": 23.54853, "serial": 18984, "isUnique": 1, "field_11": null }, "geometry": { "type": "Point", "coordinates": [ 90.53786, 23.54853 ] } },
{ "type": "Feature", "properties": { "inst name": "MIRKADIM HAZI AMJAD ALI HIGH SCHOOL", "eiin": 111163, "inst_type": "School", "district": "MUNSHIGANJ", "thana": "MUNSHIGANJ SADAR", "mauza": "MURMA", "long": 90.53419, "lat": 23.54844, "serial": 18985, "isUnique": 2, "field_11": null }, "geometry": { "type": "Point", "coordinates": [ 90.53419, 23.54844 ] } },
{ "type": "Feature", "properties": { "inst name": "MUNSHIGANJ GIRLS HIGH SCHOOL", "eiin": 111133, "inst_type": "School", "district": "MUNSHIGANJ", "thana": "MUNSHIGANJ SADAR", "mauza": "MADHYA COURTGAON", "long": 90.53419, "lat": 23.54844, "serial": 18986, "isUnique": 2, "field_11": null }, "geometry": { "type": "Point", "coordinates": [ 90.53419, 23.54844 ] } },
{ "type": "Feature", "properties": { "inst name": "K.K. GOVT. INSTITUTION", "eiin": 111138, "inst_type": "School", "district": "MUNSHIGANJ", "thana": "MUNSHIGANJ SADAR", "mauza": "MADHYA COURTGAON", "long": 90.54183, "lat": 23.54336, "serial": 18987, "isUnique": 1, "field_11": null }, "geometry": { "type": "Point", "coordinates": [ 90.54183, 23.54336 ] } },
{ "type": "Feature", "properties": { "inst name": "EDRAKPUR HIGH SCHOOL", "eiin": 111146, "inst_type": "School", "district": "MUNSHIGANJ", "thana": "MUNSHIGANJ SADAR", "mauza": "MADHYA COURTGAON", "long": 90.48461, "lat": 23.56083, "serial": 18988, "isUnique": 1, "field_11": null }, "geometry": { "type": "Point", "coordinates": [ 90.48461, 23.56083 ] } },
{ "type": "Feature", "properties": { "inst name": "RANCHA RUHITPUR HIGH SCHOOL", "eiin": 111135, "inst_type": "School", "district": "MUNSHIGANJ", "thana": "MUNSHIGANJ SADAR", "mauza": "KAMLAGHAT", "long": 90.48589, "lat": 23.56069, "serial": 18989, "isUnique": 1, "field_11": null }, "geometry": { "type": "Point", "coordinates": [ 90.48589, 23.56069 ] } },
{ "type": "Feature", "properties": { "inst name": "A.V.J.M. GOVT. GIRL'S HIGH SCHOOL", "eiin": 111134, "inst_type": "School", "district": "MUNSHIGANJ", "thana": "MUNSHIGANJ SADAR", "mauza": "MADHYA COURTGAON", "long": 90.48592, "lat": 23.56928, "serial": 18990, "isUnique": 1, "field_11": null }, "geometry": { "type": "Point", "coordinates": [ 90.48592, 23.56928 ] } },
{ "type": "Feature", "properties": { "inst name": "BAKULTALA H.A.K HIGH SCHOOL", "eiin": 111147, "inst_type": "School", "district": "MUNSHIGANJ", "thana": "MUNSHIGANJ SADAR", "mauza": "TEPIR CHAR", "long": 90.53081, "lat": 23.55669, "serial": 18991, "isUnique": 1, "field_11": null }, "geometry": { "type": "Point", "coordinates": [ 90.53081, 23.55669 ] } },
{ "type": "Feature", "properties": { "inst name": "ZAZIRA SAYEDPUR ALHAJ M A KASEM  JUNIOR SCHOOL", "eiin": 130846, "inst_type": "School", "district": "MUNSHIGANJ", "thana": "MUNSHIGANJ SADAR", "mauza": "ADHARA", "long": 90.49756, "lat": 23.55706, "serial": 18992, "isUnique": 1, "field_11": null }, "geometry": { "type": "Point", "coordinates": [ 90.49756, 23.55706 ] } },
{ "type": "Feature", "properties": { "inst name": "SYED PUR HIGH SCHOOL", "eiin": 130848, "inst_type": "School", "district": "MUNSHIGANJ", "thana": "MUNSHIGANJ SADAR", "mauza": "DIARA SAIDPUR", "long": 90.53436, "lat": 23.54147, "serial": 18993, "isUnique": 1, "field_11": null }, "geometry": { "type": "Point", "coordinates": [ 90.53436, 23.54147 ] } },
{ "type": "Feature", "properties": { "inst name": "BAJRAJOGiNI  J.K  HIGH SCHOOL", "eiin": 111141, "inst_type": "School", "district": "MUNSHIGANJ", "thana": "MUNSHIGANJ SADAR", "mauza": "BAJRA JOGINI", "long": 90.53317, "lat": 23.54736, "serial": 18994, "isUnique": 1, "field_11": null }, "geometry": { "type": "Point", "coordinates": [ 90.53317, 23.54736 ] } },
{ "type": "Feature", "properties": { "inst name": "BANIAL HIGH SCHOOL", "eiin": 111143, "inst_type": "School", "district": "MUNSHIGANJ", "thana": "MUNSHIGANJ SADAR", "mauza": "CHAR BANIAN", "long": 90.53633, "lat": 23.46033, "serial": 18995, "isUnique": 1, "field_11": null }, "geometry": { "type": "Point", "coordinates": [ 90.53633, 23.46033 ] } },
{ "type": "Feature", "properties": { "inst name": "ALHAZ M. A. KHALEQUE ADARSHA  HIGH SCHOOL", "eiin": 111148, "inst_type": "School", "district": "MUNSHIGANJ", "thana": "MUNSHIGANJ SADAR", "mauza": "TARKI CHAR", "long": 90.55597, "lat": 23.47778, "serial": 18996, "isUnique": 1, "field_11": null }, "geometry": { "type": "Point", "coordinates": [ 90.55597, 23.47778 ] } },
{ "type": "Feature", "properties": { "inst name": "FULTALA MOHAMMADIA HIGH SCHOOL", "eiin": 111131, "inst_type": "School", "district": "MUNSHIGANJ", "thana": "MUNSHIGANJ SADAR", "mauza": "TARKI CHAR", "long": 90.55675, "lat": 23.47119, "serial": 18997, "isUnique": 1, "field_11": null }, "geometry": { "type": "Point", "coordinates": [ 90.55675, 23.47119 ] } },
{ "type": "Feature", "properties": { "inst name": "TORKI HIGH SCHOOL", "eiin": 130847, "inst_type": "School", "district": "MUNSHIGANJ", "thana": "MUNSHIGANJ SADAR", "mauza": "TARKI CHAR", "long": 90.52347, "lat": 23.45772, "serial": 18998, "isUnique": 1, "field_11": null }, "geometry": { "type": "Point", "coordinates": [ 90.52347, 23.45772 ] } },
{ "type": "Feature", "properties": { "inst name": "ShILAy HAZI MONIR UDDIN JR. HIGH SCHOOL", "eiin": 111151, "inst_type": "School", "district": "MUNSHIGANJ", "thana": "MUNSHIGANJ SADAR", "mauza": "SILAI", "long": 90.49036, "lat": 23.5195, "serial": 18999, "isUnique": 1, "field_11": null }, "geometry": { "type": "Point", "coordinates": [ 90.49036, 23.5195 ] } },
{ "type": "Feature", "properties": { "inst name": "MOHAKALI  UNION  HIGH SCHOOL", "eiin": 111130, "inst_type": "School", "district": "MUNSHIGANJ", "thana": "MUNSHIGANJ SADAR", "mauza": "MAHAKALI", "long": 90.54314, "lat": 23.49394, "serial": 19000, "isUnique": 1, "field_11": null }, "geometry": { "type": "Point", "coordinates": [ 90.54314, 23.49394 ] } },
{ "type": "Feature", "properties": { "inst name": "ANANDAPUR IDEAL high scholl", "eiin": 130851, "inst_type": "School", "district": "MUNSHIGANJ", "thana": "MUNSHIGANJ SADAR", "mauza": "ANANDAPUR", "long": 90.55506, "lat": 23.51233, "serial": 19001, "isUnique": 1, "field_11": null }, "geometry": { "type": "Point", "coordinates": [ 90.55506, 23.51233 ] } },
{ "type": "Feature", "properties": { "inst name": "MAKHATI G.C HIGH SCHOOL", "eiin": 111129, "inst_type": "School", "district": "MUNSHIGANJ", "thana": "MUNSHIGANJ SADAR", "mauza": "MAKUHATI", "long": 90.54414, "lat": 23.52625, "serial": 19002, "isUnique": 1, "field_11": null }, "geometry": { "type": "Point", "coordinates": [ 90.54414, 23.52625 ] } },
{ "type": "Feature", "properties": { "inst name": "BINODPUR RAMKUMAR HIGH SCHOOL", "eiin": 111132, "inst_type": "School", "district": "MUNSHIGANJ", "thana": "MUNSHIGANJ SADAR", "mauza": "BINODPUR", "long": 90.51464, "lat": 23.50925, "serial": 19003, "isUnique": 1, "field_11": null }, "geometry": { "type": "Point", "coordinates": [ 90.51464, 23.50925 ] } },
{ "type": "Feature", "properties": { "inst name": "CHAMPA TALA HIGH SCHOOL", "eiin": 111145, "inst_type": "School", "district": "MUNSHIGANJ", "thana": "MUNSHIGANJ SADAR", "mauza": "CHAMPATALI", "long": 90.51025, "lat": 23.44781, "serial": 19004, "isUnique": 1, "field_11": null }, "geometry": { "type": "Point", "coordinates": [ 90.51025, 23.44781 ] } },
{ "type": "Feature", "properties": { "inst name": "PANCHASAR UNION GIRLS HIGH SCHOOL", "eiin": 111150, "inst_type": "School", "district": "MUNSHIGANJ", "thana": "MUNSHIGANJ SADAR", "mauza": "PANCHASAR", "long": 90.50794, "lat": 23.48781, "serial": 19005, "isUnique": 1, "field_11": null }, "geometry": { "type": "Point", "coordinates": [ 90.50794, 23.48781 ] } },
{ "type": "Feature", "properties": { "inst name": "SHAHID ZIAUR RAHMAN HIGH SCHOOL", "eiin": 111136, "inst_type": "School", "district": "MUNSHIGANJ", "thana": "MUNSHIGANJ SADAR", "mauza": "PASCHIM MOKTARPUR", "long": 90.53794, "lat": 23.54922, "serial": 19006, "isUnique": 1, "field_11": null }, "geometry": { "type": "Point", "coordinates": [ 90.53794, 23.54922 ] } },
{ "type": "Feature", "properties": { "inst name": "BASIRANNESSA HIGH SCHOOL", "eiin": 111140, "inst_type": "School", "district": "MUNSHIGANJ", "thana": "MUNSHIGANJ SADAR", "mauza": "SUKHABASPUR", "long": 90.51156, "lat": 23.53544, "serial": 19007, "isUnique": 1, "field_11": null }, "geometry": { "type": "Point", "coordinates": [ 90.51156, 23.53544 ] } },
{ "type": "Feature", "properties": { "inst name": "SUKHOBASPUR SHYAMNALINI HIGH SCHOOL", "eiin": 111149, "inst_type": "School", "district": "MUNSHIGANJ", "thana": "MUNSHIGANJ SADAR", "mauza": "SUKHABASPUR", "long": 90.5085, "lat": 23.55853, "serial": 19008, "isUnique": 1, "field_11": null }, "geometry": { "type": "Point", "coordinates": [ 90.5085, 23.55853 ] } },
{ "type": "Feature", "properties": { "inst name": "LOuHAJONG  GIRLS  PILOT  HIGH  SCHOOL", "eiin": 111114, "inst_type": "School", "district": "MUNSHIGANJ", "thana": "LOHAJANG", "mauza": "BARA BEJGAON", "long": 90.51769, "lat": 23.56425, "serial": 19009, "isUnique": 1, "field_11": null }, "geometry": { "type": "Point", "coordinates": [ 90.51769, 23.56425 ] } },
{ "type": "Feature", "properties": { "inst name": "HALDIA MULTILATERAL HIGH SCHOOL", "eiin": 111116, "inst_type": "School", "district": "MUNSHIGANJ", "thana": "LOHAJANG", "mauza": "UTTAR HALDIA", "long": 90.52783, "lat": 23.561, "serial": 19010, "isUnique": 1, "field_11": null }, "geometry": { "type": "Point", "coordinates": [ 90.52783, 23.561 ] } },
{ "type": "Feature", "properties": { "inst name": "LOHAJONG PILOT HIGH SCHOOL", "eiin": 111113, "inst_type": "School", "district": "MUNSHIGANJ", "thana": "LOHAJANG", "mauza": "BHOGDIA", "long": 90.48631, "lat": 23.54183, "serial": 19011, "isUnique": 1, "field_11": null }, "geometry": { "type": "Point", "coordinates": [ 90.48631, 23.54183 ] } },
{ "type": "Feature", "properties": { "inst name": "PAISHA HIGH SCHOOL", "eiin": 111119, "inst_type": "School", "district": "MUNSHIGANJ", "thana": "LOHAJANG", "mauza": "BAULTALI", "long": 90.48722, "lat": 23.53297, "serial": 19012, "isUnique": 1, "field_11": null }, "geometry": { "type": "Point", "coordinates": [ 90.48722, 23.53297 ] } },
{ "type": "Feature", "properties": { "inst name": "HARIDIA HIGH SCHOOL", "eiin": 111110, "inst_type": "School", "district": "MUNSHIGANJ", "thana": "LOHAJANG", "mauza": "HARIDIA", "long": 90.30464, "lat": 23.47789, "serial": 19013, "isUnique": 1, "field_11": null }, "geometry": { "type": "Point", "coordinates": [ 90.30464, 23.47789 ] } },
{ "type": "Feature", "properties": { "inst name": "KALMA  LAXMIKANTA HIGH SCHOOL", "eiin": 111115, "inst_type": "School", "district": "MUNSHIGANJ", "thana": "LOHAJANG", "mauza": "KALMA", "long": 90.36722, "lat": 23.49339, "serial": 19014, "isUnique": 1, "field_11": null }, "geometry": { "type": "Point", "coordinates": [ 90.36722, 23.49339 ] } },
{ "type": "Feature", "properties": { "inst name": "JASHALDIA HIGH SCHOOL", "eiin": 111117, "inst_type": "School", "district": "MUNSHIGANJ", "thana": "LOHAJANG", "mauza": "JASALDIA", "long": 90.36125, "lat": 23.49314, "serial": 19015, "isUnique": 1, "field_11": null }, "geometry": { "type": "Point", "coordinates": [ 90.36125, 23.49314 ] } },
{ "type": "Feature", "properties": { "inst name": "KAZIR PAGLA A.T INSTITUTION", "eiin": 111109, "inst_type": "School", "district": "MUNSHIGANJ", "thana": "LOHAJANG", "mauza": "DAKSHIN MEDINI MANDAL", "long": 90.38089, "lat": 23.45853, "serial": 19016, "isUnique": 1, "field_11": null }, "geometry": { "type": "Point", "coordinates": [ 90.38089, 23.45853 ] } },
{ "type": "Feature", "properties": { "inst name": "MEDINIMONDAL ANWAR CHOWDHURY HIGH SCHOOL", "eiin": 111111, "inst_type": "School", "district": "MUNSHIGANJ", "thana": "LOHAJANG", "mauza": "UTTAR MEDINI MANDAL", "long": 90.28908, "lat": 23.4765, "serial": 19017, "isUnique": 1, "field_11": null }, "geometry": { "type": "Point", "coordinates": [ 90.28908, 23.4765 ] } },
{ "type": "Feature", "properties": { "inst name": "BARHMANGAON MULTILTERAL HIGH SCHOOL", "eiin": 111112, "inst_type": "School", "district": "MUNSHIGANJ", "thana": "LOHAJANG", "mauza": "JHAUTIA", "long": 90.39547, "lat": 23.526, "serial": 19018, "isUnique": 1, "field_11": null }, "geometry": { "type": "Point", "coordinates": [ 90.39547, 23.526 ] } },
{ "type": "Feature", "properties": { "inst name": "KHODAIBARI NOOR JAHAN  HIGH SCHOOL", "eiin": 111221, "inst_type": "School", "district": "MUNSHIGANJ", "thana": "SREENAGAR", "mauza": "RANA", "long": 90.28033, "lat": 23.48922, "serial": 19019, "isUnique": 1, "field_11": null }, "geometry": { "type": "Point", "coordinates": [ 90.28033, 23.48922 ] } },
{ "type": "Feature", "properties": { "inst name": "BALIGAON HIGH SCHOOL", "eiin": 111234, "inst_type": "School", "district": "MUNSHIGANJ", "thana": "TONGIBARI", "mauza": "BALIGAON", "long": 90.26553, "lat": 23.483, "serial": 19020, "isUnique": 1, "field_11": null }, "geometry": { "type": "Point", "coordinates": [ 90.26553, 23.483 ] } },
{ "type": "Feature", "properties": { "inst name": "ROYPARA HIGH SCHOOL", "eiin": 111088, "inst_type": "School", "district": "MUNSHIGANJ", "thana": "GAZARIA", "mauza": "ROYPUR", "long": 90.33333, "lat": 23.46847, "serial": 19021, "isUnique": 1, "field_11": null }, "geometry": { "type": "Point", "coordinates": [ 90.33333, 23.46847 ] } },
{ "type": "Feature", "properties": { "inst name": "PORACHAK BAUSIA HIGH SCHOOL", "eiin": 111101, "inst_type": "School", "district": "MUNSHIGANJ", "thana": "GAZARIA", "mauza": "SUCHAK", "long": 90.32903, "lat": 23.50025, "serial": 19022, "isUnique": 1, "field_11": null }, "geometry": { "type": "Point", "coordinates": [ 90.32903, 23.50025 ] } },
{ "type": "Feature", "properties": { "inst name": "bAUSIA M.A. AZHER HIGH SCHOOL", "eiin": 111094, "inst_type": "School", "district": "MUNSHIGANJ", "thana": "GAZARIA", "mauza": "PURAN BAUSIA", "long": 90.40897, "lat": 23.49336, "serial": 19023, "isUnique": 1, "field_11": null }, "geometry": { "type": "Point", "coordinates": [ 90.40897, 23.49336 ] } },
{ "type": "Feature", "properties": { "inst name": "BHABER CHAR GIRLS SCHOOL", "eiin": 111096, "inst_type": "School", "district": "MUNSHIGANJ", "thana": "GAZARIA", "mauza": "SREENAGAR", "long": 90.40972, "lat": 23.49306, "serial": 19024, "isUnique": 1, "field_11": null }, "geometry": { "type": "Point", "coordinates": [ 90.40972, 23.49306 ] } },
{ "type": "Feature", "properties": { "inst name": "BHABERCHAR WAZIR ALI M HIGH SCHOOL", "eiin": 111092, "inst_type": "School", "district": "MUNSHIGANJ", "thana": "GAZARIA", "mauza": "BHABER CHAR", "long": 90.63164, "lat": 23.59647, "serial": 19025, "isUnique": 1, "field_11": null }, "geometry": { "type": "Point", "coordinates": [ 90.63164, 23.59647 ] } },
{ "type": "Feature", "properties": { "inst name": "GAZARIA PILOT HIGH SCHOOL", "eiin": 111093, "inst_type": "School", "district": "MUNSHIGANJ", "thana": "GAZARIA", "mauza": "DAKSHIN LAMCHHARI", "long": 90.67028, "lat": 23.55742, "serial": 19026, "isUnique": 1, "field_11": null }, "geometry": { "type": "Point", "coordinates": [ 90.67028, 23.55742 ] } },
{ "type": "Feature", "properties": { "inst name": "GAZARIA PILOT GIRLS HIGH SCHOOL", "eiin": 111095, "inst_type": "School", "district": "MUNSHIGANJ", "thana": "GAZARIA", "mauza": "GOSAIR CHAR", "long": 90.64725, "lat": 23.54978, "serial": 19027, "isUnique": 1, "field_11": null }, "geometry": { "type": "Point", "coordinates": [ 90.64725, 23.54978 ] } },
{ "type": "Feature", "properties": { "inst name": "BASUR CHAR PANCHGAON HIGH SCHOOL", "eiin": 111100, "inst_type": "School", "district": "MUNSHIGANJ", "thana": "GAZARIA", "mauza": "BASUR CHAR", "long": 90.64761, "lat": 23.55042, "serial": 19028, "isUnique": 1, "field_11": null }, "geometry": { "type": "Point", "coordinates": [ 90.64761, 23.55042 ] } },
{ "type": "Feature", "properties": { "inst name": "GUAGACHIA UNION HIGH SCHOOL", "eiin": 111090, "inst_type": "School", "district": "MUNSHIGANJ", "thana": "GAZARIA", "mauza": "SHIMULIA", "long": 90.63539, "lat": 23.57961, "serial": 19029, "isUnique": 1, "field_11": null }, "geometry": { "type": "Point", "coordinates": [ 90.63539, 23.57961 ] } },
{ "type": "Feature", "properties": { "inst name": "HOSSAINDI M.L. HIGH SCHOOL", "eiin": 111091, "inst_type": "School", "district": "MUNSHIGANJ", "thana": "GAZARIA", "mauza": "HOSSAINDI", "long": 90.60811, "lat": 23.54397, "serial": 19030, "isUnique": 1, "field_11": null }, "geometry": { "type": "Point", "coordinates": [ 90.60811, 23.54397 ] } },
{ "type": "Feature", "properties": { "inst name": "BAGHAIA KANDI KALIM ULLAH HIGH SCHOOL", "eiin": 111086, "inst_type": "School", "district": "MUNSHIGANJ", "thana": "GAZARIA", "mauza": "MANDARTALI", "long": 90.67203, "lat": 23.51147, "serial": 19031, "isUnique": 1, "field_11": null }, "geometry": { "type": "Point", "coordinates": [ 90.67203, 23.51147 ] } },
{ "type": "Feature", "properties": { "inst name": "HAZI KERAMOT ALI HIGH SCHOOL", "eiin": 111097, "inst_type": "School", "district": "MUNSHIGANJ", "thana": "GAZARIA", "mauza": "BAIDYAGAON", "long": 90.6, "lat": 23.58897, "serial": 19032, "isUnique": 1, "field_11": null }, "geometry": { "type": "Point", "coordinates": [ 90.6, 23.58897 ] } },
{ "type": "Feature", "properties": { "inst name": "BHATERCHAR D.A. MANNAN PILOT HIGH SCHOOL", "eiin": 111087, "inst_type": "School", "district": "MUNSHIGANJ", "thana": "GAZARIA", "mauza": "BHATER CHAR", "long": 90.61869, "lat": 23.54381, "serial": 19033, "isUnique": 1, "field_11": null }, "geometry": { "type": "Point", "coordinates": [ 90.61869, 23.54381 ] } },
{ "type": "Feature", "properties": { "inst name": "TENGARCHAR RAZIA QUADER ADARSHA HIGH SCHOOL", "eiin": 111099, "inst_type": "School", "district": "MUNSHIGANJ", "thana": "GAZARIA", "mauza": "TENGAR CHAR", "long": 90.61703, "lat": 23.517, "serial": 19034, "isUnique": 1, "field_11": null }, "geometry": { "type": "Point", "coordinates": [ 90.61703, 23.517 ] } },
{ "type": "Feature", "properties": { "inst name": "BARAIGAON ISLAMIA SCHOOL AND COLLEGE", "eiin": 111208, "inst_type": "School and College", "district": "MUNSHIGANJ", "thana": "SREENAGAR", "mauza": "BARA BARAIGAON", "long": 90.481, "lat": 23.44011, "serial": 26138, "isUnique": 1, "field_11": null }, "geometry": { "type": "Point", "coordinates": [ 90.481, 23.44011 ] } },
{ "type": "Feature", "properties": { "inst name": "HASARA KALI KISHORE  SCHOOL AND COLLEGE", "eiin": 111214, "inst_type": "School and College", "district": "MUNSHIGANJ", "thana": "SREENAGAR", "mauza": "HASARA", "long": 90.20486, "lat": 23.51442, "serial": 26139, "isUnique": 1, "field_11": null }, "geometry": { "type": "Point", "coordinates": [ 90.20486, 23.51442 ] } },
{ "type": "Feature", "properties": { "inst name": "RARIKHAL SIR J.C.BOSE INSTITUTION & COLLEGE", "eiin": 111232, "inst_type": "School and College", "district": "MUNSHIGANJ", "thana": "SREENAGAR", "mauza": "RARIKHAL", "long": 90.27178, "lat": 23.50364, "serial": 26140, "isUnique": 1, "field_11": null }, "geometry": { "type": "Point", "coordinates": [ 90.27178, 23.50364 ] } },
{ "type": "Feature", "properties": { "inst name": "CHITRAKOTE MODEL  SCHOOL AND COLLEGE", "eiin": 111166, "inst_type": "School and College", "district": "MUNSHIGANJ", "thana": "SERAJDIKHAN", "mauza": "CHITRAKOT", "long": 90.37647, "lat": 23.63839, "serial": 26141, "isUnique": 1, "field_11": null }, "geometry": { "type": "Point", "coordinates": [ 90.37647, 23.63839 ] } },
{ "type": "Feature", "properties": { "inst name": "PRESIDENT PROFessor DR. IAZUDDIN AHMED RESIDENTIAL MODEL SCHOOL & COLLeGE", "eiin": 132175, "inst_type": "School and College", "district": "MUNSHIGANJ", "thana": "MUNSHIGANJ SADAR", "mauza": "PANCHASAR", "long": 90.49969, "lat": 23.57, "serial": 26142, "isUnique": 1, "field_11": null }, "geometry": { "type": "Point", "coordinates": [ 90.49969, 23.57 ] } },
{ "type": "Feature", "properties": { "inst name": "BALUAKANDI DR ABDUL GAFFAR SCHOOL AND COLLEGE", "eiin": 111098, "inst_type": "School and College", "district": "MUNSHIGANJ", "thana": "GAZARIA", "mauza": "BARA BALIAKANDI", "long": 90.36686, "lat": 23.49258, "serial": 26143, "isUnique": 1, "field_11": null }, "geometry": { "type": "Point", "coordinates": [ 90.36686, 23.49258 ] } }
]
}
