{
"type": "FeatureCollection",
"crs": { "type": "name", "properties": { "name": "urn:ogc:def:crs:OGC:1.3:CRS84" } },
"features": [
{ "type": "Feature", "properties": { "inst_name": "GOVT. TOLARAM COLLEGE", "eiin": 112478, "inst_type": "College", "district": "NARAYANGANJ", "thana": "NARAYANGANJ SADAR", "mauza": "ALLAMA IQBAL RD(TULARAM COLL)", "long": 90.497307, "lat": 23.622938, "serial": 1416, "isUnique": 1, "field_11": null }, "geometry": { "type": "Point", "coordinates": [ 90.497307, 23.622938 ] } },
{ "type": "Feature", "properties": { "inst_name": "MURAPARA COLLEGE", "eiin": 112535, "inst_type": "College", "district": "NARAYANGANJ", "thana": "RUPGANJ", "mauza": "BRAHMANGAON", "long": 90.520905, "lat": 23.780937, "serial": 1417, "isUnique": 1, "field_11": null }, "geometry": { "type": "Point", "coordinates": [ 90.520905, 23.780937 ] } },
{ "type": "Feature", "properties": { "inst_name": "GOVT. SAFAR ALI COLLEGE", "eiin": 112327, "inst_type": "College", "district": "NARAYANGANJ", "thana": "ARAIHAZAR", "mauza": "ARAIHAZAR", "long": 90.21288, "lat": 25.0093, "serial": 1418, "isUnique": 1, "field_11": null }, "geometry": { "type": "Point", "coordinates": [ 90.21288, 25.0093 ] } },
{ "type": "Feature", "properties": { "inst_name": "ROKANUDDIN MOLLA GIRLS COLLEGE", "eiin": 112326, "inst_type": "College", "district": "NARAYANGANJ", "thana": "ARAIHAZAR", "mauza": "CHHOTA BARAI PARA", "long": 90.22736, "lat": 25.02078, "serial": 1419, "isUnique": 1, "field_11": null }, "geometry": { "type": "Point", "coordinates": [ 90.22736, 25.02078 ] } },
{ "type": "Feature", "properties": { "inst_name": "HAZI BELAYET HOSSAIN COLLEGE", "eiin": 112328, "inst_type": "College", "district": "NARAYANGANJ", "thana": "ARAIHAZAR", "mauza": "UCHITPUR", "long": 90.63792, "lat": 23.74939, "serial": 1420, "isUnique": 1, "field_11": null }, "geometry": { "type": "Point", "coordinates": [ 90.63792, 23.74939 ] } },
{ "type": "Feature", "properties": { "inst_name": "PANCHRUKHI BEGUM ANOWARA COLLEGE", "eiin": 112329, "inst_type": "College", "district": "NARAYANGANJ", "thana": "ARAIHAZAR", "mauza": "PANCHRUKHI", "long": 90.71178, "lat": 23.80319, "serial": 1421, "isUnique": 1, "field_11": null }, "geometry": { "type": "Point", "coordinates": [ 90.71178, 23.80319 ] } },
{ "type": "Feature", "properties": { "inst_name": "KADAM RASUL DEGREE COLLEGE", "eiin": 112401, "inst_type": "College", "district": "NARAYANGANJ", "thana": "BANDAR", "mauza": "BANDAR", "long": 90.52011, "lat": 23.62592, "serial": 1422, "isUnique": 1, "field_11": null }, "geometry": { "type": "Point", "coordinates": [ 90.52011, 23.62592 ] } },
{ "type": "Feature", "properties": { "inst_name": "NAZIMUDDIN BHUIYAN DEGREE COLLEGE", "eiin": 112400, "inst_type": "College", "district": "NARAYANGANJ", "thana": "BANDAR", "mauza": "MADANPUR", "long": 90.54278, "lat": 23.58361, "serial": 1423, "isUnique": 1, "field_11": null }, "geometry": { "type": "Point", "coordinates": [ 90.54278, 23.58361 ] } },
{ "type": "Feature", "properties": { "inst_name": "NARAYANGaNJ GOVT. MOHILA COLLEGE", "eiin": 112479, "inst_type": "College", "district": "NARAYANGANJ", "thana": "NARAYANGANJ SADAR", "mauza": "COLLEGE ROAD", "long": 90.50072, "lat": 23.61914, "serial": 1424, "isUnique": 1, "field_11": null }, "geometry": { "type": "Point", "coordinates": [ 90.50072, 23.61914 ] } },
{ "type": "Feature", "properties": { "inst_name": "NARAYANGONJ COLLEGE", "eiin": 112480, "inst_type": "College", "district": "NARAYANGANJ", "thana": "NARAYANGANJ SADAR", "mauza": "DIG BARUR BAZAR", "long": 90.4905, "lat": 23.69344, "serial": 1425, "isUnique": 1, "field_11": null }, "geometry": { "type": "Point", "coordinates": [ 90.4905, 23.69344 ] } },
{ "type": "Feature", "properties": { "inst_name": "GOVT ADAMJEE NAGAR M W COLLEGE", "eiin": 112477, "inst_type": "College", "district": "NARAYANGANJ", "thana": "NARAYANGANJ SADAR", "mauza": "KADAMTALI DAKSHIN", "long": 90.51856, "lat": 23.67392, "serial": 1426, "isUnique": 1, "field_11": null }, "geometry": { "type": "Point", "coordinates": [ 90.51856, 23.67392 ] } },
{ "type": "Feature", "properties": { "inst_name": "NARAYANGONJ MODEL COLLEGE", "eiin": 131870, "inst_type": "College", "district": "NARAYANGANJ", "thana": "NARAYANGANJ SADAR", "mauza": "KHOAR PATTY", "long": 90.47708, "lat": 23.63992, "serial": 1427, "isUnique": 1, "field_11": null }, "geometry": { "type": "Point", "coordinates": [ 90.47708, 23.63992 ] } },
{ "type": "Feature", "properties": { "inst_name": "HAJI MISIR ALI university COLLEGE", "eiin": 112482, "inst_type": "College", "district": "NARAYANGANJ", "thana": "NARAYANGANJ SADAR", "mauza": "DEUL PARA(PART)", "long": 90.46772, "lat": 23.67703, "serial": 1428, "isUnique": 1, "field_11": null }, "geometry": { "type": "Point", "coordinates": [ 90.46772, 23.67703 ] } },
{ "type": "Feature", "properties": { "inst_name": "ABDUL AZIZ MIA AYESHA KHATUN COLLEGE", "eiin": 112536, "inst_type": "College", "district": "NARAYANGANJ", "thana": "RUPGANJ", "mauza": "KENDUA KHALPAR", "long": 90.48906, "lat": 23.69217, "serial": 1429, "isUnique": 1, "field_11": null }, "geometry": { "type": "Point", "coordinates": [ 90.48906, 23.69217 ] } },
{ "type": "Feature", "properties": { "inst_name": "SALIM UDDIN CHOWDHURY COLLEGE", "eiin": 112534, "inst_type": "College", "district": "NARAYANGANJ", "thana": "RUPGANJ", "mauza": "KENDUA PARA", "long": 90.51722, "lat": 23.74625, "serial": 1430, "isUnique": 1, "field_11": null }, "geometry": { "type": "Point", "coordinates": [ 90.51722, 23.74625 ] } },
{ "type": "Feature", "properties": { "inst_name": "SONARGAON KAZI FAZLUL HAQUE WOMENS COLLEGE", "eiin": 112370, "inst_type": "College", "district": "NARAYANGANJ", "thana": "SONARGAON", "mauza": "BARI MAJLISH", "long": 90.52025, "lat": 23.78981, "serial": 1431, "isUnique": 1, "field_11": null }, "geometry": { "type": "Point", "coordinates": [ 90.52025, 23.78981 ] } },
{ "type": "Feature", "properties": { "inst_name": "SONARGAON DEGREE COLLEGE", "eiin": 112369, "inst_type": "College", "district": "NARAYANGANJ", "thana": "SONARGAON", "mauza": "SHOLA PARA", "long": 90.52517, "lat": 23.70339, "serial": 1432, "isUnique": 1, "field_11": null }, "geometry": { "type": "Point", "coordinates": [ 90.52517, 23.70339 ] } },
{ "type": "Feature", "properties": { "inst_name": "HOSSAIN PUR S.P.UNION COLLEGE", "eiin": 112371, "inst_type": "College", "district": "NARAYANGANJ", "thana": "SONARGAON", "mauza": "HOSSAINPUR", "long": 90.57347, "lat": 23.62222, "serial": 1433, "isUnique": 1, "field_11": null }, "geometry": { "type": "Point", "coordinates": [ 90.57347, 23.62222 ] } },
{ "type": "Feature", "properties": { "inst_name": "MAJHINAH MOUJAR AMMADIA ISLAMIA FAZIL MADRASHA", "eiin": 112519, "inst_type": "Madrasha", "district": "NARAYANGANJ", "thana": "RUPGANJ", "mauza": "MAJHINA", "long": 90.1299, "lat": 23.88148, "serial": 7483, "isUnique": 1, "field_11": null }, "geometry": { "type": "Point", "coordinates": [ 90.1299, 23.88148 ] } },
{ "type": "Feature", "properties": { "inst_name": "AL-ARAFA ISLAMIA DAKHIL MADRASHA", "eiin": 112533, "inst_type": "Madrasha", "district": "NARAYANGANJ", "thana": "RUPGANJ", "mauza": "PUBGAON", "long": 90.13103, "lat": 23.87821, "serial": 7484, "isUnique": 1, "field_11": null }, "geometry": { "type": "Point", "coordinates": [ 90.13103, 23.87821 ] } },
{ "type": "Feature", "properties": { "inst_name": "ARAIHAZAR EMDADUL ULUM ALIM MADRASAH", "eiin": 112324, "inst_type": "Madrasha", "district": "NARAYANGANJ", "thana": "ARAIHAZAR", "mauza": "ARAIHAZAR", "long": 90.23467, "lat": 24.95043, "serial": 7485, "isUnique": 1, "field_11": null }, "geometry": { "type": "Point", "coordinates": [ 90.23467, 24.95043 ] } },
{ "type": "Feature", "properties": { "inst_name": "RAOJATUL MUTTA QEEN DAKIL MADRASHA", "eiin": 131643, "inst_type": "Madrasha", "district": "NARAYANGANJ", "thana": "ARAIHAZAR", "mauza": "BISHNANDI", "long": 90.66094, "lat": 23.79408, "serial": 7486, "isUnique": 1, "field_11": null }, "geometry": { "type": "Point", "coordinates": [ 90.66094, 23.79408 ] } },
{ "type": "Feature", "properties": { "inst_name": "BALLAVDI KANDA DAKHIL MADRASAH", "eiin": 112325, "inst_type": "Madrasha", "district": "NARAYANGANJ", "thana": "ARAIHAZAR", "mauza": "BALLABHDI", "long": 90.60581, "lat": 23.79519, "serial": 7487, "isUnique": 1, "field_11": null }, "geometry": { "type": "Point", "coordinates": [ 90.60581, 23.79519 ] } },
{ "type": "Feature", "properties": { "inst_name": "PURBAKANDI ADARSAH DAKHIL MADRASAH", "eiin": 112321, "inst_type": "Madrasha", "district": "NARAYANGANJ", "thana": "ARAIHAZAR", "mauza": "JHUKANDI", "long": 90.67108, "lat": 23.76294, "serial": 7488, "isUnique": 1, "field_11": null }, "geometry": { "type": "Point", "coordinates": [ 90.67108, 23.76294 ] } },
{ "type": "Feature", "properties": { "inst_name": "GOPLADI FAZIL MADRASAH", "eiin": 112319, "inst_type": "Madrasha", "district": "NARAYANGANJ", "thana": "ARAIHAZAR", "mauza": "GOPALDI", "long": 90.67572, "lat": 23.72058, "serial": 7489, "isUnique": 1, "field_11": null }, "geometry": { "type": "Point", "coordinates": [ 90.67572, 23.72058 ] } },
{ "type": "Feature", "properties": { "inst_name": "RASULPUR MOHILA DAKHIL MADRASHA", "eiin": 112318, "inst_type": "Madrasha", "district": "NARAYANGANJ", "thana": "ARAIHAZAR", "mauza": "SATGRAM", "long": 90.71233, "lat": 23.80106, "serial": 7490, "isUnique": 1, "field_11": null }, "geometry": { "type": "Point", "coordinates": [ 90.71233, 23.80106 ] } },
{ "type": "Feature", "properties": { "inst_name": "RASULPUR OSMAN MOLLAH ISLAMIA FAZIL MADRASA", "eiin": 112322, "inst_type": "Madrasha", "district": "NARAYANGANJ", "thana": "ARAIHAZAR", "mauza": "BARA NAOGAON", "long": 90.69675, "lat": 23.816, "serial": 7491, "isUnique": 1, "field_11": null }, "geometry": { "type": "Point", "coordinates": [ 90.69675, 23.816 ] } },
{ "type": "Feature", "properties": { "inst_name": "ADURIA ISLAMIA DAKHIL MADRASHA", "eiin": 112517, "inst_type": "Madrasha", "district": "NARAYANGANJ", "thana": "RUPGANJ", "mauza": "ADHURIA", "long": 90.64614, "lat": 23.85194, "serial": 7492, "isUnique": 1, "field_11": null }, "geometry": { "type": "Point", "coordinates": [ 90.64614, 23.85194 ] } },
{ "type": "Feature", "properties": { "inst_name": "BANDAR ISLAMIA FAZIL MADRASA", "eiin": 112395, "inst_type": "Madrasha", "district": "NARAYANGANJ", "thana": "BANDAR", "mauza": "BIBIJHORA", "long": 90.60758, "lat": 23.82825, "serial": 7493, "isUnique": 1, "field_11": null }, "geometry": { "type": "Point", "coordinates": [ 90.60758, 23.82825 ] } },
{ "type": "Feature", "properties": { "inst_name": "NABIGONJ ISLAMIA SINIOR ALIM MADRASHA", "eiin": 112396, "inst_type": "Madrasha", "district": "NARAYANGANJ", "thana": "BANDAR", "mauza": "NABIGANJ ROAD", "long": 90.59931, "lat": 23.80247, "serial": 7494, "isUnique": 1, "field_11": null }, "geometry": { "type": "Point", "coordinates": [ 90.59931, 23.80247 ] } },
{ "type": "Feature", "properties": { "inst_name": "JAMEA ISLAMIA ALIM  MADRASHA", "eiin": 112393, "inst_type": "Madrasha", "district": "NARAYANGANJ", "thana": "BANDAR", "mauza": "CHAPATALI (PART)", "long": 90.52344, "lat": 23.63125, "serial": 7495, "isUnique": 1, "field_11": null }, "geometry": { "type": "Point", "coordinates": [ 90.52344, 23.63125 ] } },
{ "type": "Feature", "properties": { "inst_name": "NURUN ALANUR ASHAKI HOSSAINIA DAKHIL MADRASHA", "eiin": 112399, "inst_type": "Madrasha", "district": "NARAYANGANJ", "thana": "BANDAR", "mauza": "JANGAL", "long": 90.53219, "lat": 23.62778, "serial": 7496, "isUnique": 1, "field_11": null }, "geometry": { "type": "Point", "coordinates": [ 90.53219, 23.62778 ] } },
{ "type": "Feature", "properties": { "inst_name": "BISWANOBI (S) ISLAMIA ALIM MADRASHA", "eiin": 112394, "inst_type": "Madrasha", "district": "NARAYANGANJ", "thana": "BANDAR", "mauza": "MADANGANJ (PART)", "long": 90.53142, "lat": 23.60242, "serial": 7497, "isUnique": 1, "field_11": null }, "geometry": { "type": "Point", "coordinates": [ 90.53142, 23.60242 ] } },
{ "type": "Feature", "properties": { "inst_name": "MDANPUR RIAZUL ULUM ALIM MADRASAH", "eiin": 112397, "inst_type": "Madrasha", "district": "NARAYANGANJ", "thana": "BANDAR", "mauza": "MADANPUR", "long": 90.52597, "lat": 23.60828, "serial": 7498, "isUnique": 1, "field_11": null }, "geometry": { "type": "Point", "coordinates": [ 90.52597, 23.60828 ] } },
{ "type": "Feature", "properties": { "inst_name": "MUSAPUR DARUSSUNNATH ISLAMIA DAKHIL MADRASAH", "eiin": 112398, "inst_type": "Madrasha", "district": "NARAYANGANJ", "thana": "BANDAR", "mauza": "MUSAPUR", "long": 90.52083, "lat": 23.59294, "serial": 7499, "isUnique": 1, "field_11": null }, "geometry": { "type": "Point", "coordinates": [ 90.52083, 23.59294 ] } },
{ "type": "Feature", "properties": { "inst_name": "ADARSHA  MOHILA MADRASHA", "eiin": 112468, "inst_type": "Madrasha", "district": "NARAYANGANJ", "thana": "NARAYANGANJ SADAR", "mauza": "GOLACHIPA", "long": 90.51069, "lat": 23.61231, "serial": 7500, "isUnique": 1, "field_11": null }, "geometry": { "type": "Point", "coordinates": [ 90.51069, 23.61231 ] } },
{ "type": "Feature", "properties": { "inst_name": "MIZMIZI PAINADI FAZIL MADRASHA", "eiin": 112455, "inst_type": "Madrasha", "district": "NARAYANGANJ", "thana": "NARAYANGANJ SADAR", "mauza": "MIJMIZI BATEN PARA", "long": 90.50094, "lat": 23.69858, "serial": 7502, "isUnique": 1, "field_11": null }, "geometry": { "type": "Point", "coordinates": [ 90.50094, 23.69858 ] } },
{ "type": "Feature", "properties": { "inst_name": "MIZMIZI HAZI ABDUSSAMAD ISLAMIA ALIM MADRASHA", "eiin": 112458, "inst_type": "Madrasha", "district": "NARAYANGANJ", "thana": "NARAYANGANJ SADAR", "mauza": "MIJMIZI PASCHIM PARA", "long": 90.50572, "lat": 23.69028, "serial": 7503, "isUnique": 1, "field_11": null }, "geometry": { "type": "Point", "coordinates": [ 90.50572, 23.69028 ] } },
{ "type": "Feature", "properties": { "inst_name": "SIDDHIRGONJ D.S.ISLAMI ALIM MADRASAH", "eiin": 112459, "inst_type": "Madrasha", "district": "NARAYANGANJ", "thana": "NARAYANGANJ SADAR", "mauza": "SIDDIRGANJ KALABAGH PURBA", "long": 90.49986, "lat": 23.68586, "serial": 7504, "isUnique": 1, "field_11": null }, "geometry": { "type": "Point", "coordinates": [ 90.49986, 23.68586 ] } },
{ "type": "Feature", "properties": { "inst_name": "GODNAIL BAGPARA ALIM MADRASHA", "eiin": 112465, "inst_type": "Madrasha", "district": "NARAYANGANJ", "thana": "NARAYANGANJ SADAR", "mauza": "GODNAIL BAGH PARA", "long": 90.51631, "lat": 23.65481, "serial": 7505, "isUnique": 1, "field_11": null }, "geometry": { "type": "Point", "coordinates": [ 90.51631, 23.65481 ] } },
{ "type": "Feature", "properties": { "inst_name": "JALKURI ISLAMIA DAKHIL MADRASHA", "eiin": 112463, "inst_type": "Madrasha", "district": "NARAYANGANJ", "thana": "NARAYANGANJ SADAR", "mauza": "JALKURI (MAJ PARA)", "long": 90.51525, "lat": 23.66447, "serial": 7506, "isUnique": 1, "field_11": null }, "geometry": { "type": "Point", "coordinates": [ 90.51525, 23.66447 ] } },
{ "type": "Feature", "properties": { "inst_name": "FEROJA KHATUN MOHILA DAKHIL MADRASHA", "eiin": 112473, "inst_type": "Madrasha", "district": "NARAYANGANJ", "thana": "NARAYANGANJ SADAR", "mauza": "ALIR TEK", "long": 90.49622, "lat": 23.66494, "serial": 7507, "isUnique": 1, "field_11": null }, "geometry": { "type": "Point", "coordinates": [ 90.49622, 23.66494 ] } },
{ "type": "Feature", "properties": { "inst_name": "MOHAMMADIA MOHILA DAKHIL MADRASHA", "eiin": 112475, "inst_type": "Madrasha", "district": "NARAYANGANJ", "thana": "NARAYANGANJ SADAR", "mauza": "GODNAIL MANDAL PARA", "long": 90.46544, "lat": 23.59394, "serial": 7508, "isUnique": 1, "field_11": null }, "geometry": { "type": "Point", "coordinates": [ 90.46544, 23.59394 ] } },
{ "type": "Feature", "properties": { "inst_name": "BAKTABALI ISLAMIA SENIOR MADRASHA", "eiin": 112470, "inst_type": "Madrasha", "district": "NARAYANGANJ", "thana": "NARAYANGANJ SADAR", "mauza": "CHAR BAKTABALLI", "long": 90.46675, "lat": 23.58567, "serial": 7509, "isUnique": 1, "field_11": null }, "geometry": { "type": "Point", "coordinates": [ 90.46675, 23.58567 ] } },
{ "type": "Feature", "properties": { "inst_name": "DHARMAGANJ ISLAMIA ARABIA DAKHIL MADRASAH", "eiin": 112462, "inst_type": "Madrasha", "district": "NARAYANGANJ", "thana": "NARAYANGANJ SADAR", "mauza": "SIMRAIL", "long": 90.48389, "lat": 23.62867, "serial": 7510, "isUnique": 1, "field_11": null }, "geometry": { "type": "Point", "coordinates": [ 90.48389, 23.62867 ] } },
{ "type": "Feature", "properties": { "inst_name": "MUSLIM NAGAR ISLAMIA  DAKHIL MADRASHA", "eiin": 112464, "inst_type": "Madrasha", "district": "NARAYANGANJ", "thana": "NARAYANGANJ SADAR", "mauza": "SREEDHARDI (MUSLIMNAGAR)", "long": 90.49278, "lat": 23.62517, "serial": 7511, "isUnique": 1, "field_11": null }, "geometry": { "type": "Point", "coordinates": [ 90.49278, 23.62517 ] } },
{ "type": "Feature", "properties": { "inst_name": "NARAYANGONJ ISLAMIA FAZIL MADRASHA", "eiin": 112467, "inst_type": "Madrasha", "district": "NARAYANGANJ", "thana": "NARAYANGANJ SADAR", "mauza": "MASDAIR (PART-A)", "long": 90.47197, "lat": 23.62069, "serial": 7512, "isUnique": 1, "field_11": null }, "geometry": { "type": "Point", "coordinates": [ 90.47197, 23.62069 ] } },
{ "type": "Feature", "properties": { "inst_name": "SAYEDPUR HAZI ALI HOSSAIN BAPARI ALIM MADRASA", "eiin": 112456, "inst_type": "Madrasha", "district": "NARAYANGANJ", "thana": "NARAYANGANJ SADAR", "mauza": "SAYEDPUR", "long": 90.49186, "lat": 23.64181, "serial": 7513, "isUnique": 1, "field_11": null }, "geometry": { "type": "Point", "coordinates": [ 90.49186, 23.64181 ] } },
{ "type": "Feature", "properties": { "inst_name": "DARUSSUNNAH KAMIL MADRASHA", "eiin": 112469, "inst_type": "Madrasha", "district": "NARAYANGANJ", "thana": "NARAYANGANJ SADAR", "mauza": "KASHIPUR", "long": 90.49261, "lat": 23.59561, "serial": 7514, "isUnique": 1, "field_11": null }, "geometry": { "type": "Point", "coordinates": [ 90.49261, 23.59561 ] } },
{ "type": "Feature", "properties": { "inst_name": "BHUIGHAR DARUSSUNNAH ISLAMIA SENIOR MADRASAH", "eiin": 112472, "inst_type": "Madrasha", "district": "NARAYANGANJ", "thana": "NARAYANGANJ SADAR", "mauza": "BHUIGAR", "long": 90.48358, "lat": 23.64614, "serial": 7515, "isUnique": 1, "field_11": null }, "geometry": { "type": "Point", "coordinates": [ 90.48358, 23.64614 ] } },
{ "type": "Feature", "properties": { "inst_name": "DELPARA ISLAMIA FAZIL MADRASHA", "eiin": 112461, "inst_type": "Madrasha", "district": "NARAYANGANJ", "thana": "NARAYANGANJ SADAR", "mauza": "DEUL PARA(PART)", "long": 90.48525, "lat": 23.64575, "serial": 7516, "isUnique": 1, "field_11": null }, "geometry": { "type": "Point", "coordinates": [ 90.48525, 23.64575 ] } },
{ "type": "Feature", "properties": { "inst_name": "ROWJATUS SALEHIN ALIM MADRASA", "eiin": 112474, "inst_type": "Madrasha", "district": "NARAYANGANJ", "thana": "NARAYANGANJ SADAR", "mauza": "SIACHAR", "long": 90.48331, "lat": 23.64886, "serial": 7517, "isUnique": 1, "field_11": null }, "geometry": { "type": "Point", "coordinates": [ 90.48331, 23.64886 ] } },
{ "type": "Feature", "properties": { "inst_name": "SHAHI MAHALLA MOHAMMADIA ALIM MADRASHA", "eiin": 112457, "inst_type": "Madrasha", "district": "NARAYANGANJ", "thana": "NARAYANGANJ SADAR", "mauza": "DEUL PARA(PART)", "long": 90.48258, "lat": 23.65444, "serial": 7518, "isUnique": 1, "field_11": null }, "geometry": { "type": "Point", "coordinates": [ 90.48258, 23.65444 ] } },
{ "type": "Feature", "properties": { "inst_name": "TARAIL ISLAMIA DAKHIL MADRASAH", "eiin": 112518, "inst_type": "Madrasha", "district": "NARAYANGANJ", "thana": "RUPGANJ", "mauza": "BIRABA", "long": 90.50164, "lat": 23.61314, "serial": 7519, "isUnique": 1, "field_11": null }, "geometry": { "type": "Point", "coordinates": [ 90.50164, 23.61314 ] } },
{ "type": "Feature", "properties": { "inst_name": "KALADI SHAHAJ UDDIN  JAMEA-E-ISLAMIA FAZIL MADRASA", "eiin": 112528, "inst_type": "Madrasha", "district": "NARAYANGANJ", "thana": "RUPGANJ", "mauza": "KALADI", "long": 90.56075, "lat": 23.86625, "serial": 7520, "isUnique": 1, "field_11": null }, "geometry": { "type": "Point", "coordinates": [ 90.56075, 23.86625 ] } },
{ "type": "Feature", "properties": { "inst_name": "RANIPURA MADRASATUL QURAN WASS SUNNA ALIM MADRASAH", "eiin": 131639, "inst_type": "Madrasha", "district": "NARAYANGANJ", "thana": "RUPGANJ", "mauza": "RANI PURA", "long": 90.55175, "lat": 23.84819, "serial": 7521, "isUnique": 1, "field_11": null }, "geometry": { "type": "Point", "coordinates": [ 90.55175, 23.84819 ] } },
{ "type": "Feature", "properties": { "inst_name": "HAZI ABU TAHER BHUIYAN GIRLS MADRASAH", "eiin": 112516, "inst_type": "Madrasha", "district": "NARAYANGANJ", "thana": "RUPGANJ", "mauza": "RANI PURA", "long": 90.55425, "lat": 23.83269, "serial": 7522, "isUnique": 1, "field_11": null }, "geometry": { "type": "Point", "coordinates": [ 90.55425, 23.83269 ] } },
{ "type": "Feature", "properties": { "inst_name": "RUPSI ISLAMIA DAKHIL MADRASA", "eiin": 112526, "inst_type": "Madrasha", "district": "NARAYANGANJ", "thana": "RUPGANJ", "mauza": "CHOWDHURY PARA", "long": 90.56131, "lat": 23.82675, "serial": 7523, "isUnique": 1, "field_11": null }, "geometry": { "type": "Point", "coordinates": [ 90.56131, 23.82675 ] } },
{ "type": "Feature", "properties": { "inst_name": "MUGARKUL MOHAMMADIA DAKHIL MADRASAH", "eiin": 112527, "inst_type": "Madrasha", "district": "NARAYANGANJ", "thana": "RUPGANJ", "mauza": "GANDHARBAPUR (PART)", "long": 90.57042, "lat": 23.84147, "serial": 7524, "isUnique": 1, "field_11": null }, "geometry": { "type": "Point", "coordinates": [ 90.57042, 23.84147 ] } },
{ "type": "Feature", "properties": { "inst_name": "NOAPARA ISLAMIA MOHILA ALIM MADRASHA", "eiin": 112530, "inst_type": "Madrasha", "district": "NARAYANGANJ", "thana": "RUPGANJ", "mauza": "BASUNDA", "long": 90.51903, "lat": 23.75664, "serial": 7525, "isUnique": 1, "field_11": null }, "geometry": { "type": "Point", "coordinates": [ 90.51903, 23.75664 ] } },
{ "type": "Feature", "properties": { "inst_name": "CHARITALUK DARUL HUDA  ALIM MADRASHA", "eiin": 112521, "inst_type": "Madrasha", "district": "NARAYANGANJ", "thana": "RUPGANJ", "mauza": "BHOLABA", "long": 90.52767, "lat": 23.72406, "serial": 7526, "isUnique": 1, "field_11": null }, "geometry": { "type": "Point", "coordinates": [ 90.52767, 23.72406 ] } },
{ "type": "Feature", "properties": { "inst_name": "MARTUZABAD  DARUL ULUM FAZIL MADRASHA", "eiin": 112523, "inst_type": "Madrasha", "district": "NARAYANGANJ", "thana": "RUPGANJ", "mauza": "BHAELA", "long": 90.581, "lat": 23.87475, "serial": 7527, "isUnique": 1, "field_11": null }, "geometry": { "type": "Point", "coordinates": [ 90.581, 23.87475 ] } },
{ "type": "Feature", "properties": { "inst_name": "PACHAIKHA DARUS SALAM MOHILA DAKHIL MADRASHA", "eiin": 112532, "inst_type": "Madrasha", "district": "NARAYANGANJ", "thana": "RUPGANJ", "mauza": "PANCHAIKHAN", "long": 90.58631, "lat": 23.87353, "serial": 7528, "isUnique": 1, "field_11": null }, "geometry": { "type": "Point", "coordinates": [ 90.58631, 23.87353 ] } },
{ "type": "Feature", "properties": { "inst_name": "BELDI DARUL HADIS ALIA MADRASA", "eiin": 112520, "inst_type": "Madrasha", "district": "NARAYANGANJ", "thana": "RUPGANJ", "mauza": "BELDI", "long": 90.55839, "lat": 23.79025, "serial": 7529, "isUnique": 1, "field_11": null }, "geometry": { "type": "Point", "coordinates": [ 90.55839, 23.79025 ] } },
{ "type": "Feature", "properties": { "inst_name": "DEBOI KAZIR BAG ALIM MADRASAH", "eiin": 112522, "inst_type": "Madrasha", "district": "NARAYANGANJ", "thana": "RUPGANJ", "mauza": "DEBAGRAM", "long": 90.54467, "lat": 23.86883, "serial": 7530, "isUnique": 1, "field_11": null }, "geometry": { "type": "Point", "coordinates": [ 90.54467, 23.86883 ] } },
{ "type": "Feature", "properties": { "inst_name": "ZINDA SHAH YASIN MOHILA DAKHIL MADRASAH", "eiin": 112531, "inst_type": "Madrasha", "district": "NARAYANGANJ", "thana": "RUPGANJ", "mauza": "TIRMARA", "long": 90.52375, "lat": 23.85669, "serial": 7531, "isUnique": 1, "field_11": null }, "geometry": { "type": "Point", "coordinates": [ 90.52375, 23.85669 ] } },
{ "type": "Feature", "properties": { "inst_name": "PATALGONJ PASCHIMPARA MOSTAFA E SONNIA DAKHIL MADRASAH", "eiin": 112515, "inst_type": "Madrasha", "district": "NARAYANGANJ", "thana": "RUPGANJ", "mauza": "PITALGANJ", "long": 90.52267, "lat": 23.83008, "serial": 7532, "isUnique": 1, "field_11": null }, "geometry": { "type": "Point", "coordinates": [ 90.52267, 23.83008 ] } },
{ "type": "Feature", "properties": { "inst_name": "BARADI NESA  ISLAMIA ALIM MADRASA", "eiin": 112367, "inst_type": "Madrasha", "district": "NARAYANGANJ", "thana": "SONARGAON", "mauza": "BARADI", "long": 90.62453, "lat": 23.65861, "serial": 7533, "isUnique": 1, "field_11": null }, "geometry": { "type": "Point", "coordinates": [ 90.62453, 23.65861 ] } },
{ "type": "Feature", "properties": { "inst_name": "KAL TAPARA SENIOR FAZIL MADRASHA", "eiin": 112366, "inst_type": "Madrasha", "district": "NARAYANGANJ", "thana": "SONARGAON", "mauza": "KALTA PARA", "long": 90.63619, "lat": 23.69981, "serial": 7534, "isUnique": 1, "field_11": null }, "geometry": { "type": "Point", "coordinates": [ 90.63619, 23.69981 ] } },
{ "type": "Feature", "properties": { "inst_name": "SAYDA  KHATUN  ISLAMIA  DAKHIL    MADRASHA", "eiin": 112362, "inst_type": "Madrasha", "district": "NARAYANGANJ", "thana": "SONARGAON", "mauza": "KANCHPUR", "long": 90.60647, "lat": 23.73292, "serial": 7535, "isUnique": 1, "field_11": null }, "geometry": { "type": "Point", "coordinates": [ 90.60647, 23.73292 ] } },
{ "type": "Feature", "properties": { "inst_name": "TAHER PUR ISLAMIA ALIM MADRASHA", "eiin": 112365, "inst_type": "Madrasha", "district": "NARAYANGANJ", "thana": "SONARGAON", "mauza": "MANGALERGAON", "long": 90.57853, "lat": 23.65467, "serial": 7536, "isUnique": 1, "field_11": null }, "geometry": { "type": "Point", "coordinates": [ 90.57853, 23.65467 ] } },
{ "type": "Feature", "properties": { "inst_name": "BHARGAON  NESERAIA  DAKHIL MADRADA", "eiin": 112360, "inst_type": "Madrasha", "district": "NARAYANGANJ", "thana": "SONARGAON", "mauza": "BHARGAON", "long": 90.61383, "lat": 23.61425, "serial": 7537, "isUnique": 1, "field_11": null }, "geometry": { "type": "Point", "coordinates": [ 90.61383, 23.61425 ] } },
{ "type": "Feature", "properties": { "inst_name": "MOHMMADPUR DAKHIL MADRASAH", "eiin": 112320, "inst_type": "Madrasha", "district": "NARAYANGANJ", "thana": "SONARGAON", "mauza": "BHARGAON", "long": 90.58175, "lat": 23.61897, "serial": 7538, "isUnique": 1, "field_11": null }, "geometry": { "type": "Point", "coordinates": [ 90.58175, 23.61897 ] } },
{ "type": "Feature", "properties": { "inst_name": "NANAKHI D.H. ALIM MADRSHA", "eiin": 112363, "inst_type": "Madrasha", "district": "NARAYANGANJ", "thana": "SONARGAON", "mauza": "NANAKHI", "long": 90.55561, "lat": 23.73433, "serial": 7539, "isUnique": 1, "field_11": null }, "geometry": { "type": "Point", "coordinates": [ 90.55561, 23.73433 ] } },
{ "type": "Feature", "properties": { "inst_name": "SHADIPUR ISLAMIA SENIOR ALIM MADRASHA", "eiin": 112364, "inst_type": "Madrasha", "district": "NARAYANGANJ", "thana": "SONARGAON", "mauza": "BARAGAON", "long": 90.58433, "lat": 23.70072, "serial": 7540, "isUnique": 1, "field_11": null }, "geometry": { "type": "Point", "coordinates": [ 90.58433, 23.70072 ] } },
{ "type": "Feature", "properties": { "inst_name": "FORDI  ISLAMIA  DAKHIL MADRASA", "eiin": 112361, "inst_type": "Madrasha", "district": "NARAYANGANJ", "thana": "SONARGAON", "mauza": "FARDI", "long": 90.57797, "lat": 23.72778, "serial": 7541, "isUnique": 1, "field_11": null }, "geometry": { "type": "Point", "coordinates": [ 90.57797, 23.72778 ] } },
{ "type": "Feature", "properties": { "inst_name": "DAULAPUR  ISLAMIA  DAKHIL MADRASA", "eiin": 112368, "inst_type": "Madrasha", "district": "NARAYANGANJ", "thana": "SONARGAON", "mauza": "DAULATPUR THOTALIA", "long": 90.55225, "lat": 23.58425, "serial": 7542, "isUnique": 1, "field_11": null }, "geometry": { "type": "Point", "coordinates": [ 90.55225, 23.58425 ] } },
{ "type": "Feature", "properties": { "inst_name": "ARAIHAZAR PILOT HIGH SCHOOL", "eiin": 112299, "inst_type": "School", "district": "NARAYANGANJ", "thana": "ARAIHAZAR", "mauza": "ARAIHAZAR", "long": 90.19233, "lat": 24.94996, "serial": 19955, "isUnique": 1, "field_11": null }, "geometry": { "type": "Point", "coordinates": [ 90.19233, 24.94996 ] } },
{ "type": "Feature", "properties": { "inst_name": "ROKaNUDDIN  PILOT GIRLS HIGH SCHOOL", "eiin": 112312, "inst_type": "School", "district": "NARAYANGANJ", "thana": "ARAIHAZAR", "mauza": "CHHOTA BARAI PARA", "long": 90.18774, "lat": 24.99895, "serial": 19956, "isUnique": 1, "field_11": null }, "geometry": { "type": "Point", "coordinates": [ 90.18774, 24.99895 ] } },
{ "type": "Feature", "properties": { "inst_name": "CHAITANKANDA GOLAM MOHAMMAD HIGH SCHOOL", "eiin": 112313, "inst_type": "School", "district": "NARAYANGANJ", "thana": "ARAIHAZAR", "mauza": "CHAITANKANDI", "long": 90.66267, "lat": 23.79153, "serial": 19957, "isUnique": 1, "field_11": null }, "geometry": { "type": "Point", "coordinates": [ 90.66267, 23.79153 ] } },
{ "type": "Feature", "properties": { "inst_name": "A M BADRUZZAMAN HIGH SCHOOL", "eiin": 130544, "inst_type": "School", "district": "NARAYANGANJ", "thana": "ARAIHAZAR", "mauza": "LENGARDI", "long": 90.65589, "lat": 23.79269, "serial": 19958, "isUnique": 1, "field_11": null }, "geometry": { "type": "Point", "coordinates": [ 90.65589, 23.79269 ] } },
{ "type": "Feature", "properties": { "inst_name": "UZAN GOBINDO BINIER CHAR HIGH SCHOOL", "eiin": 112302, "inst_type": "School", "district": "NARAYANGANJ", "thana": "ARAIHAZAR", "mauza": "BINAIR CHAR", "long": 90.66028, "lat": 23.78703, "serial": 19959, "isUnique": 1, "field_11": null }, "geometry": { "type": "Point", "coordinates": [ 90.66028, 23.78703 ] } },
{ "type": "Feature", "properties": { "inst_name": "BANTI IDEAL HIGH SCHOOL", "eiin": 112297, "inst_type": "School", "district": "NARAYANGANJ", "thana": "ARAIHAZAR", "mauza": "BANTI", "long": 90.71486, "lat": 23.75781, "serial": 19960, "isUnique": 1, "field_11": null }, "geometry": { "type": "Point", "coordinates": [ 90.71486, 23.75781 ] } },
{ "type": "Feature", "properties": { "inst_name": "CENTRAL CORONATION HIGH SCHOOL", "eiin": 112303, "inst_type": "School", "district": "NARAYANGANJ", "thana": "ARAIHAZAR", "mauza": "DUPTARA", "long": 90.70936, "lat": 23.78806, "serial": 19961, "isUnique": 1, "field_11": null }, "geometry": { "type": "Point", "coordinates": [ 90.70936, 23.78806 ] } },
{ "type": "Feature", "properties": { "inst_name": "PANCHGAON ML HIGH SCHOOL", "eiin": 112306, "inst_type": "School", "district": "NARAYANGANJ", "thana": "ARAIHAZAR", "mauza": "PANCHGAON", "long": 90.61939, "lat": 23.75983, "serial": 19962, "isUnique": 1, "field_11": null }, "geometry": { "type": "Point", "coordinates": [ 90.61939, 23.75983 ] } },
{ "type": "Feature", "properties": { "inst_name": "KALAGACHIA HIGH SCHOOL", "eiin": 112310, "inst_type": "School", "district": "NARAYANGANJ", "thana": "ARAIHAZAR", "mauza": "KALAGACHHIA", "long": 90.60186, "lat": 23.7695, "serial": 19963, "isUnique": 1, "field_11": null }, "geometry": { "type": "Point", "coordinates": [ 90.60186, 23.7695 ] } },
{ "type": "Feature", "properties": { "inst_name": "SHINGHADI M.A MOTALEB BHUIYAN HIGH SCHOOL", "eiin": 112317, "inst_type": "School", "district": "NARAYANGANJ", "thana": "ARAIHAZAR", "mauza": "CHHOTA SALMADI", "long": 90.5955, "lat": 23.81303, "serial": 19964, "isUnique": 1, "field_11": null }, "geometry": { "type": "Point", "coordinates": [ 90.5955, 23.81303 ] } },
{ "type": "Feature", "properties": { "inst_name": "KALAPAHARIA UNION HIGH SCHOOL", "eiin": 112308, "inst_type": "School", "district": "NARAYANGANJ", "thana": "ARAIHAZAR", "mauza": "NIJ KALA PAHARIA", "long": 90.64053, "lat": 23.80911, "serial": 19965, "isUnique": 1, "field_11": null }, "geometry": { "type": "Point", "coordinates": [ 90.64053, 23.80911 ] } },
{ "type": "Feature", "properties": { "inst_name": "SHAMBHUPUAR HIGH SCHOOL", "eiin": 112348, "inst_type": "School", "district": "NARAYANGANJ", "thana": "ARAIHAZAR", "mauza": "SHOBHARAMPUR", "long": 90.64244, "lat": 23.76328, "serial": 19966, "isUnique": 1, "field_11": null }, "geometry": { "type": "Point", "coordinates": [ 90.64244, 23.76328 ] } },
{ "type": "Feature", "properties": { "inst_name": "KABI NAZRUL  SCHOOL and college", "eiin": 112311, "inst_type": "School", "district": "NARAYANGANJ", "thana": "ARAIHAZAR", "mauza": "NAYANABAD", "long": 90.64936, "lat": 23.74786, "serial": 19967, "isUnique": 1, "field_11": null }, "geometry": { "type": "Point", "coordinates": [ 90.64936, 23.74786 ] } },
{ "type": "Feature", "properties": { "inst_name": "GOPALDI GIRLS HIGH SCHOOL", "eiin": 112300, "inst_type": "School", "district": "NARAYANGANJ", "thana": "ARAIHAZAR", "mauza": "GOPALDI", "long": 90.71781, "lat": 23.69475, "serial": 19968, "isUnique": 1, "field_11": null }, "geometry": { "type": "Point", "coordinates": [ 90.71781, 23.69475 ] } },
{ "type": "Feature", "properties": { "inst_name": "SADASADI M.L.HIGH SCHOOL", "eiin": 112304, "inst_type": "School", "district": "NARAYANGANJ", "thana": "ARAIHAZAR", "mauza": "GOPALDI", "long": 90.71361, "lat": 23.71642, "serial": 19969, "isUnique": 1, "field_11": null }, "geometry": { "type": "Point", "coordinates": [ 90.71361, 23.71642 ] } },
{ "type": "Feature", "properties": { "inst_name": "KALAGACHIA  R.F. HIGH SCHOOL", "eiin": 112301, "inst_type": "School", "district": "NARAYANGANJ", "thana": "ARAIHAZAR", "mauza": "UTTAR KALAGACHHIA", "long": 90.69164, "lat": 23.75022, "serial": 19970, "isUnique": 1, "field_11": null }, "geometry": { "type": "Point", "coordinates": [ 90.69164, 23.75022 ] } },
{ "type": "Feature", "properties": { "inst_name": "PURINDA K M SADEKUR RAHMAN HIGH SCHOOL", "eiin": 112309, "inst_type": "School", "district": "NARAYANGANJ", "thana": "ARAIHAZAR", "mauza": "BARA NAOGAON", "long": 90.68869, "lat": 23.75778, "serial": 19971, "isUnique": 1, "field_11": null }, "geometry": { "type": "Point", "coordinates": [ 90.68869, 23.75778 ] } },
{ "type": "Feature", "properties": { "inst_name": "PANCHRUKHI HAZI SHAHEB ALI FAKIR HIGH SCHOOL", "eiin": 112314, "inst_type": "School", "district": "NARAYANGANJ", "thana": "ARAIHAZAR", "mauza": "PANCHRUKHI", "long": 90.71136, "lat": 23.80231, "serial": 19972, "isUnique": 1, "field_11": null }, "geometry": { "type": "Point", "coordinates": [ 90.71136, 23.80231 ] } },
{ "type": "Feature", "properties": { "inst_name": "ATADI  HIGH SCHOOL", "eiin": 112316, "inst_type": "School", "district": "NARAYANGANJ", "thana": "ARAIHAZAR", "mauza": "ATADI", "long": 90.63, "lat": 23.84644, "serial": 19973, "isUnique": 1, "field_11": null }, "geometry": { "type": "Point", "coordinates": [ 90.63, 23.84644 ] } },
{ "type": "Feature", "properties": { "inst_name": "JANGALIA HIGH SCHOOL", "eiin": 112315, "inst_type": "School", "district": "NARAYANGANJ", "thana": "ARAIHAZAR", "mauza": "JANGALIA", "long": 90.60875, "lat": 23.82931, "serial": 19974, "isUnique": 1, "field_11": null }, "geometry": { "type": "Point", "coordinates": [ 90.60875, 23.82931 ] } },
{ "type": "Feature", "properties": { "inst_name": "HAZI SERAJ UDDIN MEMORIAL HIGH SCHOOL", "eiin": 112385, "inst_type": "School", "district": "NARAYANGANJ", "thana": "BANDAR", "mauza": "WILLSON ROAD (UTTAR)", "long": 90.67758, "lat": 23.73869, "serial": 19976, "isUnique": 1, "field_11": null }, "geometry": { "type": "Point", "coordinates": [ 90.67758, 23.73869 ] } },
{ "type": "Feature", "properties": { "inst_name": "HAJEE ABDUL MALEK HIGH SCHOOL", "eiin": 112387, "inst_type": "School", "district": "NARAYANGANJ", "thana": "BANDAR", "mauza": "KUSIARA", "long": 90.51256, "lat": 23.60531, "serial": 19977, "isUnique": 1, "field_11": null }, "geometry": { "type": "Point", "coordinates": [ 90.51256, 23.60531 ] } },
{ "type": "Feature", "properties": { "inst_name": "MIRKUNDI HIGH SCHOOL", "eiin": 112391, "inst_type": "School", "district": "NARAYANGANJ", "thana": "BANDAR", "mauza": "MIRKUNDI", "long": 90.51789, "lat": 23.61258, "serial": 19978, "isUnique": 1, "field_11": null }, "geometry": { "type": "Point", "coordinates": [ 90.51789, 23.61258 ] } },
{ "type": "Feature", "properties": { "inst_name": "NABIGANJ GIRLS HIGH SCHOOL", "eiin": 112376, "inst_type": "School", "district": "NARAYANGANJ", "thana": "BANDAR", "mauza": "WILLSON ROAD (UTTAR)", "long": 90.51275, "lat": 23.61342, "serial": 19979, "isUnique": 1, "field_11": null }, "geometry": { "type": "Point", "coordinates": [ 90.51275, 23.61342 ] } },
{ "type": "Feature", "properties": { "inst_name": "ALHAJ KHORSHEDUNNESA HIGH SCHOOL", "eiin": 112375, "inst_type": "School", "district": "NARAYANGANJ", "thana": "BANDAR", "mauza": "JIUDHARA", "long": 90.55033, "lat": 23.61742, "serial": 19980, "isUnique": 1, "field_11": null }, "geometry": { "type": "Point", "coordinates": [ 90.55033, 23.61742 ] } },
{ "type": "Feature", "properties": { "inst_name": "KALAGACHIYA UNION GIRLS HIGH SCHOOL", "eiin": 112392, "inst_type": "School", "district": "NARAYANGANJ", "thana": "BANDAR", "mauza": "ALISARDI", "long": 90.52228, "lat": 23.62992, "serial": 19981, "isUnique": 1, "field_11": null }, "geometry": { "type": "Point", "coordinates": [ 90.52228, 23.62992 ] } },
{ "type": "Feature", "properties": { "inst_name": "PEAR SATTER LATIF HIGH SCHOOL", "eiin": 112390, "inst_type": "School", "district": "NARAYANGANJ", "thana": "BANDAR", "mauza": "KALYANDI", "long": 90.51814, "lat": 23.62414, "serial": 19982, "isUnique": 1, "field_11": null }, "geometry": { "type": "Point", "coordinates": [ 90.51814, 23.62414 ] } },
{ "type": "Feature", "properties": { "inst_name": "KALAGACHIA UNION HIGH SCHOOL", "eiin": 112382, "inst_type": "School", "district": "NARAYANGANJ", "thana": "BANDAR", "mauza": "NISANG", "long": 90.5455, "lat": 23.67981, "serial": 19983, "isUnique": 1, "field_11": null }, "geometry": { "type": "Point", "coordinates": [ 90.5455, 23.67981 ] } },
{ "type": "Feature", "properties": { "inst_name": "SONAKANDA HIGH SCHOOL", "eiin": 112388, "inst_type": "School", "district": "NARAYANGANJ", "thana": "BANDAR", "mauza": "MADANGANJ (PART)", "long": 90.56786, "lat": 23.66981, "serial": 19984, "isUnique": 1, "field_11": null }, "geometry": { "type": "Point", "coordinates": [ 90.56786, 23.66981 ] } },
{ "type": "Feature", "properties": { "inst_name": "MALIBAG KARAMATIA HIGH SCHOOL", "eiin": 112381, "inst_type": "School", "district": "NARAYANGANJ", "thana": "BANDAR", "mauza": "LANGALBANDA", "long": 90.51431, "lat": 23.60386, "serial": 19985, "isUnique": 1, "field_11": null }, "geometry": { "type": "Point", "coordinates": [ 90.51431, 23.60386 ] } },
{ "type": "Feature", "properties": { "inst_name": "SHAMSUZZOHA M.B.UNION HIGH SCHOOL", "eiin": 112386, "inst_type": "School", "district": "NARAYANGANJ", "thana": "BANDAR", "mauza": "BHAJANDI (TRIBENI)", "long": 90.52522, "lat": 23.58669, "serial": 19986, "isUnique": 1, "field_11": null }, "geometry": { "type": "Point", "coordinates": [ 90.52522, 23.58669 ] } },
{ "type": "Feature", "properties": { "inst_name": "SIKDER ABDUL MALEK HIGH SCHOOL", "eiin": 112374, "inst_type": "School", "district": "NARAYANGANJ", "thana": "BANDAR", "mauza": "BANDAR", "long": 90.54675, "lat": 23.69675, "serial": 19987, "isUnique": 1, "field_11": null }, "geometry": { "type": "Point", "coordinates": [ 90.54675, 23.69675 ] } },
{ "type": "Feature", "properties": { "inst_name": "LUXMINARAYAN COTTON MILLS HIGH SCHOOL", "eiin": 112431, "inst_type": "School", "district": "NARAYANGANJ", "thana": "NARAYANGANJ SADAR", "mauza": "RASULBAGH", "long": 90.55094, "lat": 23.69972, "serial": 19988, "isUnique": 1, "field_11": null }, "geometry": { "type": "Point", "coordinates": [ 90.55094, 23.69972 ] } },
{ "type": "Feature", "properties": { "inst_name": "KURI PARA HIGH SCHOOL", "eiin": 112384, "inst_type": "School", "district": "NARAYANGANJ", "thana": "BANDAR", "mauza": "KURIPARA (PART)", "long": 90.51794, "lat": 23.61264, "serial": 19989, "isUnique": 1, "field_11": null }, "geometry": { "type": "Point", "coordinates": [ 90.51794, 23.61264 ] } },
{ "type": "Feature", "properties": { "inst_name": "ADAMJEE ACTIVE SCHOOL", "eiin": 131323, "inst_type": "School", "district": "NARAYANGANJ", "thana": "NARAYANGANJ SADAR", "mauza": "SUMIL PARA (SIDDIRGANJ PART)", "long": 90.51606, "lat": 23.61253, "serial": 19990, "isUnique": 1, "field_11": null }, "geometry": { "type": "Point", "coordinates": [ 90.51606, 23.61253 ] } },
{ "type": "Feature", "properties": { "inst_name": "LAKHHAN KHOLA  AL haj Fazlur  rahman HIGH SCHOOL", "eiin": 112389, "inst_type": "School", "district": "NARAYANGANJ", "thana": "BANDAR", "mauza": "DAKSHIN LAKHANKHOLA", "long": 90.51822, "lat": 23.70672, "serial": 19991, "isUnique": 1, "field_11": null }, "geometry": { "type": "Point", "coordinates": [ 90.51822, 23.70672 ] } },
{ "type": "Feature", "properties": { "inst_name": "DREDGER JUNIOR HIGH SCHOOL", "eiin": 112443, "inst_type": "School", "district": "NARAYANGANJ", "thana": "NARAYANGANJ SADAR", "mauza": "ISHAKHAN ROAD", "long": 90.52328, "lat": 23.66103, "serial": 19992, "isUnique": 1, "field_11": null }, "geometry": { "type": "Point", "coordinates": [ 90.52328, 23.66103 ] } },
{ "type": "Feature", "properties": { "inst_name": "NARAYANGONJ BAR ACADEMY", "eiin": 112422, "inst_type": "School", "district": "NARAYANGANJ", "thana": "NARAYANGANJ SADAR", "mauza": "KHANPUR (PART)", "long": 90.53367, "lat": 23.67581, "serial": 19993, "isUnique": 1, "field_11": null }, "geometry": { "type": "Point", "coordinates": [ 90.53367, 23.67581 ] } },
{ "type": "Feature", "properties": { "inst_name": "BIBI MARIOM GIRLS HIGH SCHOOL", "eiin": 112421, "inst_type": "School", "district": "NARAYANGANJ", "thana": "NARAYANGANJ SADAR", "mauza": "ISHAKHAN ROAD", "long": 90.52097, "lat": 23.67517, "serial": 19994, "isUnique": 1, "field_11": null }, "geometry": { "type": "Point", "coordinates": [ 90.52097, 23.67517 ] } },
{ "type": "Feature", "properties": { "inst_name": "SHANARPAR SHEKH MORTAZA ALI HIGH SCHOOL", "eiin": 112404, "inst_type": "School", "district": "NARAYANGANJ", "thana": "NARAYANGANJ SADAR", "mauza": "SANARPAR", "long": 90.52378, "lat": 23.65108, "serial": 19995, "isUnique": 1, "field_11": null }, "geometry": { "type": "Point", "coordinates": [ 90.52378, 23.65108 ] } },
{ "type": "Feature", "properties": { "inst_name": "NARAYANGANJ PREPARATORY SCHOOL", "eiin": 133700, "inst_type": "School", "district": "NARAYANGANJ", "thana": "NARAYANGANJ SADAR", "mauza": "K.B. SHAH ROAD", "long": 90.51114, "lat": 23.64275, "serial": 19996, "isUnique": 1, "field_11": null }, "geometry": { "type": "Point", "coordinates": [ 90.51114, 23.64275 ] } },
{ "type": "Feature", "properties": { "inst_name": "NARAYANGANJ IDEAL SCHOOL", "eiin": 131476, "inst_type": "School", "district": "NARAYANGANJ", "thana": "NARAYANGANJ SADAR", "mauza": "K.B. SHAH ROAD", "long": 90.49811, "lat": 23.62336, "serial": 19997, "isUnique": 1, "field_11": null }, "geometry": { "type": "Point", "coordinates": [ 90.49811, 23.62336 ] } },
{ "type": "Feature", "properties": { "inst_name": "GANABIDYA NIKETAN", "eiin": 112424, "inst_type": "School", "district": "NARAYANGANJ", "thana": "NARAYANGANJ SADAR", "mauza": "NAYAMATI", "long": 90.50083, "lat": 23.62272, "serial": 19998, "isUnique": 1, "field_11": null }, "geometry": { "type": "Point", "coordinates": [ 90.50083, 23.62272 ] } },
{ "type": "Feature", "properties": { "inst_name": "MORGAN GIRLS HIGH SCHOOL", "eiin": 112419, "inst_type": "School", "district": "NARAYANGANJ", "thana": "NARAYANGANJ SADAR", "mauza": "DEOBHOGH (PART)", "long": 90.50392, "lat": 23.61858, "serial": 19999, "isUnique": 1, "field_11": null }, "geometry": { "type": "Point", "coordinates": [ 90.50392, 23.61858 ] } },
{ "type": "Feature", "properties": { "inst_name": "DEOBHOG HAZI UZIR ALI HIGH SCHOOL", "eiin": 112429, "inst_type": "School", "district": "NARAYANGANJ", "thana": "NARAYANGANJ SADAR", "mauza": "BARA DEOBHOG (PART)", "long": 90.50311, "lat": 23.62083, "serial": 20000, "isUnique": 1, "field_11": null }, "geometry": { "type": "Point", "coordinates": [ 90.50311, 23.62083 ] } },
{ "type": "Feature", "properties": { "inst_name": "JOY GOVINDA HIGH SCHOOL", "eiin": 112417, "inst_type": "School", "district": "NARAYANGANJ", "thana": "NARAYANGANJ SADAR", "mauza": "PAIK PARA (NAMA PARA)", "long": 90.503, "lat": 23.62358, "serial": 20001, "isUnique": 1, "field_11": null }, "geometry": { "type": "Point", "coordinates": [ 90.503, 23.62358 ] } },
{ "type": "Feature", "properties": { "inst_name": "WATER DEVELOPMENT BOARD JUNIOR SCHOOL", "eiin": 112358, "inst_type": "School", "district": "NARAYANGANJ", "thana": "NARAYANGANJ SADAR", "mauza": "ATI", "long": 90.50308, "lat": 23.61153, "serial": 20002, "isUnique": 1, "field_11": null }, "geometry": { "type": "Point", "coordinates": [ 90.50308, 23.61153 ] } },
{ "type": "Feature", "properties": { "inst_name": "FULKOLY LABORATORY HIGH SCHOOL", "eiin": 131357, "inst_type": "School", "district": "NARAYANGANJ", "thana": "NARAYANGANJ SADAR", "mauza": "ATI PART", "long": 90.50142, "lat": 23.61467, "serial": 20003, "isUnique": 1, "field_11": null }, "geometry": { "type": "Point", "coordinates": [ 90.50142, 23.61467 ] } },
{ "type": "Feature", "properties": { "inst_name": "AL-HERA INTERNATIONAL HIGH SCHOOL", "eiin": 131343, "inst_type": "School", "district": "NARAYANGANJ", "thana": "NARAYANGANJ SADAR", "mauza": "PAINADI PURBA PART", "long": 90.48708, "lat": 23.61003, "serial": 20004, "isUnique": 1, "field_11": null }, "geometry": { "type": "Point", "coordinates": [ 90.48708, 23.61003 ] } },
{ "type": "Feature", "properties": { "inst_name": "GIASUDDIN ISLAMIC MODEL SCHOOL", "eiin": 131337, "inst_type": "School", "district": "NARAYANGANJ", "thana": "NARAYANGANJ SADAR", "mauza": "ATI PART", "long": 90.49975, "lat": 23.60647, "serial": 20005, "isUnique": 1, "field_11": null }, "geometry": { "type": "Point", "coordinates": [ 90.49975, 23.60647 ] } },
{ "type": "Feature", "properties": { "inst_name": "ALI AKBAR MODEL HIGH SCHOOL", "eiin": 131392, "inst_type": "School", "district": "NARAYANGANJ", "thana": "NARAYANGANJ SADAR", "mauza": "SIMRAIL PART", "long": 90.49264, "lat": 23.68925, "serial": 20006, "isUnique": 1, "field_11": null }, "geometry": { "type": "Point", "coordinates": [ 90.49264, 23.68925 ] } },
{ "type": "Feature", "properties": { "inst_name": "BARNAMALA KINDERGARTEN AND HIGH SCHOOL", "eiin": 131344, "inst_type": "School", "district": "NARAYANGANJ", "thana": "NARAYANGANJ SADAR", "mauza": "SIDDIRGANJ KALABAGH PASCHIM", "long": 90.50867, "lat": 23.69561, "serial": 20007, "isUnique": 1, "field_11": null }, "geometry": { "type": "Point", "coordinates": [ 90.50867, 23.69561 ] } },
{ "type": "Feature", "properties": { "inst_name": "HAZI SHAMSUDDIN HIGH SCHOOL", "eiin": 131333, "inst_type": "School", "district": "NARAYANGANJ", "thana": "NARAYANGANJ SADAR", "mauza": "PAINADI PURBA PART", "long": 90.50717, "lat": 23.69372, "serial": 20008, "isUnique": 1, "field_11": null }, "geometry": { "type": "Point", "coordinates": [ 90.50717, 23.69372 ] } },
{ "type": "Feature", "properties": { "inst_name": "M.W. HIGH SCHOOL", "eiin": 112436, "inst_type": "School", "district": "NARAYANGANJ", "thana": "NARAYANGANJ SADAR", "mauza": "KADAMTALI DAKSHIN", "long": 90.50489, "lat": 23.70108, "serial": 20009, "isUnique": 1, "field_11": null }, "geometry": { "type": "Point", "coordinates": [ 90.50489, 23.70108 ] } },
{ "type": "Feature", "properties": { "inst_name": "MORNING SUN SCHOOL AND COLLEGE", "eiin": 131314, "inst_type": "School", "district": "NARAYANGANJ", "thana": "NARAYANGANJ SADAR", "mauza": "SANARPAR", "long": 90.51117, "lat": 23.70339, "serial": 20010, "isUnique": 1, "field_11": null }, "geometry": { "type": "Point", "coordinates": [ 90.51117, 23.70339 ] } },
{ "type": "Feature", "properties": { "inst_name": "MIZMIZI PAINADI REKMAT ALI HIGH SCHOOL", "eiin": 112409, "inst_type": "School", "district": "NARAYANGANJ", "thana": "NARAYANGANJ SADAR", "mauza": "PAINADI PURBA PART", "long": 90.50447, "lat": 23.69536, "serial": 20011, "isUnique": 1, "field_11": null }, "geometry": { "type": "Point", "coordinates": [ 90.50447, 23.69536 ] } },
{ "type": "Feature", "properties": { "inst_name": "MIZMIZI PASCHIMPARA HIGH SCHOOL", "eiin": 112412, "inst_type": "School", "district": "NARAYANGANJ", "thana": "NARAYANGANJ SADAR", "mauza": "MIJMIZI PASCHIM PARA", "long": 90.51575, "lat": 23.67553, "serial": 20012, "isUnique": 1, "field_11": null }, "geometry": { "type": "Point", "coordinates": [ 90.51575, 23.67553 ] } },
{ "type": "Feature", "properties": { "inst_name": "SAFAR ALI BHUIYAN HIGH SCHOOL", "eiin": 131331, "inst_type": "School", "district": "NARAYANGANJ", "thana": "NARAYANGANJ SADAR", "mauza": "SUMIL PARA (SIDDIRGANJ PART)", "long": 90.50506, "lat": 23.69408, "serial": 20013, "isUnique": 1, "field_11": null }, "geometry": { "type": "Point", "coordinates": [ 90.50506, 23.69408 ] } },
{ "type": "Feature", "properties": { "inst_name": "GODENAIL HIGH SCHOOL", "eiin": 112432, "inst_type": "School", "district": "NARAYANGANJ", "thana": "NARAYANGANJ SADAR", "mauza": "ARAMBAGH (JUTE MARKET)(GODNAIL", "long": 90.51744, "lat": 23.68336, "serial": 20015, "isUnique": 1, "field_11": null }, "geometry": { "type": "Point", "coordinates": [ 90.51744, 23.68336 ] } },
{ "type": "Feature", "properties": { "inst_name": "SAFURA KHATUN PILOT GIRLS HIGH SCHOOL", "eiin": 112439, "inst_type": "School", "district": "NARAYANGANJ", "thana": "NARAYANGANJ SADAR", "mauza": "GODNAIL MANDAL PARA", "long": 90.50869, "lat": 23.68644, "serial": 20016, "isUnique": 1, "field_11": null }, "geometry": { "type": "Point", "coordinates": [ 90.50869, 23.68644 ] } },
{ "type": "Feature", "properties": { "inst_name": "CHITTARANJAN COTTON MILLS HIGH SCHOOL", "eiin": 112414, "inst_type": "School", "district": "NARAYANGANJ", "thana": "NARAYANGANJ SADAR", "mauza": "ARAMBAGH (JUTE MARKET)(GODNAIL", "long": 90.49558, "lat": 23.68558, "serial": 20017, "isUnique": 1, "field_11": null }, "geometry": { "type": "Point", "coordinates": [ 90.49558, 23.68558 ] } },
{ "type": "Feature", "properties": { "inst_name": "SUNRISE MODEL SCHOL", "eiin": 131326, "inst_type": "School", "district": "NARAYANGANJ", "thana": "NARAYANGANJ SADAR", "mauza": "GODNAIL BAGH PARA", "long": 90.52194, "lat": 23.68581, "serial": 20018, "isUnique": 1, "field_11": null }, "geometry": { "type": "Point", "coordinates": [ 90.52194, 23.68581 ] } },
{ "type": "Feature", "properties": { "inst_name": "ADAMJEE UMM-AL QURA JUNIOR HIGH SCHOOL", "eiin": 131453, "inst_type": "School", "district": "NARAYANGANJ", "thana": "NARAYANGANJ SADAR", "mauza": "SUMIL PARA (SIDDIRGANJ PART)", "long": 90.51633, "lat": 23.67436, "serial": 20019, "isUnique": 1, "field_11": null }, "geometry": { "type": "Point", "coordinates": [ 90.51633, 23.67436 ] } },
{ "type": "Feature", "properties": { "inst_name": "SHAHEED TITUMIR ACADEMY NARAYANGANJ", "eiin": 131384, "inst_type": "School", "district": "NARAYANGANJ", "thana": "NARAYANGANJ SADAR", "mauza": "KAYEMPUR", "long": 90.51519, "lat": 23.66525, "serial": 20020, "isUnique": 1, "field_11": null }, "geometry": { "type": "Point", "coordinates": [ 90.51519, 23.66525 ] } },
{ "type": "Feature", "properties": { "inst_name": "DHANKUNDA POPULAR HIGH SCHOOL", "eiin": 112442, "inst_type": "School", "district": "NARAYANGANJ", "thana": "NARAYANGANJ SADAR", "mauza": "DHANKUNDA", "long": 90.51642, "lat": 23.64947, "serial": 20021, "isUnique": 1, "field_11": null }, "geometry": { "type": "Point", "coordinates": [ 90.51642, 23.64947 ] } },
{ "type": "Feature", "properties": { "inst_name": "PURBA JALKURI ADARSHA HIGH SCHOOL", "eiin": 112444, "inst_type": "School", "district": "NARAYANGANJ", "thana": "NARAYANGANJ SADAR", "mauza": "JALKURI (MAJ PARA)", "long": 90.51711, "lat": 23.66728, "serial": 20022, "isUnique": 1, "field_11": null }, "geometry": { "type": "Point", "coordinates": [ 90.51711, 23.66728 ] } },
{ "type": "Feature", "properties": { "inst_name": "JALKURI HIGH SCHOOL", "eiin": 112411, "inst_type": "School", "district": "NARAYANGANJ", "thana": "NARAYANGANJ SADAR", "mauza": "JALKURI (PASCHIM PARA)", "long": 90.52486, "lat": 23.67306, "serial": 20023, "isUnique": 1, "field_11": null }, "geometry": { "type": "Point", "coordinates": [ 90.52486, 23.67306 ] } },
{ "type": "Feature", "properties": { "inst_name": "KURARPAR ADORSO HIGH SCHOOL", "eiin": 112453, "inst_type": "School", "district": "NARAYANGANJ", "thana": "NARAYANGANJ SADAR", "mauza": "GOPCHAR", "long": 90.5085, "lat": 23.63967, "serial": 20024, "isUnique": 1, "field_11": null }, "geometry": { "type": "Point", "coordinates": [ 90.5085, 23.63967 ] } },
{ "type": "Feature", "properties": { "inst_name": "MUKTERKANDI ADARSHA HIGH SCHOOL", "eiin": 112446, "inst_type": "School", "district": "NARAYANGANJ", "thana": "NARAYANGANJ SADAR", "mauza": "GOPCHAR", "long": 90.51183, "lat": 23.6595, "serial": 20025, "isUnique": 1, "field_11": null }, "geometry": { "type": "Point", "coordinates": [ 90.51183, 23.6595 ] } },
{ "type": "Feature", "properties": { "inst_name": "NAZMUN NESA GIRLS HIGH SCHOOL", "eiin": 112430, "inst_type": "School", "district": "NARAYANGANJ", "thana": "NARAYANGANJ SADAR", "mauza": "CHAR BAKTABALLI", "long": 90.49089, "lat": 23.66228, "serial": 20026, "isUnique": 1, "field_11": null }, "geometry": { "type": "Point", "coordinates": [ 90.49089, 23.66228 ] } },
{ "type": "Feature", "properties": { "inst_name": "PURBA CHAR GARKUL HIGH SCHOOL", "eiin": 112447, "inst_type": "School", "district": "NARAYANGANJ", "thana": "NARAYANGANJ SADAR", "mauza": "CHAR GANGAPRASAD(S.NAGAR)", "long": 90.47442, "lat": 23.58183, "serial": 20027, "isUnique": 1, "field_11": null }, "geometry": { "type": "Point", "coordinates": [ 90.47442, 23.58183 ] } },
{ "type": "Feature", "properties": { "inst_name": "BEGUM ROKEYA KHANDAKAR PAURA HIGH SCHOOL", "eiin": 112427, "inst_type": "School", "district": "NARAYANGANJ", "thana": "NARAYANGANJ SADAR", "mauza": "MASDAIR (PART-A)", "long": 90.45161, "lat": 23.60078, "serial": 20028, "isUnique": 1, "field_11": null }, "geometry": { "type": "Point", "coordinates": [ 90.45161, 23.60078 ] } },
{ "type": "Feature", "properties": { "inst_name": "HARIHARPARA HIGH SCHOOL", "eiin": 112438, "inst_type": "School", "district": "NARAYANGANJ", "thana": "NARAYANGANJ SADAR", "mauza": "HARIHAR PARA", "long": 90.45175, "lat": 23.59236, "serial": 20029, "isUnique": 1, "field_11": null }, "geometry": { "type": "Point", "coordinates": [ 90.45175, 23.59236 ] } },
{ "type": "Feature", "properties": { "inst_name": "NARAYANGONJ GOVT. GIRL'S HIGH SCHOOL", "eiin": 112425, "inst_type": "School", "district": "NARAYANGANJ", "thana": "NARAYANGANJ SADAR", "mauza": "MASDAIR", "long": 90.45925, "lat": 23.56508, "serial": 20030, "isUnique": 1, "field_11": null }, "geometry": { "type": "Point", "coordinates": [ 90.45925, 23.56508 ] } },
{ "type": "Feature", "properties": { "inst_name": "ZILLA POLICE LINE SCHOOL NARAYANGONJ", "eiin": 131360, "inst_type": "School", "district": "NARAYANGANJ", "thana": "NARAYANGANJ SADAR", "mauza": "FATULLA", "long": 90.46175, "lat": 23.59489, "serial": 20031, "isUnique": 1, "field_11": null }, "geometry": { "type": "Point", "coordinates": [ 90.46175, 23.59489 ] } },
{ "type": "Feature", "properties": { "inst_name": "ADARSHA SCHOOL NARANGANJ", "eiin": 112423, "inst_type": "School", "district": "NARAYANGANJ", "thana": "NARAYANGANJ SADAR", "mauza": "MASDAIR (PART-A)", "long": 90.45192, "lat": 23.59992, "serial": 20032, "isUnique": 1, "field_11": null }, "geometry": { "type": "Point", "coordinates": [ 90.45192, 23.59992 ] } },
{ "type": "Feature", "properties": { "inst_name": "MUSLIMNAGaR HAZI ABUL KADER KAZI ABDUL MOJIT JU SCHOOL", "eiin": 112451, "inst_type": "School", "district": "NARAYANGANJ", "thana": "NARAYANGANJ SADAR", "mauza": "SREEDHARDI (MUSLIMNAGAR)", "long": 90.49222, "lat": 23.62194, "serial": 20033, "isUnique": 1, "field_11": null }, "geometry": { "type": "Point", "coordinates": [ 90.49222, 23.62194 ] } },
{ "type": "Feature", "properties": { "inst_name": "NABINAGAR SHAHWAR ALI HIGH SCHOOL", "eiin": 112450, "inst_type": "School", "district": "NARAYANGANJ", "thana": "NARAYANGANJ SADAR", "mauza": "DHARMAGANJ", "long": 90.47131, "lat": 23.632, "serial": 20034, "isUnique": 1, "field_11": null }, "geometry": { "type": "Point", "coordinates": [ 90.47131, 23.632 ] } },
{ "type": "Feature", "properties": { "inst_name": "FATULLA PILOT HIGH SCHOOL", "eiin": 112407, "inst_type": "School", "district": "NARAYANGANJ", "thana": "NARAYANGANJ SADAR", "mauza": "DAPA IDRAKPUR (DAPA)", "long": 90.46314, "lat": 23.61986, "serial": 20035, "isUnique": 1, "field_11": null }, "geometry": { "type": "Point", "coordinates": [ 90.46314, 23.61986 ] } },
{ "type": "Feature", "properties": { "inst_name": "MUKTI JODDHA SMRITY BIDYANIKETON", "eiin": 112452, "inst_type": "School", "district": "NARAYANGANJ", "thana": "NARAYANGANJ SADAR", "mauza": "HAZI GONJ(PART)", "long": 90.49167, "lat": 23.62592, "serial": 20036, "isUnique": 1, "field_11": null }, "geometry": { "type": "Point", "coordinates": [ 90.49167, 23.62592 ] } },
{ "type": "Feature", "properties": { "inst_name": "ISDAIR RABEYA HOSSAIN HIGH SCHOOL", "eiin": 112413, "inst_type": "School", "district": "NARAYANGANJ", "thana": "NARAYANGANJ SADAR", "mauza": "ISDAIR (PART)", "long": 90.46686, "lat": 23.63089, "serial": 20037, "isUnique": 1, "field_11": null }, "geometry": { "type": "Point", "coordinates": [ 90.46686, 23.63089 ] } },
{ "type": "Feature", "properties": { "inst_name": "KANON PRE-CADET AND HIGH SCHOOL", "eiin": 131394, "inst_type": "School", "district": "NARAYANGANJ", "thana": "NARAYANGANJ SADAR", "mauza": "LALPUR", "long": 90.49339, "lat": 23.62475, "serial": 20038, "isUnique": 1, "field_11": null }, "geometry": { "type": "Point", "coordinates": [ 90.49339, 23.62475 ] } },
{ "type": "Feature", "properties": { "inst_name": "I.E.T. GOVT. HIGH SCHOOL", "eiin": 112416, "inst_type": "School", "district": "NARAYANGANJ", "thana": "NARAYANGANJ SADAR", "mauza": "NEW HAZIGONJ", "long": 90.47522, "lat": 23.64717, "serial": 20039, "isUnique": 1, "field_11": null }, "geometry": { "type": "Point", "coordinates": [ 90.47522, 23.64717 ] } },
{ "type": "Feature", "properties": { "inst_name": "HARBAD ACADEMY", "eiin": 131412, "inst_type": "School", "district": "NARAYANGANJ", "thana": "NARAYANGANJ SADAR", "mauza": "FATULLA", "long": 90.50772, "lat": 23.63964, "serial": 20040, "isUnique": 1, "field_11": null }, "geometry": { "type": "Point", "coordinates": [ 90.50772, 23.63964 ] } },
{ "type": "Feature", "properties": { "inst_name": "IDEAL KINDERGARTEN AND HIGH SCHOOL", "eiin": 133698, "inst_type": "School", "district": "NARAYANGANJ", "thana": "NARAYANGANJ SADAR", "mauza": "FATULLA", "long": 90.50153, "lat": 23.63839, "serial": 20041, "isUnique": 1, "field_11": null }, "geometry": { "type": "Point", "coordinates": [ 90.50153, 23.63839 ] } },
{ "type": "Feature", "properties": { "inst_name": "TAZEK PRODHAN  KINDERGARTEN AND HIGH SCHOOL", "eiin": 131426, "inst_type": "School", "district": "NARAYANGANJ", "thana": "NARAYANGANJ SADAR", "mauza": "MASINABANDA", "long": 90.51142, "lat": 23.63472, "serial": 20042, "isUnique": 1, "field_11": null }, "geometry": { "type": "Point", "coordinates": [ 90.51142, 23.63472 ] } },
{ "type": "Feature", "properties": { "inst_name": "SYEDPUR BANGA BANDHU HIGH SCHOOL", "eiin": 112418, "inst_type": "School", "district": "NARAYANGANJ", "thana": "NARAYANGANJ SADAR", "mauza": "SAYEDPUR", "long": 90.49478, "lat": 23.64244, "serial": 20043, "isUnique": 1, "field_11": null }, "geometry": { "type": "Point", "coordinates": [ 90.49478, 23.64244 ] } },
{ "type": "Feature", "properties": { "inst_name": "HAT KHOLA  high school", "eiin": 112454, "inst_type": "School", "district": "NARAYANGANJ", "thana": "NARAYANGANJ SADAR", "mauza": "KASHIPUR", "long": 90.48733, "lat": 23.633, "serial": 20044, "isUnique": 1, "field_11": null }, "geometry": { "type": "Point", "coordinates": [ 90.48733, 23.633 ] } },
{ "type": "Feature", "properties": { "inst_name": "KASHIPUR ADARSHA GIRLS HIGH SCHOOL", "eiin": 112445, "inst_type": "School", "district": "NARAYANGANJ", "thana": "NARAYANGANJ SADAR", "mauza": "KASHIPUR", "long": 90.497, "lat": 23.63028, "serial": 20045, "isUnique": 1, "field_11": null }, "geometry": { "type": "Point", "coordinates": [ 90.497, 23.63028 ] } },
{ "type": "Feature", "properties": { "inst_name": "AHSAN UDDIN HIGH SCHOOL", "eiin": 112449, "inst_type": "School", "district": "NARAYANGANJ", "thana": "NARAYANGANJ SADAR", "mauza": "DEUL PARA(PART)", "long": 90.50164, "lat": 23.59108, "serial": 20046, "isUnique": 1, "field_11": null }, "geometry": { "type": "Point", "coordinates": [ 90.50164, 23.59108 ] } },
{ "type": "Feature", "properties": { "inst_name": "HAZEE PANDEY ALI HIGH SCHOOL", "eiin": 112406, "inst_type": "School", "district": "NARAYANGANJ", "thana": "NARAYANGANJ SADAR", "mauza": "BHUIGAR", "long": 90.49886, "lat": 23.59003, "serial": 20047, "isUnique": 1, "field_11": null }, "geometry": { "type": "Point", "coordinates": [ 90.49886, 23.59003 ] } },
{ "type": "Feature", "properties": { "inst_name": "DELPARA HIGH SCHOOL", "eiin": 112435, "inst_type": "School", "district": "NARAYANGANJ", "thana": "NARAYANGANJ SADAR", "mauza": "DEUL PARA(PART)", "long": 90.48978, "lat": 23.60128, "serial": 20048, "isUnique": 1, "field_11": null }, "geometry": { "type": "Point", "coordinates": [ 90.48978, 23.60128 ] } },
{ "type": "Feature", "properties": { "inst_name": "MOHAMMAD RAMJAN ALI CHISHTI HIGH SCHOOL", "eiin": 112336, "inst_type": "School", "district": "NARAYANGANJ", "thana": "NARAYANGANJ SADAR", "mauza": "BHUIGAR", "long": 90.48364, "lat": 23.60569, "serial": 20049, "isUnique": 1, "field_11": null }, "geometry": { "type": "Point", "coordinates": [ 90.48364, 23.60569 ] } },
{ "type": "Feature", "properties": { "inst_name": "KAMRUN NAHAR SCHOOL AND COLLEGE", "eiin": 133704, "inst_type": "School", "district": "NARAYANGANJ", "thana": "NARAYANGANJ SADAR", "mauza": "BHUIGAR", "long": 90.489, "lat": 23.60697, "serial": 20050, "isUnique": 1, "field_11": null }, "geometry": { "type": "Point", "coordinates": [ 90.489, 23.60697 ] } },
{ "type": "Feature", "properties": { "inst_name": "PAGLA HIGH SCHOOL", "eiin": 112440, "inst_type": "School", "district": "NARAYANGANJ", "thana": "NARAYANGANJ SADAR", "mauza": "DHOPATITA", "long": 90.46436, "lat": 23.67853, "serial": 20051, "isUnique": 1, "field_11": null }, "geometry": { "type": "Point", "coordinates": [ 90.46436, 23.67853 ] } },
{ "type": "Feature", "properties": { "inst_name": "SHIACHAR ADARSHA SCHOOL", "eiin": 131393, "inst_type": "School", "district": "NARAYANGANJ", "thana": "NARAYANGANJ SADAR", "mauza": "DAPA IDRAKPUR (DAPA)", "long": 90.48436, "lat": 23.67903, "serial": 20052, "isUnique": 1, "field_11": null }, "geometry": { "type": "Point", "coordinates": [ 90.48436, 23.67903 ] } },
{ "type": "Feature", "properties": { "inst_name": "ALHAJ ABDUL AWAUL (CH)HIGH SCHOOL", "eiin": 131370, "inst_type": "School", "district": "NARAYANGANJ", "thana": "NARAYANGANJ SADAR", "mauza": "SIACHAR", "long": 90.4755, "lat": 23.66736, "serial": 20053, "isUnique": 1, "field_11": null }, "geometry": { "type": "Point", "coordinates": [ 90.4755, 23.66736 ] } },
{ "type": "Feature", "properties": { "inst_name": "ADARSHA ACADEMY", "eiin": 131405, "inst_type": "School", "district": "NARAYANGANJ", "thana": "NARAYANGANJ SADAR", "mauza": "KUTUBPUR", "long": 90.47694, "lat": 23.68903, "serial": 20054, "isUnique": 1, "field_11": null }, "geometry": { "type": "Point", "coordinates": [ 90.47694, 23.68903 ] } },
{ "type": "Feature", "properties": { "inst_name": "PARAMOUNT INTERNATIONAL SCHOOL AND COLLEGE", "eiin": 131397, "inst_type": "School", "district": "NARAYANGANJ", "thana": "NARAYANGANJ SADAR", "mauza": "SIACHAR", "long": 90.47739, "lat": 23.68897, "serial": 20055, "isUnique": 1, "field_11": null }, "geometry": { "type": "Point", "coordinates": [ 90.47739, 23.68897 ] } },
{ "type": "Feature", "properties": { "inst_name": "WAYS KORANI ADARSHA HIGH SCHOOL", "eiin": 131365, "inst_type": "School", "district": "NARAYANGANJ", "thana": "NARAYANGANJ SADAR", "mauza": "DEUL PARA(PART)", "long": 90.46133, "lat": 23.66567, "serial": 20056, "isUnique": 1, "field_11": null }, "geometry": { "type": "Point", "coordinates": [ 90.46133, 23.66567 ] } },
{ "type": "Feature", "properties": { "inst_name": "ANANDALOK HIGH SCHOOL", "eiin": 112408, "inst_type": "School", "district": "NARAYANGANJ", "thana": "NARAYANGANJ SADAR", "mauza": "SANARPAR", "long": 90.48128, "lat": 23.66978, "serial": 20057, "isUnique": 1, "field_11": null }, "geometry": { "type": "Point", "coordinates": [ 90.48128, 23.66978 ] } },
{ "type": "Feature", "properties": { "inst_name": "DAPA ADARSHA HIGH SCHOOL", "eiin": 112441, "inst_type": "School", "district": "NARAYANGANJ", "thana": "NARAYANGANJ SADAR", "mauza": "DAPA IDRAKPUR (DAPA)", "long": 90.49019, "lat": 23.65128, "serial": 20058, "isUnique": 1, "field_11": null }, "geometry": { "type": "Point", "coordinates": [ 90.49019, 23.65128 ] } },
{ "type": "Feature", "properties": { "inst_name": "MOHAR ALI SHAH NUR BANU HIGH SCHOOL", "eiin": 112496, "inst_type": "School", "district": "NARAYANGANJ", "thana": "RUPGANJ", "mauza": "TARAIL", "long": 90.47392, "lat": 23.66689, "serial": 20059, "isUnique": 1, "field_11": null }, "geometry": { "type": "Point", "coordinates": [ 90.47392, 23.66689 ] } },
{ "type": "Feature", "properties": { "inst_name": "NAWAB ASKARY ADARSHA HIGH SCHOOL", "eiin": 112504, "inst_type": "School", "district": "NARAYANGANJ", "thana": "RUPGANJ", "mauza": "NABAB ASKARI JUTE MILL", "long": 90.47458, "lat": 23.65378, "serial": 20060, "isUnique": 1, "field_11": null }, "geometry": { "type": "Point", "coordinates": [ 90.47458, 23.65378 ] } },
{ "type": "Feature", "properties": { "inst_name": "HAJI RAFIZUDDIN BHUIYAN GIRLS HIGH SCHOOL", "eiin": 112501, "inst_type": "School", "district": "NARAYANGANJ", "thana": "RUPGANJ", "mauza": "KANCHAN (PART)", "long": 90.56169, "lat": 23.86531, "serial": 20061, "isUnique": 1, "field_11": null }, "geometry": { "type": "Point", "coordinates": [ 90.56169, 23.86531 ] } },
{ "type": "Feature", "properties": { "inst_name": "SATTAR JUTE MILLS MODEL HIGH SCHOOL", "eiin": 112506, "inst_type": "School", "district": "NARAYANGANJ", "thana": "RUPGANJ", "mauza": "TRISKAHUNI", "long": 90.56658, "lat": 23.86517, "serial": 20062, "isUnique": 1, "field_11": null }, "geometry": { "type": "Point", "coordinates": [ 90.56658, 23.86517 ] } },
{ "type": "Feature", "properties": { "inst_name": "ASHRAF JUTE MILLS ADARSHA HIGH SCHOOL", "eiin": 112502, "inst_type": "School", "district": "NARAYANGANJ", "thana": "RUPGANJ", "mauza": "KRISHNANAGAR", "long": 90.55425, "lat": 23.83703, "serial": 20063, "isUnique": 1, "field_11": null }, "geometry": { "type": "Point", "coordinates": [ 90.55425, 23.83703 ] } },
{ "type": "Feature", "properties": { "inst_name": "GANDHARBAPUR HIGH SCHOOL", "eiin": 112495, "inst_type": "School", "district": "NARAYANGANJ", "thana": "RUPGANJ", "mauza": "GANDHARBAPUR (PART)", "long": 90.55561, "lat": 23.81947, "serial": 20064, "isUnique": 1, "field_11": null }, "geometry": { "type": "Point", "coordinates": [ 90.55561, 23.81947 ] } },
{ "type": "Feature", "properties": { "inst_name": "HAZI AYET ALI BHUIYAN HIGH SCHOOL", "eiin": 112494, "inst_type": "School", "district": "NARAYANGANJ", "thana": "RUPGANJ", "mauza": "GANDHARBAPUR (PART)", "long": 90.57197, "lat": 23.84139, "serial": 20065, "isUnique": 1, "field_11": null }, "geometry": { "type": "Point", "coordinates": [ 90.57197, 23.84139 ] } },
{ "type": "Feature", "properties": { "inst_name": "HAJI NUR UDDIN AHAMMED HIGH SCHOOL", "eiin": 112509, "inst_type": "School", "district": "NARAYANGANJ", "thana": "RUPGANJ", "mauza": "GANDHARBAPUR (PART)", "long": 90.55147, "lat": 23.83422, "serial": 20066, "isUnique": 1, "field_11": null }, "geometry": { "type": "Point", "coordinates": [ 90.55147, 23.83422 ] } },
{ "type": "Feature", "properties": { "inst_name": "BHOLABO SHAHID HIGH SCHOOL", "eiin": 112497, "inst_type": "School", "district": "NARAYANGANJ", "thana": "RUPGANJ", "mauza": "BHOLABA", "long": 90.52733, "lat": 23.73742, "serial": 20067, "isUnique": 1, "field_11": null }, "geometry": { "type": "Point", "coordinates": [ 90.52733, 23.73742 ] } },
{ "type": "Feature", "properties": { "inst_name": "GANABANGLA  HIGH  SCHOOL", "eiin": 112498, "inst_type": "School", "district": "NARAYANGANJ", "thana": "RUPGANJ", "mauza": "KURAIL", "long": 90.54036, "lat": 23.74703, "serial": 20068, "isUnique": 1, "field_11": null }, "geometry": { "type": "Point", "coordinates": [ 90.54036, 23.74703 ] } },
{ "type": "Feature", "properties": { "inst_name": "ADARSHA HIGH SCHOOL(MITHABO)", "eiin": 112500, "inst_type": "School", "district": "NARAYANGANJ", "thana": "RUPGANJ", "mauza": "MITHABA", "long": 90.58811, "lat": 23.87878, "serial": 20069, "isUnique": 1, "field_11": null }, "geometry": { "type": "Point", "coordinates": [ 90.58811, 23.87878 ] } },
{ "type": "Feature", "properties": { "inst_name": "AMDIA KRISHAK SRAMIK HIGH SCHOOL", "eiin": 112505, "inst_type": "School", "district": "NARAYANGANJ", "thana": "RUPGANJ", "mauza": "BARA AMDIA", "long": 90.58056, "lat": 23.84953, "serial": 20070, "isUnique": 1, "field_11": null }, "geometry": { "type": "Point", "coordinates": [ 90.58056, 23.84953 ] } },
{ "type": "Feature", "properties": { "inst_name": "KALNI HIRNAL HIGH SCHOOL", "eiin": 112514, "inst_type": "School", "district": "NARAYANGANJ", "thana": "RUPGANJ", "mauza": "BHOLANATHPUR", "long": 90.56322, "lat": 23.78383, "serial": 20071, "isUnique": 1, "field_11": null }, "geometry": { "type": "Point", "coordinates": [ 90.56322, 23.78383 ] } },
{ "type": "Feature", "properties": { "inst_name": "PALKHAN HIGH SCHOOL", "eiin": 112508, "inst_type": "School", "district": "NARAYANGANJ", "thana": "RUPGANJ", "mauza": "KAMTA", "long": 90.54261, "lat": 23.80644, "serial": 20072, "isUnique": 1, "field_11": null }, "geometry": { "type": "Point", "coordinates": [ 90.54261, 23.80644 ] } },
{ "type": "Feature", "properties": { "inst_name": "DAUDOUR PUTINA HIGH SCHOOL", "eiin": 112490, "inst_type": "School", "district": "NARAYANGANJ", "thana": "RUPGANJ", "mauza": "PUTINA", "long": 90.557, "lat": 23.78419, "serial": 20073, "isUnique": 1, "field_11": null }, "geometry": { "type": "Point", "coordinates": [ 90.557, 23.78419 ] } },
{ "type": "Feature", "properties": { "inst_name": "GOLAKANDAIL MOZIBUR RAHMAN BHUYAN HIGH SCHOOL", "eiin": 112512, "inst_type": "School", "district": "NARAYANGANJ", "thana": "RUPGANJ", "mauza": "GOLAKANDAIL", "long": 90.50897, "lat": 23.87125, "serial": 20074, "isUnique": 1, "field_11": null }, "geometry": { "type": "Point", "coordinates": [ 90.50897, 23.87125 ] } },
{ "type": "Feature", "properties": { "inst_name": "SAHITUNNESSA PILOT GIRLS HIGH SCHOOL", "eiin": 112488, "inst_type": "School", "district": "NARAYANGANJ", "thana": "RUPGANJ", "mauza": "RUPGANJ", "long": 90.564, "lat": 23.88497, "serial": 20075, "isUnique": 1, "field_11": null }, "geometry": { "type": "Point", "coordinates": [ 90.564, 23.88497 ] } },
{ "type": "Feature", "properties": { "inst_name": "JANATA HIGH SCHOOL", "eiin": 112507, "inst_type": "School", "district": "NARAYANGANJ", "thana": "RUPGANJ", "mauza": "BRAHMANKHALI", "long": 90.55636, "lat": 23.87364, "serial": 20076, "isUnique": 1, "field_11": null }, "geometry": { "type": "Point", "coordinates": [ 90.55636, 23.87364 ] } },
{ "type": "Feature", "properties": { "inst_name": "PROGOTI HIGH SCHOOL", "eiin": 112513, "inst_type": "School", "district": "NARAYANGANJ", "thana": "RUPGANJ", "mauza": "GUTIABA", "long": 90.54936, "lat": 23.86447, "serial": 20077, "isUnique": 1, "field_11": null }, "geometry": { "type": "Point", "coordinates": [ 90.54936, 23.86447 ] } },
{ "type": "Feature", "properties": { "inst_name": "JANGIR HIGH SCHOOL", "eiin": 112486, "inst_type": "School", "district": "NARAYANGANJ", "thana": "RUPGANJ", "mauza": "JANGIR", "long": 90.52294, "lat": 23.87797, "serial": 20078, "isUnique": 1, "field_11": null }, "geometry": { "type": "Point", "coordinates": [ 90.52294, 23.87797 ] } },
{ "type": "Feature", "properties": { "inst_name": "KAZI ABDUL HAMID HIGH SCHOOL", "eiin": 112499, "inst_type": "School", "district": "NARAYANGANJ", "thana": "RUPGANJ", "mauza": "RUPGANJ", "long": 90.57233, "lat": 23.77836, "serial": 20079, "isUnique": 1, "field_11": null }, "geometry": { "type": "Point", "coordinates": [ 90.57233, 23.77836 ] } },
{ "type": "Feature", "properties": { "inst_name": "NURUL HOQUE HIGH SCHOOL", "eiin": 112485, "inst_type": "School", "district": "NARAYANGANJ", "thana": "RUPGANJ", "mauza": "KUTUBPUR", "long": 90.52719, "lat": 23.779, "serial": 20080, "isUnique": 1, "field_11": null }, "geometry": { "type": "Point", "coordinates": [ 90.52719, 23.779 ] } },
{ "type": "Feature", "properties": { "inst_name": "SONARGAON PILOT GIRLS HIGH SCHOOL", "eiin": 112331, "inst_type": "School", "district": "NARAYANGANJ", "thana": "SONARGAON", "mauza": "CHOWDONA", "long": 90.58172, "lat": 23.85039, "serial": 20081, "isUnique": 1, "field_11": null }, "geometry": { "type": "Point", "coordinates": [ 90.58172, 23.85039 ] } },
{ "type": "Feature", "properties": { "inst_name": "BAIDYER BAZAR N A M PILOT HIGH SCHOOL", "eiin": 112343, "inst_type": "School", "district": "NARAYANGANJ", "thana": "SONARGAON", "mauza": "HARIA", "long": 90.56897, "lat": 23.879, "serial": 20082, "isUnique": 1, "field_11": null }, "geometry": { "type": "Point", "coordinates": [ 90.56897, 23.879 ] } },
{ "type": "Feature", "properties": { "inst_name": "HAZI MATIUR RAHMAN SARKER HIGH SCHOOL", "eiin": 112359, "inst_type": "School", "district": "NARAYANGANJ", "thana": "SONARGAON", "mauza": "PASCHIM DAMODARDI", "long": 90.54364, "lat": 23.82414, "serial": 20083, "isUnique": 1, "field_11": null }, "geometry": { "type": "Point", "coordinates": [ 90.54364, 23.82414 ] } },
{ "type": "Feature", "properties": { "inst_name": "GOALPARA HIGH SCHOOL", "eiin": 112357, "inst_type": "School", "district": "NARAYANGANJ", "thana": "SONARGAON", "mauza": "GOAL PARA", "long": 90.60803, "lat": 23.65664, "serial": 20084, "isUnique": 1, "field_11": null }, "geometry": { "type": "Point", "coordinates": [ 90.60803, 23.65664 ] } },
{ "type": "Feature", "properties": { "inst_name": "RIBOR PILOT GIRLS  HIGH SCHOOL", "eiin": 112339, "inst_type": "School", "district": "NARAYANGANJ", "thana": "SONARGAON", "mauza": "RIBARDI", "long": 90.60725, "lat": 23.64683, "serial": 20085, "isUnique": 1, "field_11": null }, "geometry": { "type": "Point", "coordinates": [ 90.60725, 23.64683 ] } },
{ "type": "Feature", "properties": { "inst_name": "BURUMDI A L M H high SCHOOL", "eiin": 112345, "inst_type": "School", "district": "NARAYANGANJ", "thana": "SONARGAON", "mauza": "BURUMDI", "long": 90.62728, "lat": 23.6765, "serial": 20086, "isUnique": 1, "field_11": null }, "geometry": { "type": "Point", "coordinates": [ 90.62728, 23.6765 ] } },
{ "type": "Feature", "properties": { "inst_name": "MAHAJAM PUR M.L.HIGH SCHOOL", "eiin": 112344, "inst_type": "School", "district": "NARAYANGANJ", "thana": "SONARGAON", "mauza": "SEKHERHAT", "long": 90.65953, "lat": 23.71281, "serial": 20087, "isUnique": 1, "field_11": null }, "geometry": { "type": "Point", "coordinates": [ 90.65953, 23.71281 ] } },
{ "type": "Feature", "properties": { "inst_name": "JAMPUR MAJHER CHAR M.S.G.K. HIGH SCHOOL", "eiin": 112340, "inst_type": "School", "district": "NARAYANGANJ", "thana": "SONARGAON", "mauza": "BARA MAJHER CHAR", "long": 90.634, "lat": 23.69931, "serial": 20088, "isUnique": 1, "field_11": null }, "geometry": { "type": "Point", "coordinates": [ 90.634, 23.69931 ] } },
{ "type": "Feature", "properties": { "inst_name": "PARAB  ADARSHA HIGH SCHOOL", "eiin": 112351, "inst_type": "School", "district": "NARAYANGANJ", "thana": "SONARGAON", "mauza": "PERABA", "long": 90.63217, "lat": 23.70436, "serial": 20089, "isUnique": 1, "field_11": null }, "geometry": { "type": "Point", "coordinates": [ 90.63217, 23.70436 ] } },
{ "type": "Feature", "properties": { "inst_name": "KANCHPUR OMOR ALI HIGH SCHOOL", "eiin": 112334, "inst_type": "School", "district": "NARAYANGANJ", "thana": "SONARGAON", "mauza": "KANCHPUR", "long": 90.62917, "lat": 23.73569, "serial": 20090, "isUnique": 1, "field_11": null }, "geometry": { "type": "Point", "coordinates": [ 90.62917, 23.73569 ] } },
{ "type": "Feature", "properties": { "inst_name": "KAIKERTEK NAWAB HABIBULLAH HIGH SCHOOL", "eiin": 112342, "inst_type": "School", "district": "NARAYANGANJ", "thana": "SONARGAON", "mauza": "DARUGOLA", "long": 90.60975, "lat": 23.75417, "serial": 20091, "isUnique": 1, "field_11": null }, "geometry": { "type": "Point", "coordinates": [ 90.60975, 23.75417 ] } },
{ "type": "Feature", "properties": { "inst_name": "MOGRAPARA H. G. G. S. SMiRITI BIDDYATON", "eiin": 112332, "inst_type": "School", "district": "NARAYANGANJ", "thana": "SONARGAON", "mauza": "CHHOTA ARJUNDI", "long": 90.56686, "lat": 23.74575, "serial": 20092, "isUnique": 1, "field_11": null }, "geometry": { "type": "Point", "coordinates": [ 90.56686, 23.74575 ] } },
{ "type": "Feature", "properties": { "inst_name": "SONAKHALI JUNIOR HIGH SCHOOL", "eiin": 112354, "inst_type": "School", "district": "NARAYANGANJ", "thana": "SONARGAON", "mauza": "SONAKHALI", "long": 90.59092, "lat": 23.72172, "serial": 20093, "isUnique": 1, "field_11": null }, "geometry": { "type": "Point", "coordinates": [ 90.59092, 23.72172 ] } },
{ "type": "Feature", "properties": { "inst_name": "NOAGAON HIGH SCHOOL", "eiin": 112353, "inst_type": "School", "district": "NARAYANGANJ", "thana": "SONARGAON", "mauza": "NAOGAON", "long": 90.52947, "lat": 23.68875, "serial": 20094, "isUnique": 1, "field_11": null }, "geometry": { "type": "Point", "coordinates": [ 90.52947, 23.68875 ] } },
{ "type": "Feature", "properties": { "inst_name": "TAHERPUR HAZI LAL MIAH SCHOOL", "eiin": 112352, "inst_type": "School", "district": "NARAYANGANJ", "thana": "SONARGAON", "mauza": "MANGALERGAON", "long": 90.57006, "lat": 23.56892, "serial": 20095, "isUnique": 1, "field_11": null }, "geometry": { "type": "Point", "coordinates": [ 90.57006, 23.56892 ] } },
{ "type": "Feature", "properties": { "inst_name": "DABIR UDDIN BHUIYA HIGH SCHOOL", "eiin": 112333, "inst_type": "School", "district": "NARAYANGANJ", "thana": "SONARGAON", "mauza": "SADIPUR", "long": 90.58411, "lat": 23.63311, "serial": 20096, "isUnique": 1, "field_11": null }, "geometry": { "type": "Point", "coordinates": [ 90.58411, 23.63311 ] } },
{ "type": "Feature", "properties": { "inst_name": "PANCHAMI GHAT HIGH SCHOOL", "eiin": 112338, "inst_type": "School", "district": "NARAYANGANJ", "thana": "SONARGAON", "mauza": "PANCHAMIGHAT", "long": 90.64275, "lat": 23.7315, "serial": 20097, "isUnique": 1, "field_11": null }, "geometry": { "type": "Point", "coordinates": [ 90.64275, 23.7315 ] } },
{ "type": "Feature", "properties": { "inst_name": "SADI PUR HIGH SCHOOL", "eiin": 112347, "inst_type": "School", "district": "NARAYANGANJ", "thana": "SONARGAON", "mauza": "BARAGAON", "long": 90.58286, "lat": 23.61903, "serial": 20098, "isUnique": 1, "field_11": null }, "geometry": { "type": "Point", "coordinates": [ 90.58286, 23.61903 ] } },
{ "type": "Feature", "properties": { "inst_name": "CHOWDHURY GAON  HIGH SCHOOL", "eiin": 112349, "inst_type": "School", "district": "NARAYANGANJ", "thana": "SONARGAON", "mauza": "CHOWDHURYGAON", "long": 90.57858, "lat": 23.72689, "serial": 20099, "isUnique": 1, "field_11": null }, "geometry": { "type": "Point", "coordinates": [ 90.57858, 23.72689 ] } },
{ "type": "Feature", "properties": { "inst_name": "HOSSAINPUR S P UNION HIGH SCHOOL", "eiin": 112341, "inst_type": "School", "district": "NARAYANGANJ", "thana": "SONARGAON", "mauza": "HOSSAINPUR", "long": 90.54258, "lat": 23.729, "serial": 20100, "isUnique": 1, "field_11": null }, "geometry": { "type": "Point", "coordinates": [ 90.54258, 23.729 ] } },
{ "type": "Feature", "properties": { "inst_name": "MADHYA CHAR HOGLA HIGH SCHOOL", "eiin": 112356, "inst_type": "School", "district": "NARAYANGANJ", "thana": "SONARGAON", "mauza": "CHAR HOGLA", "long": 90.54, "lat": 23.72156, "serial": 20101, "isUnique": 1, "field_11": null }, "geometry": { "type": "Point", "coordinates": [ 90.54, 23.72156 ] } },
{ "type": "Feature", "properties": { "inst_name": "SHAMBHUPURA HIGH SCHOOL", "eiin": 112307, "inst_type": "School", "district": "NARAYANGANJ", "thana": "SONARGAON", "mauza": "SHAMBHUPURA", "long": 90.57703, "lat": 23.71419, "serial": 20102, "isUnique": 1, "field_11": null }, "geometry": { "type": "Point", "coordinates": [ 90.57703, 23.71419 ] } },
{ "type": "Feature", "properties": { "inst_name": "SONAR BANGLA HIGH SCHOOL", "eiin": 112346, "inst_type": "School", "district": "NARAYANGANJ", "thana": "SONARGAON", "mauza": "BHABANIPUR", "long": 90.56075, "lat": 23.61267, "serial": 20103, "isUnique": 2, "field_11": null }, "geometry": { "type": "Point", "coordinates": [ 90.56075, 23.61267 ] } },
{ "type": "Feature", "properties": { "inst_name": "SANMADI HASAN KHAN HIGH SCHOOL", "eiin": 112350, "inst_type": "School", "district": "NARAYANGANJ", "thana": "SONARGAON", "mauza": "SANMANDI", "long": 90.56594, "lat": 23.55989, "serial": 20104, "isUnique": 1, "field_11": null }, "geometry": { "type": "Point", "coordinates": [ 90.56594, 23.55989 ] } },
{ "type": "Feature", "properties": { "inst_name": "MADAN PUR RAHOMANIA HIGH SCHOOL", "eiin": 112380, "inst_type": "School", "district": "NARAYANGANJ", "thana": "BANDAR", "mauza": "MADANPUR", "long": 90.55219, "lat": 23.58919, "serial": 20105, "isUnique": 1, "field_11": null }, "geometry": { "type": "Point", "coordinates": [ 90.55219, 23.58919 ] } },
{ "type": "Feature", "properties": { "inst_name": "KANCHAN VAROT CHANDRA HIGH SCHOOL", "eiin": 112489, "inst_type": "School", "district": "NARAYANGANJ", "thana": "RUPGANJ", "mauza": "KANCHAN (PART)", "long": 90.56075, "lat": 23.61267, "serial": 20106, "isUnique": 2, "field_11": null }, "geometry": { "type": "Point", "coordinates": [ 90.56075, 23.61267 ] } },
{ "type": "Feature", "properties": { "inst_name": "BALIAPARA HIGH SCHOOL AND COLLEGE", "eiin": 112305, "inst_type": "School and College", "district": "NARAYANGANJ", "thana": "ARAIHAZAR", "mauza": "BALIA PARA", "long": 90.66122, "lat": 23.79456, "serial": 26167, "isUnique": 1, "field_11": null }, "geometry": { "type": "Point", "coordinates": [ 90.66122, 23.79456 ] } },
{ "type": "Feature", "properties": { "inst_name": "SULTANSADI HIGH SCHOOL AND COLLEGE", "eiin": 132151, "inst_type": "School and College", "district": "NARAYANGANJ", "thana": "ARAIHAZAR", "mauza": "SULTANSADI", "long": 90.62819, "lat": 23.78833, "serial": 26168, "isUnique": 1, "field_11": null }, "geometry": { "type": "Point", "coordinates": [ 90.62819, 23.78833 ] } },
{ "type": "Feature", "properties": { "inst_name": "BANDAR GIRLS' SCHOOL AND COLLEGE", "eiin": 112378, "inst_type": "School and College", "district": "NARAYANGANJ", "thana": "BANDAR", "mauza": "S.S. SAHA ROAD (PART)", "long": 90.67322, "lat": 23.74872, "serial": 26169, "isUnique": 1, "field_11": null }, "geometry": { "type": "Point", "coordinates": [ 90.67322, 23.74872 ] } },
{ "type": "Feature", "properties": { "inst_name": "HAJI IBRAHIM ALAMCHAN model school and college", "eiin": 112403, "inst_type": "School and College", "district": "NARAYANGANJ", "thana": "BANDAR", "mauza": "MADHABPASHA", "long": 90.53375, "lat": 23.58153, "serial": 26170, "isUnique": 1, "field_11": null }, "geometry": { "type": "Point", "coordinates": [ 90.53375, 23.58153 ] } },
{ "type": "Feature", "properties": { "inst_name": "SINHA UCHCHA MADHAMIK BIDDALAYA", "eiin": 112372, "inst_type": "School and College", "district": "NARAYANGANJ", "thana": "SONARGAON", "mauza": "KANCHPUR", "long": 90.55839, "lat": 23.66553, "serial": 26171, "isUnique": 1, "field_11": null }, "geometry": { "type": "Point", "coordinates": [ 90.55839, 23.66553 ] } },
{ "type": "Feature", "properties": { "inst_name": "B.M.UNION SCHOOL AND COLLEGE", "eiin": 112379, "inst_type": "School and College", "district": "NARAYANGANJ", "thana": "BANDAR", "mauza": "S.S. SAHA ROAD (PART)", "long": 90.55492, "lat": 23.63061, "serial": 26172, "isUnique": 1, "field_11": null }, "geometry": { "type": "Point", "coordinates": [ 90.55492, 23.63061 ] } },
{ "type": "Feature", "properties": { "inst_name": "DHAKESWARI MILLS SCHOOL AND COLLEGE", "eiin": 112377, "inst_type": "School and College", "district": "NARAYANGANJ", "thana": "BANDAR", "mauza": "LAKSHANKHOLA ROAD(PART)", "long": 90.55039, "lat": 23.63833, "serial": 26173, "isUnique": 1, "field_11": null }, "geometry": { "type": "Point", "coordinates": [ 90.55039, 23.63833 ] } },
{ "type": "Feature", "properties": { "inst_name": "NARAYANGANJ HIGH SCHOOL AND COLLEGE", "eiin": 112420, "inst_type": "School and College", "district": "NARAYANGANJ", "thana": "NARAYANGANJ SADAR", "mauza": "SUMIL PARA (SIDDIRGANJ PART)", "long": 90.49444, "lat": 23.70006, "serial": 26174, "isUnique": 1, "field_11": null }, "geometry": { "type": "Point", "coordinates": [ 90.49444, 23.70006 ] } },
{ "type": "Feature", "properties": { "inst_name": "NARAYANGONJ GIRLS  SCHOOL AND COLLEGE", "eiin": 112426, "inst_type": "School and College", "district": "NARAYANGANJ", "thana": "NARAYANGANJ SADAR", "mauza": "AMLA PARA", "long": 90.50528, "lat": 23.62681, "serial": 26175, "isUnique": 1, "field_11": null }, "geometry": { "type": "Point", "coordinates": [ 90.50528, 23.62681 ] } },
{ "type": "Feature", "properties": { "inst_name": "KANAINAGAR SOBAHANIA SCHOOL AND COLLEGE", "eiin": 112405, "inst_type": "School and College", "district": "NARAYANGANJ", "thana": "NARAYANGANJ SADAR", "mauza": "CHAR BAKTABALLI", "long": 90.49794, "lat": 23.66211, "serial": 26176, "isUnique": 1, "field_11": null }, "geometry": { "type": "Point", "coordinates": [ 90.49794, 23.66211 ] } },
{ "type": "Feature", "properties": { "inst_name": "ARRIBS INTERNATIONAL SCHOOL & COLLEGE", "eiin": 112428, "inst_type": "School and College", "district": "NARAYANGANJ", "thana": "NARAYANGANJ SADAR", "mauza": "MASDAIR (PART-A)", "long": 90.49039, "lat": 23.62586, "serial": 26177, "isUnique": 1, "field_11": null }, "geometry": { "type": "Point", "coordinates": [ 90.49039, 23.62586 ] } },
{ "type": "Feature", "properties": { "inst_name": "KAMAR ALI HIGH SCHOOL AND COLLEGE", "eiin": 112415, "inst_type": "School and College", "district": "NARAYANGANJ", "thana": "NARAYANGANJ SADAR", "mauza": "FATULLA", "long": 90.49328, "lat": 23.63, "serial": 26178, "isUnique": 1, "field_11": null }, "geometry": { "type": "Point", "coordinates": [ 90.49328, 23.63 ] } },
{ "type": "Feature", "properties": { "inst_name": "RUPSHI NEW MODEL  SCHOOL AND COLLEGE", "eiin": 112510, "inst_type": "School and College", "district": "NARAYANGANJ", "thana": "RUPGANJ", "mauza": "GANDHARBAPUR (PART)", "long": 90.46158, "lat": 23.67028, "serial": 26179, "isUnique": 1, "field_11": null }, "geometry": { "type": "Point", "coordinates": [ 90.46158, 23.67028 ] } },
{ "type": "Feature", "properties": { "inst_name": "HAJI MOHAMMAD EKHLAS UDDIN BHU.H\/S AND COLLEGE", "eiin": 112511, "inst_type": "School and College", "district": "NARAYANGANJ", "thana": "RUPGANJ", "mauza": "DEBAI", "long": 90.52164, "lat": 23.74628, "serial": 26180, "isUnique": 1, "field_11": null }, "geometry": { "type": "Point", "coordinates": [ 90.52164, 23.74628 ] } },
{ "type": "Feature", "properties": { "inst_name": "BHULTA UCHHA MADHAMIC BIDDALAYA", "eiin": 112492, "inst_type": "School and College", "district": "NARAYANGANJ", "thana": "RUPGANJ", "mauza": "BULTA", "long": 90.51706, "lat": 23.72253, "serial": 26181, "isUnique": 1, "field_11": null }, "geometry": { "type": "Point", "coordinates": [ 90.51706, 23.72253 ] } },
{ "type": "Feature", "properties": { "inst_name": "NURUNNESSA UCHCHA MADHYAMIK BIDYALAYA", "eiin": 112537, "inst_type": "School and College", "district": "NARAYANGANJ", "thana": "RUPGANJ", "mauza": "DAUDPUR", "long": 90.54011, "lat": 23.84158, "serial": 26182, "isUnique": 1, "field_11": null }, "geometry": { "type": "Point", "coordinates": [ 90.54011, 23.84158 ] } },
{ "type": "Feature", "properties": { "inst_name": "SONARGAON G.R.INSTITUTION", "eiin": 112373, "inst_type": "School and College", "district": "NARAYANGANJ", "thana": "SONARGAON", "mauza": "AMINPUR", "long": 90.53539, "lat": 23.80836, "serial": 26183, "isUnique": 1, "field_11": null }, "geometry": { "type": "Point", "coordinates": [ 90.53539, 23.80836 ] } },
{ "type": "Feature", "properties": { "inst_name": "BARADI M.L.  SCHOOL AND COLLEGE", "eiin": 112337, "inst_type": "School and College", "district": "NARAYANGANJ", "thana": "SONARGAON", "mauza": "BARADI", "long": 90.59828, "lat": 23.63819, "serial": 26184, "isUnique": 1, "field_11": null }, "geometry": { "type": "Point", "coordinates": [ 90.59828, 23.63819 ] } },
{ "type": "Feature", "properties": { "inst_name": "MaGHNA SHILPA NAGARI high SCHOOL AND COLLEGE", "eiin": 112335, "inst_type": "School and College", "district": "NARAYANGANJ", "thana": "SONARGAON", "mauza": "PIRIJPUR", "long": 90.58808, "lat": 23.63464, "serial": 26185, "isUnique": 1, "field_11": null }, "geometry": { "type": "Point", "coordinates": [ 90.58808, 23.63464 ] } }
]
}
