{
"type": "FeatureCollection",
"crs": { "type": "name", "properties": { "name": "urn:ogc:def:crs:OGC:1.3:CRS84" } },
"features": [
{ "type": "Feature", "properties": { "inst_name": "SHAH SULTAN (R) DEGREE COLLEGE", "eiin": 113196, "inst_type": "College", "district": "NETRAKONA", "thana": "NETROKONA SADAR", "mauza": "MADANPUR", "long": 90.731125, "lat": 24.87792, "serial": 1525, "isUnique": 1, "field_11": null }, "geometry": { "type": "Point", "coordinates": [ 90.731125, 24.87792 ] } },
{ "type": "Feature", "properties": { "inst_name": "PURBADHALA DEGREE COLLEGE", "eiin": 113250, "inst_type": "College", "district": "NETRAKONA", "thana": "PURBADHALA", "mauza": "PURBADHALA", "long": 90.603, "lat": 24.93867, "serial": 1526, "isUnique": 2, "field_11": null }, "geometry": { "type": "Point", "coordinates": [ 90.603, 24.93867 ] } },
{ "type": "Feature", "properties": { "inst_name": "RABEYA ALI MOHILA DEGREE COLLEGE", "eiin": 113249, "inst_type": "College", "district": "NETRAKONA", "thana": "PURBADHALA", "mauza": "PURBADHALA", "long": 90.594, "lat": 24.94708, "serial": 1527, "isUnique": 1, "field_11": null }, "geometry": { "type": "Point", "coordinates": [ 90.594, 24.94708 ] } },
{ "type": "Feature", "properties": { "inst_name": "JOTIABOR COLEGE", "eiin": 113248, "inst_type": "College", "district": "NETRAKONA", "thana": "PURBADHALA", "mauza": "JATIABAR", "long": 90.60044, "lat": 24.95256, "serial": 1528, "isUnique": 1, "field_11": null }, "geometry": { "type": "Point", "coordinates": [ 90.60044, 24.95256 ] } },
{ "type": "Feature", "properties": { "inst_name": "HAFEZ ZIAUR RAHMAN DEGREE COLLEGE", "eiin": 113251, "inst_type": "College", "district": "NETRAKONA", "thana": "PURBADHALA", "mauza": "GOHALAKANDA", "long": 90.57483, "lat": 24.84481, "serial": 1529, "isUnique": 2, "field_11": null }, "geometry": { "type": "Point", "coordinates": [ 90.57483, 24.84481 ] } },
{ "type": "Feature", "properties": { "inst_name": "CHANDRANATH COLLEGE", "eiin": 113193, "inst_type": "College", "district": "NETRAKONA", "thana": "NETROKONA SADAR", "mauza": "KAZI ROAD", "long": 90.71144, "lat": 24.89111, "serial": 1530, "isUnique": 1, "field_11": null }, "geometry": { "type": "Point", "coordinates": [ 90.71144, 24.89111 ] } },
{ "type": "Feature", "properties": { "inst_name": "GOVT NETROKONA MOHILA COLLEGE", "eiin": 113192, "inst_type": "College", "district": "NETRAKONA", "thana": "NETROKONA SADAR", "mauza": "MUKTER PARA", "long": 90.72892, "lat": 24.88614, "serial": 1531, "isUnique": 1, "field_11": null }, "geometry": { "type": "Point", "coordinates": [ 90.72892, 24.88614 ] } },
{ "type": "Feature", "properties": { "inst_name": "NETRAKONA GOVT COLLEGE", "eiin": 113194, "inst_type": "College", "district": "NETRAKONA", "thana": "NETROKONA SADAR", "mauza": "GRAM SATPAI_(1)", "long": 90.73164, "lat": 24.87792, "serial": 1532, "isUnique": 1, "field_11": null }, "geometry": { "type": "Point", "coordinates": [ 90.73164, 24.87792 ] } },
{ "type": "Feature", "properties": { "inst_name": "ABU ABBAS DEGREE COLLEGE", "eiin": 113195, "inst_type": "College", "district": "NETRAKONA", "thana": "NETROKONA SADAR", "mauza": "BILL GOJABOGI(PARA)", "long": 90.75053, "lat": 24.80453, "serial": 1534, "isUnique": 1, "field_11": null }, "geometry": { "type": "Point", "coordinates": [ 90.75053, 24.80453 ] } },
{ "type": "Feature", "properties": { "inst_name": "MOHANGANJ  DEGREE  COLLEGE", "eiin": 113129, "inst_type": "College", "district": "NETRAKONA", "thana": "MOHANGANJ", "mauza": "TANGAPARA (PART)", "long": 90.97328, "lat": 24.87225, "serial": 1535, "isUnique": 1, "field_11": null }, "geometry": { "type": "Point", "coordinates": [ 90.97328, 24.87225 ] } },
{ "type": "Feature", "properties": { "inst_name": "MOHANGONJ MOHILA COLLEGE", "eiin": 113130, "inst_type": "College", "district": "NETRAKONA", "thana": "MOHANGANJ", "mauza": "DAULATPUR (PART)", "long": 90.98128, "lat": 24.86444, "serial": 1536, "isUnique": 1, "field_11": null }, "geometry": { "type": "Point", "coordinates": [ 90.98128, 24.86444 ] } },
{ "type": "Feature", "properties": { "inst_name": "JOBAIDA RAHMAN MOHILA COLLEGE", "eiin": 113105, "inst_type": "College", "district": "NETRAKONA", "thana": "MADAN", "mauza": "BARI BHADERA (PURBA)", "long": 90.96258, "lat": 24.79994, "serial": 1537, "isUnique": 1, "field_11": null }, "geometry": { "type": "Point", "coordinates": [ 90.96258, 24.79994 ] } },
{ "type": "Feature", "properties": { "inst_name": "GOVT. HAZI ABDUL AZIZ KHAN DEGREE COLLEGE", "eiin": 113104, "inst_type": "College", "district": "NETRAKONA", "thana": "MADAN", "mauza": "IMDADPUR", "long": 90.95183, "lat": 24.71525, "serial": 1538, "isUnique": 1, "field_11": null }, "geometry": { "type": "Point", "coordinates": [ 90.95183, 24.71525 ] } },
{ "type": "Feature", "properties": { "inst_name": "BALALI BAGHMARA SHAJAHAN COLLEGE", "eiin": 113106, "inst_type": "College", "district": "NETRAKONA", "thana": "MADAN", "mauza": "BALALI", "long": 90.95414, "lat": 24.68061, "serial": 1539, "isUnique": 1, "field_11": null }, "geometry": { "type": "Point", "coordinates": [ 90.95414, 24.68061 ] } },
{ "type": "Feature", "properties": { "inst_name": "KHALIAJURI COLLEGE", "eiin": 112990, "inst_type": "College", "district": "NETRAKONA", "thana": "KHALIAJURI", "mauza": "KHALIAJURI", "long": 91.09914, "lat": 24.77089, "serial": 1540, "isUnique": 1, "field_11": null }, "geometry": { "type": "Point", "coordinates": [ 91.09914, 24.77089 ] } },
{ "type": "Feature", "properties": { "inst_name": "KRISHNAPUR   HAZI  ALI AKBAR  PUBLIC  DEGREE COLLEGE", "eiin": 112989, "inst_type": "College", "district": "NETRAKONA", "thana": "KHALIAJURI", "mauza": "KRISHNAPUR", "long": 91.13753, "lat": 24.68753, "serial": 1541, "isUnique": 1, "field_11": null }, "geometry": { "type": "Point", "coordinates": [ 91.13753, 24.68753 ] } },
{ "type": "Feature", "properties": { "inst_name": "KENDUA  DEGREE  COLLEGE", "eiin": 113076, "inst_type": "College", "district": "NETRAKONA", "thana": "KENDUA", "mauza": "BADE ATHABARI", "long": 90.72369, "lat": 24.71931, "serial": 1542, "isUnique": 1, "field_11": null }, "geometry": { "type": "Point", "coordinates": [ 90.72369, 24.71931 ] } },
{ "type": "Feature", "properties": { "inst_name": "PERVIN SIRAZ MOHILA COLLEGE", "eiin": 113079, "inst_type": "College", "district": "NETRAKONA", "thana": "KENDUA", "mauza": "CHANDAGATI", "long": 90.84719, "lat": 24.65153, "serial": 1543, "isUnique": 1, "field_11": null }, "geometry": { "type": "Point", "coordinates": [ 90.84719, 24.65153 ] } },
{ "type": "Feature", "properties": { "inst_name": "JANATA ADARSHA MOHABIDYALAY", "eiin": 113078, "inst_type": "College", "district": "NETRAKONA", "thana": "KENDUA", "mauza": "CHAND PARA", "long": 90.84114, "lat": 24.66353, "serial": 1544, "isUnique": 1, "field_11": null }, "geometry": { "type": "Point", "coordinates": [ 90.84114, 24.66353 ] } },
{ "type": "Feature", "properties": { "inst_name": "GOPALPUR MODEL COLLEGE", "eiin": 113075, "inst_type": "College", "district": "NETRAKONA", "thana": "KENDUA", "mauza": "RAJIBPUR", "long": 90.78703, "lat": 24.72825, "serial": 1545, "isUnique": 1, "field_11": null }, "geometry": { "type": "Point", "coordinates": [ 90.78703, 24.72825 ] } },
{ "type": "Feature", "properties": { "inst_name": "GONDA COLLEGE", "eiin": 113077, "inst_type": "College", "district": "NETRAKONA", "thana": "KENDUA", "mauza": "GANDA", "long": 90.74119, "lat": 24.71469, "serial": 1546, "isUnique": 1, "field_11": null }, "geometry": { "type": "Point", "coordinates": [ 90.74119, 24.71469 ] } },
{ "type": "Feature", "properties": { "inst_name": "KALMA KANDA DEGREE COLLEGE", "eiin": 113025, "inst_type": "College", "district": "NETRAKONA", "thana": "KALMAKANDA", "mauza": "CHANDPUR", "long": 90.96047, "lat": 25.10061, "serial": 1547, "isUnique": 1, "field_11": null }, "geometry": { "type": "Point", "coordinates": [ 90.96047, 25.10061 ] } },
{ "type": "Feature", "properties": { "inst_name": "SUSANG COLLEGE", "eiin": 112975, "inst_type": "College", "district": "NETRAKONA", "thana": "DURGAPUR", "mauza": "SADHUPARA", "long": 90.72308, "lat": 25.14644, "serial": 1548, "isUnique": 1, "field_11": null }, "geometry": { "type": "Point", "coordinates": [ 90.72308, 25.14644 ] } },
{ "type": "Feature", "properties": { "inst_name": "DURGAOUR MOHALA COLLEGE", "eiin": 112974, "inst_type": "College", "district": "NETRAKONA", "thana": "DURGAPUR", "mauza": "SADHUPARA", "long": 90.68192, "lat": 25.12322, "serial": 1549, "isUnique": 1, "field_11": null }, "geometry": { "type": "Point", "coordinates": [ 90.68192, 25.12322 ] } },
{ "type": "Feature", "properties": { "inst_name": "BARHATTA COLLEGE", "eiin": 112938, "inst_type": "College", "district": "NETRAKONA", "thana": "BARHATTA", "mauza": "ISPINJARPUR", "long": 90.885, "lat": 24.89786, "serial": 1550, "isUnique": 1, "field_11": null }, "geometry": { "type": "Point", "coordinates": [ 90.885, 24.89786 ] } },
{ "type": "Feature", "properties": { "inst_name": "FAQuIR ASHRAF COLLEGE", "eiin": 131946, "inst_type": "College", "district": "NETRAKONA", "thana": "BARHATTA", "mauza": "CHALLISH KAHANIA", "long": 90.83469, "lat": 24.95497, "serial": 1551, "isUnique": 1, "field_11": null }, "geometry": { "type": "Point", "coordinates": [ 90.83469, 24.95497 ] } },
{ "type": "Feature", "properties": { "inst_name": "ATPARA COLLEGE", "eiin": 112912, "inst_type": "College", "district": "NETRAKONA", "thana": "ATPARA", "mauza": "MOBARAKPUR", "long": 90.86217, "lat": 24.80894, "serial": 1552, "isUnique": 1, "field_11": null }, "geometry": { "type": "Point", "coordinates": [ 90.86217, 24.80894 ] } },
{ "type": "Feature", "properties": { "inst_name": "TELIGATI DEGREE CILLAGE", "eiin": 112911, "inst_type": "College", "district": "NETRAKONA", "thana": "ATPARA", "mauza": "TELIGANTI", "long": 90.88397, "lat": 24.84769, "serial": 1553, "isUnique": 1, "field_11": null }, "geometry": { "type": "Point", "coordinates": [ 90.88397, 24.84769 ] } },
{ "type": "Feature", "properties": { "inst_name": "BAGRA   FAZIL   DEGREE   MADRASHA", "eiin": 113183, "inst_type": "Madrasha", "district": "NETRAKONA", "thana": "NETROKONA SADAR", "mauza": "CHALLISHA", "long": 89.64561, "lat": 23.25358, "serial": 7726, "isUnique": 1, "field_11": null }, "geometry": { "type": "Point", "coordinates": [ 89.64561, 23.25358 ] } },
{ "type": "Feature", "properties": { "inst_name": "PODUR KHANDA DHAKIL MADRASAH", "eiin": 113242, "inst_type": "Madrasha", "district": "NETRAKONA", "thana": "PURBADHALA", "mauza": "BERAIL", "long": 90.59303, "lat": 24.94808, "serial": 7729, "isUnique": 1, "field_11": null }, "geometry": { "type": "Point", "coordinates": [ 90.59303, 24.94808 ] } },
{ "type": "Feature", "properties": { "inst_name": "DHAKIN KAZLA ALHAZ MOULANA ABDUL WAHED KHAN DHAKIL MADRASAH", "eiin": 113246, "inst_type": "Madrasha", "district": "NETRAKONA", "thana": "PURBADHALA", "mauza": "DAKSHIN KAJLAPOTA", "long": 90.53969, "lat": 24.95544, "serial": 7730, "isUnique": 1, "field_11": null }, "geometry": { "type": "Point", "coordinates": [ 90.53969, 24.95544 ] } },
{ "type": "Feature", "properties": { "inst_name": "MATHANG   ISLAMIA   ALIM   MADRASHA", "eiin": 113240, "inst_type": "Madrasha", "district": "NETRAKONA", "thana": "PURBADHALA", "mauza": "MATHANG", "long": 90.64414, "lat": 24.79914, "serial": 7731, "isUnique": 1, "field_11": null }, "geometry": { "type": "Point", "coordinates": [ 90.64414, 24.79914 ] } },
{ "type": "Feature", "properties": { "inst_name": "MOHIMA RAHMANIA GULAM MOSTAFA DHAKIL MADRASAH", "eiin": 113241, "inst_type": "Madrasha", "district": "NETRAKONA", "thana": "PURBADHALA", "mauza": "MAHIMA", "long": 90.61097, "lat": 24.83436, "serial": 7732, "isUnique": 1, "field_11": null }, "geometry": { "type": "Point", "coordinates": [ 90.61097, 24.83436 ] } },
{ "type": "Feature", "properties": { "inst_name": "HIRANNO POTTY FAZIL MADRASAH", "eiin": 113238, "inst_type": "Madrasha", "district": "NETRAKONA", "thana": "PURBADHALA", "mauza": "HIRAN PATTI", "long": 90.56656, "lat": 25.01178, "serial": 7733, "isUnique": 1, "field_11": null }, "geometry": { "type": "Point", "coordinates": [ 90.56656, 25.01178 ] } },
{ "type": "Feature", "properties": { "inst_name": "KAPASIA DAKHIL MADRASHA", "eiin": 113236, "inst_type": "Madrasha", "district": "NETRAKONA", "thana": "PURBADHALA", "mauza": "KAPASHIA", "long": 90.55322, "lat": 25.03803, "serial": 7734, "isUnique": 1, "field_11": null }, "geometry": { "type": "Point", "coordinates": [ 90.55322, 25.03803 ] } },
{ "type": "Feature", "properties": { "inst_name": "ALIPUR ALIM MADRASAH", "eiin": 113239, "inst_type": "Madrasha", "district": "NETRAKONA", "thana": "PURBADHALA", "mauza": "ALIPUR", "long": 90.57483, "lat": 24.84481, "serial": 7737, "isUnique": 2, "field_11": null }, "geometry": { "type": "Point", "coordinates": [ 90.57483, 24.84481 ] } },
{ "type": "Feature", "properties": { "inst_name": "KUMUDGONJ AMINA MEMPRIAL GIRLS DAKHIL MADRASHA", "eiin": 113247, "inst_type": "Madrasha", "district": "NETRAKONA", "thana": "PURBADHALA", "mauza": "JALSUKA", "long": 90.60492, "lat": 24.99967, "serial": 7738, "isUnique": 1, "field_11": null }, "geometry": { "type": "Point", "coordinates": [ 90.60492, 24.99967 ] } },
{ "type": "Feature", "properties": { "inst_name": "NARANDIA DAKHIL MADRASAH", "eiin": 113235, "inst_type": "Madrasha", "district": "NETRAKONA", "thana": "PURBADHALA", "mauza": "KHAGURIA", "long": 90.56989, "lat": 25.02431, "serial": 7739, "isUnique": 1, "field_11": null }, "geometry": { "type": "Point", "coordinates": [ 90.56989, 25.02431 ] } },
{ "type": "Feature", "properties": { "inst_name": "TALIMAT-E-ISLAMIA DAKHIL MADRASHA", "eiin": 113243, "inst_type": "Madrasha", "district": "NETRAKONA", "thana": "PURBADHALA", "mauza": "SALDIGHA ROYNAGAR", "long": 90.584, "lat": 25.02753, "serial": 7740, "isUnique": 1, "field_11": null }, "geometry": { "type": "Point", "coordinates": [ 90.584, 25.02753 ] } },
{ "type": "Feature", "properties": { "inst_name": "SIDDIQUIA DAKHIL MADRASHA", "eiin": 113244, "inst_type": "Madrasha", "district": "NETRAKONA", "thana": "PURBADHALA", "mauza": "KALIHAR", "long": 90.57928, "lat": 24.84464, "serial": 7741, "isUnique": 1, "field_11": null }, "geometry": { "type": "Point", "coordinates": [ 90.57928, 24.84464 ] } },
{ "type": "Feature", "properties": { "inst_name": "BARHA JASMOTIA DAKHIL MADRASHA", "eiin": 113237, "inst_type": "Madrasha", "district": "NETRAKONA", "thana": "PURBADHALA", "mauza": "DEOTOKAN", "long": 90.53114, "lat": 24.98606, "serial": 7742, "isUnique": 1, "field_11": null }, "geometry": { "type": "Point", "coordinates": [ 90.53114, 24.98606 ] } },
{ "type": "Feature", "properties": { "inst_name": "DHARA DAKHIL MADRASHA", "eiin": 113234, "inst_type": "Madrasha", "district": "NETRAKONA", "thana": "PURBADHALA", "mauza": "DHARA", "long": 90.62794, "lat": 24.90131, "serial": 7743, "isUnique": 1, "field_11": null }, "geometry": { "type": "Point", "coordinates": [ 90.62794, 24.90131 ] } },
{ "type": "Feature", "properties": { "inst_name": "TATULIA AL HELAL DAKHIL MADRASHA", "eiin": 113060, "inst_type": "Madrasha", "district": "NETRAKONA", "thana": "KENDUA", "mauza": "GOBINDAPUR", "long": 90.61597, "lat": 24.86192, "serial": 7744, "isUnique": 1, "field_11": null }, "geometry": { "type": "Point", "coordinates": [ 90.61597, 24.86192 ] } },
{ "type": "Feature", "properties": { "inst_name": "LATIFA ABBAS MOHILA ALIM MADRASHA", "eiin": 113180, "inst_type": "Madrasha", "district": "NETRAKONA", "thana": "NETROKONA SADAR", "mauza": "BARHATTA ROAD PASHIM", "long": 90.73769, "lat": 24.88206, "serial": 7745, "isUnique": 1, "field_11": null }, "geometry": { "type": "Point", "coordinates": [ 90.73769, 24.88206 ] } },
{ "type": "Feature", "properties": { "inst_name": "N.   AKAND   KAMIL  MADRASHA", "eiin": 113181, "inst_type": "Madrasha", "district": "NETRAKONA", "thana": "NETROKONA SADAR", "mauza": "SATPAI TOWN", "long": 90.73194, "lat": 24.8805, "serial": 7746, "isUnique": 1, "field_11": null }, "geometry": { "type": "Point", "coordinates": [ 90.73194, 24.8805 ] } },
{ "type": "Feature", "properties": { "inst_name": "SHIBPROSADPUR DAKHIL MADRASHA", "eiin": 113185, "inst_type": "Madrasha", "district": "NETRAKONA", "thana": "NETROKONA SADAR", "mauza": "BISHWANATHPUR", "long": 90.73611, "lat": 24.87011, "serial": 7747, "isUnique": 1, "field_11": null }, "geometry": { "type": "Point", "coordinates": [ 90.73611, 24.87011 ] } },
{ "type": "Feature", "properties": { "inst_name": "DUGIA ABBASIA EMDADUL Ulum FAZIL (DEGREE)MADRASHA", "eiin": 113177, "inst_type": "Madrasha", "district": "NETRAKONA", "thana": "NETROKONA SADAR", "mauza": "SWALPA DUGIA", "long": 90.73297, "lat": 24.87153, "serial": 7748, "isUnique": 1, "field_11": null }, "geometry": { "type": "Point", "coordinates": [ 90.73297, 24.87153 ] } },
{ "type": "Feature", "properties": { "inst_name": "BALI MOHISHATI DAKHIL MADRASHA", "eiin": 113188, "inst_type": "Madrasha", "district": "NETRAKONA", "thana": "NETROKONA SADAR", "mauza": "DAKSHIN BISHIURA", "long": 90.67419, "lat": 24.83544, "serial": 7749, "isUnique": 1, "field_11": null }, "geometry": { "type": "Point", "coordinates": [ 90.67419, 24.83544 ] } },
{ "type": "Feature", "properties": { "inst_name": "KANDI   M .U  ALIM   MADRASHA", "eiin": 113178, "inst_type": "Madrasha", "district": "NETRAKONA", "thana": "NETROKONA SADAR", "mauza": "ANANTAPUR", "long": 90.71183, "lat": 24.81678, "serial": 7750, "isUnique": 1, "field_11": null }, "geometry": { "type": "Point", "coordinates": [ 90.71183, 24.81678 ] } },
{ "type": "Feature", "properties": { "inst_name": "MOUJEBALI SHOHIDIA ALIM MADRASHA", "eiin": 113190, "inst_type": "Madrasha", "district": "NETRAKONA", "thana": "NETROKONA SADAR", "mauza": "ANANTAPUR", "long": 90.69847, "lat": 24.81403, "serial": 7751, "isUnique": 1, "field_11": null }, "geometry": { "type": "Point", "coordinates": [ 90.69847, 24.81403 ] } },
{ "type": "Feature", "properties": { "inst_name": "PATLi MOHIUL  ULUM  DAKHIL MADRASHA", "eiin": 113189, "inst_type": "Madrasha", "district": "NETRAKONA", "thana": "NETROKONA SADAR", "mauza": "PATALI", "long": 90.71772, "lat": 24.83081, "serial": 7752, "isUnique": 1, "field_11": null }, "geometry": { "type": "Point", "coordinates": [ 90.71772, 24.83081 ] } },
{ "type": "Feature", "properties": { "inst_name": "LAKSHMIGANJ HANNANIA DAKHIL MADRASHA", "eiin": 113179, "inst_type": "Madrasha", "district": "NETRAKONA", "thana": "NETROKONA SADAR", "mauza": "LAKSHMIGANJ", "long": 90.73172, "lat": 24.86114, "serial": 7753, "isUnique": 1, "field_11": null }, "geometry": { "type": "Point", "coordinates": [ 90.73172, 24.86114 ] } },
{ "type": "Feature", "properties": { "inst_name": "MADANPUR SHAH SULTAN ALIM MADRASHA", "eiin": 113187, "inst_type": "Madrasha", "district": "NETRAKONA", "thana": "NETROKONA SADAR", "mauza": "MADANPUR", "long": 90.7405, "lat": 24.76889, "serial": 7754, "isUnique": 1, "field_11": null }, "geometry": { "type": "Point", "coordinates": [ 90.7405, 24.76889 ] } },
{ "type": "Feature", "properties": { "inst_name": "PASCHIM MEDNI DAKHIL MADRASHA", "eiin": 113191, "inst_type": "Madrasha", "district": "NETRAKONA", "thana": "NETROKONA SADAR", "mauza": "MEDNI", "long": 90.75156, "lat": 24.80508, "serial": 7755, "isUnique": 1, "field_11": null }, "geometry": { "type": "Point", "coordinates": [ 90.75156, 24.80508 ] } },
{ "type": "Feature", "properties": { "inst_name": "GORDI ISLAMIA DAKHIL MADRASHA", "eiin": 113182, "inst_type": "Madrasha", "district": "NETRAKONA", "thana": "NETROKONA SADAR", "mauza": "GARDI", "long": 90.77392, "lat": 24.79792, "serial": 7756, "isUnique": 1, "field_11": null }, "geometry": { "type": "Point", "coordinates": [ 90.77392, 24.79792 ] } },
{ "type": "Feature", "properties": { "inst_name": "NURPUR  BOALI  DAKHIL MADRASHA", "eiin": 112988, "inst_type": "Madrasha", "district": "NETRAKONA", "thana": "KHALIAJURI", "mauza": "NURPUR BOALI", "long": 90.70261, "lat": 24.91481, "serial": 7757, "isUnique": 1, "field_11": null }, "geometry": { "type": "Point", "coordinates": [ 90.70261, 24.91481 ] } },
{ "type": "Feature", "properties": { "inst_name": "MOHANGANJ DAKHIL MADRASHA", "eiin": 113128, "inst_type": "Madrasha", "district": "NETRAKONA", "thana": "MOHANGANJ", "mauza": "DEOTHAN", "long": 91.0445, "lat": 24.85306, "serial": 7758, "isUnique": 1, "field_11": null }, "geometry": { "type": "Point", "coordinates": [ 91.0445, 24.85306 ] } },
{ "type": "Feature", "properties": { "inst_name": "MAGHAN DAKHIL MADRASAH", "eiin": 113126, "inst_type": "Madrasha", "district": "NETRAKONA", "thana": "MOHANGANJ", "mauza": "MAGHAN", "long": 90.94939, "lat": 24.86619, "serial": 7759, "isUnique": 1, "field_11": null }, "geometry": { "type": "Point", "coordinates": [ 90.94939, 24.86619 ] } },
{ "type": "Feature", "properties": { "inst_name": "JAYPUR JAMILA TUL ULUM DAKHIL MADRASHA", "eiin": 113127, "inst_type": "Madrasha", "district": "NETRAKONA", "thana": "MOHANGANJ", "mauza": "NIHARA JOYPUR", "long": 91.09339, "lat": 24.82903, "serial": 7760, "isUnique": 1, "field_11": null }, "geometry": { "type": "Point", "coordinates": [ 91.09339, 24.82903 ] } },
{ "type": "Feature", "properties": { "inst_name": "JAHANGIRPUR ISLAMIA ALIM MADRASAH", "eiin": 113101, "inst_type": "Madrasha", "district": "NETRAKONA", "thana": "MADAN", "mauza": "DAKSHIN JAHANGIRPUR", "long": 90.94633, "lat": 24.78439, "serial": 7761, "isUnique": 1, "field_11": null }, "geometry": { "type": "Point", "coordinates": [ 90.94633, 24.78439 ] } },
{ "type": "Feature", "properties": { "inst_name": "GOBINDASREE DARUL LILUM DAKIHIL MADRASAH", "eiin": 113099, "inst_type": "Madrasha", "district": "NETRAKONA", "thana": "MADAN", "mauza": "GOBINDASREE", "long": 90.94739, "lat": 24.72336, "serial": 7762, "isUnique": 1, "field_11": null }, "geometry": { "type": "Point", "coordinates": [ 90.94739, 24.72336 ] } },
{ "type": "Feature", "properties": { "inst_name": "KADAM SREE DAKHIL MADRASAH", "eiin": 113097, "inst_type": "Madrasha", "district": "NETRAKONA", "thana": "MADAN", "mauza": "PADAMSREE", "long": 90.94689, "lat": 24.71364, "serial": 7763, "isUnique": 1, "field_11": null }, "geometry": { "type": "Point", "coordinates": [ 90.94689, 24.71364 ] } },
{ "type": "Feature", "properties": { "inst_name": "HASAN ALI DAKHIL MADRASHA", "eiin": 113103, "inst_type": "Madrasha", "district": "NETRAKONA", "thana": "MADAN", "mauza": "CHANDGAON", "long": 90.95144, "lat": 24.62442, "serial": 7764, "isUnique": 1, "field_11": null }, "geometry": { "type": "Point", "coordinates": [ 90.95144, 24.62442 ] } },
{ "type": "Feature", "properties": { "inst_name": "ALHAJ MOZAFFAR AHMED ALIM MADRASAH", "eiin": 113100, "inst_type": "Madrasha", "district": "NETRAKONA", "thana": "MADAN", "mauza": "IMDADPUR", "long": 90.94372, "lat": 24.71697, "serial": 7765, "isUnique": 1, "field_11": null }, "geometry": { "type": "Point", "coordinates": [ 90.94372, 24.71697 ] } },
{ "type": "Feature", "properties": { "inst_name": "NOAGAON DAKHIL MADRASAH", "eiin": 113098, "inst_type": "Madrasha", "district": "NETRAKONA", "thana": "MADAN", "mauza": "RAJ DEOTALA", "long": 90.96058, "lat": 24.71619, "serial": 7766, "isUnique": 1, "field_11": null }, "geometry": { "type": "Point", "coordinates": [ 90.96058, 24.71619 ] } },
{ "type": "Feature", "properties": { "inst_name": "BALALI BAGHMARA KHANDAKAR ABDUR RAZZAK DAKHIL MADRASHA", "eiin": 113102, "inst_type": "Madrasha", "district": "NETRAKONA", "thana": "MADAN", "mauza": "BALALI", "long": 90.92075, "lat": 24.64878, "serial": 7767, "isUnique": 1, "field_11": null }, "geometry": { "type": "Point", "coordinates": [ 90.92075, 24.64878 ] } },
{ "type": "Feature", "properties": { "inst_name": "BASTA ISLIMIA DAKHIL MADRASHA", "eiin": 113096, "inst_type": "Madrasha", "district": "NETRAKONA", "thana": "MADAN", "mauza": "BASTA", "long": 90.92153, "lat": 24.64836, "serial": 7768, "isUnique": 1, "field_11": null }, "geometry": { "type": "Point", "coordinates": [ 90.92153, 24.64836 ] } },
{ "type": "Feature", "properties": { "inst_name": "PANCHHAT DKAHIL MADRASAH", "eiin": 110341, "inst_type": "Madrasha", "district": "NETRAKONA", "thana": "KHALIAJURI", "mauza": "PANCHHAT", "long": 90.97058, "lat": 24.64475, "serial": 7769, "isUnique": 1, "field_11": null }, "geometry": { "type": "Point", "coordinates": [ 90.97058, 24.64475 ] } },
{ "type": "Feature", "properties": { "inst_name": "KRISHNAPUR DARUL ULUM ISLAMIA ALIM MADRASHA", "eiin": 112987, "inst_type": "Madrasha", "district": "NETRAKONA", "thana": "KHALIAJURI", "mauza": "KRISHNAPUR", "long": 91.14122, "lat": 24.6915, "serial": 7770, "isUnique": 1, "field_11": null }, "geometry": { "type": "Point", "coordinates": [ 91.14122, 24.6915 ] } },
{ "type": "Feature", "properties": { "inst_name": "KENDUA ASRAFIA HOSSAINIA DAKHIL MADRASHA", "eiin": 113068, "inst_type": "Madrasha", "district": "NETRAKONA", "thana": "KENDUA", "mauza": "KENDUA BAZAR", "long": 90.83633, "lat": 24.65756, "serial": 7771, "isUnique": 1, "field_11": null }, "geometry": { "type": "Point", "coordinates": [ 90.83633, 24.65756 ] } },
{ "type": "Feature", "properties": { "inst_name": "SHIBPUR BAWSHARI DAKHIL MADRASHA", "eiin": 113073, "inst_type": "Madrasha", "district": "NETRAKONA", "thana": "KENDUA", "mauza": "SHIBPUR", "long": 90.76303, "lat": 24.74217, "serial": 7772, "isUnique": 1, "field_11": null }, "geometry": { "type": "Point", "coordinates": [ 90.76303, 24.74217 ] } },
{ "type": "Feature", "properties": { "inst_name": "ALHAZ ATIQUE AMBIA DAKHIL MADRASHA", "eiin": 113074, "inst_type": "Madrasha", "district": "NETRAKONA", "thana": "KENDUA", "mauza": "BATTA", "long": 90.82136, "lat": 24.75158, "serial": 7773, "isUnique": 1, "field_11": null }, "geometry": { "type": "Point", "coordinates": [ 90.82136, 24.75158 ] } },
{ "type": "Feature", "properties": { "inst_name": "RAJGHAT D U ALIM MADRASAH", "eiin": 113064, "inst_type": "Madrasha", "district": "NETRAKONA", "thana": "KENDUA", "mauza": "RAMJIBANPUR", "long": 90.87842, "lat": 24.65528, "serial": 7774, "isUnique": 1, "field_11": null }, "geometry": { "type": "Point", "coordinates": [ 90.87842, 24.65528 ] } },
{ "type": "Feature", "properties": { "inst_name": "BHARA PARA FAZIL MADRASAH", "eiin": 113059, "inst_type": "Madrasha", "district": "NETRAKONA", "thana": "KENDUA", "mauza": "BHARA", "long": 90.74356, "lat": 24.74081, "serial": 7775, "isUnique": 1, "field_11": null }, "geometry": { "type": "Point", "coordinates": [ 90.74356, 24.74081 ] } },
{ "type": "Feature", "properties": { "inst_name": "WAi HAFIZIA DHAKIL MADRASHA", "eiin": 113072, "inst_type": "Madrasha", "district": "NETRAKONA", "thana": "KENDUA", "mauza": "WAI", "long": 90.72731, "lat": 24.75508, "serial": 7776, "isUnique": 1, "field_11": null }, "geometry": { "type": "Point", "coordinates": [ 90.72731, 24.75508 ] } },
{ "type": "Feature", "properties": { "inst_name": "GONDA ISLAMIA  FAZIL MADRASHA", "eiin": 113061, "inst_type": "Madrasha", "district": "NETRAKONA", "thana": "KENDUA", "mauza": "GANDA", "long": 90.71233, "lat": 24.70283, "serial": 7777, "isUnique": 1, "field_11": null }, "geometry": { "type": "Point", "coordinates": [ 90.71233, 24.70283 ] } },
{ "type": "Feature", "properties": { "inst_name": "MONKANDa M. U. ALIM MADRASAh", "eiin": 113062, "inst_type": "Madrasha", "district": "NETRAKONA", "thana": "KENDUA", "mauza": "PAHARPUR", "long": 90.76453, "lat": 24.69317, "serial": 7778, "isUnique": 1, "field_11": null }, "geometry": { "type": "Point", "coordinates": [ 90.76453, 24.69317 ] } },
{ "type": "Feature", "properties": { "inst_name": "DIGHLI MACHIALI DAKHIL MADRASHA", "eiin": 113065, "inst_type": "Madrasha", "district": "NETRAKONA", "thana": "KENDUA", "mauza": "MACHIALI DIGAR", "long": 90.71067, "lat": 24.67642, "serial": 7779, "isUnique": 1, "field_11": null }, "geometry": { "type": "Point", "coordinates": [ 90.71067, 24.67642 ] } },
{ "type": "Feature", "properties": { "inst_name": "RAIPUR PIZAHATI DAKHIL MADRASHA", "eiin": 113063, "inst_type": "Madrasha", "district": "NETRAKONA", "thana": "KENDUA", "mauza": "ROYPUR", "long": 90.70911, "lat": 24.67633, "serial": 7780, "isUnique": 1, "field_11": null }, "geometry": { "type": "Point", "coordinates": [ 90.70911, 24.67633 ] } },
{ "type": "Feature", "properties": { "inst_name": "GOGDA MUZAFARPUR DAKHIL MADRASHA", "eiin": 113071, "inst_type": "Madrasha", "district": "NETRAKONA", "thana": "KENDUA", "mauza": "MUZAFFARPUR", "long": 90.79753, "lat": 24.67014, "serial": 7781, "isUnique": 1, "field_11": null }, "geometry": { "type": "Point", "coordinates": [ 90.79753, 24.67014 ] } },
{ "type": "Feature", "properties": { "inst_name": "KOWRAT DAKHIL ADRASHA", "eiin": 113067, "inst_type": "Madrasha", "district": "NETRAKONA", "thana": "KENDUA", "mauza": "NAOPARA", "long": 90.811, "lat": 24.65522, "serial": 7782, "isUnique": 1, "field_11": null }, "geometry": { "type": "Point", "coordinates": [ 90.811, 24.65522 ] } },
{ "type": "Feature", "properties": { "inst_name": "DULLY BAIRATI E U DAKHIL MADRASHA", "eiin": 113069, "inst_type": "Madrasha", "district": "NETRAKONA", "thana": "KENDUA", "mauza": "BAIRAIT", "long": 90.89833, "lat": 24.60186, "serial": 7783, "isUnique": 1, "field_11": null }, "geometry": { "type": "Point", "coordinates": [ 90.89833, 24.60186 ] } },
{ "type": "Feature", "properties": { "inst_name": "KAILATI FATEPUR DAKHIL MADRASHA", "eiin": 113070, "inst_type": "Madrasha", "district": "NETRAKONA", "thana": "KENDUA", "mauza": "KAILATI RAMCHANDRAPUR", "long": 90.87931, "lat": 24.60806, "serial": 7784, "isUnique": 1, "field_11": null }, "geometry": { "type": "Point", "coordinates": [ 90.87931, 24.60806 ] } },
{ "type": "Feature", "properties": { "inst_name": "ROYALBARI FAZIL MADRASA", "eiin": 113058, "inst_type": "Madrasha", "district": "NETRAKONA", "thana": "KENDUA", "mauza": "ROAILBARI", "long": 90.83053, "lat": 24.69625, "serial": 7785, "isUnique": 1, "field_11": null }, "geometry": { "type": "Point", "coordinates": [ 90.83053, 24.69625 ] } },
{ "type": "Feature", "properties": { "inst_name": "RANGSATI  DAKHIL  MADRASah", "eiin": 113017, "inst_type": "Madrasha", "district": "NETRAKONA", "thana": "KALMAKANDA", "mauza": "RANGCHHATI", "long": 90.76786, "lat": 24.63683, "serial": 7786, "isUnique": 1, "field_11": null }, "geometry": { "type": "Point", "coordinates": [ 90.76786, 24.63683 ] } },
{ "type": "Feature", "properties": { "inst_name": "HILFUL FUZUL DAKDIL MADRASHA", "eiin": 113024, "inst_type": "Madrasha", "district": "NETRAKONA", "thana": "KALMAKANDA", "mauza": "SELER KAKURIA", "long": 90.90297, "lat": 25.01242, "serial": 7787, "isUnique": 1, "field_11": null }, "geometry": { "type": "Point", "coordinates": [ 90.90297, 25.01242 ] } },
{ "type": "Feature", "properties": { "inst_name": "KALMAKANDA AL JAMIATUL ISLAMIA ALIM MADRASAH", "eiin": 113021, "inst_type": "Madrasha", "district": "NETRAKONA", "thana": "KALMAKANDA", "mauza": "CHANDPUR", "long": 90.76692, "lat": 25.01406, "serial": 7788, "isUnique": 2, "field_11": null }, "geometry": { "type": "Point", "coordinates": [ 90.76692, 25.01406 ] } },
{ "type": "Feature", "properties": { "inst_name": "BISHNAPUR MOHshiNIA DAKHIL MADRASAH", "eiin": 113018, "inst_type": "Madrasha", "district": "NETRAKONA", "thana": "KALMAKANDA", "mauza": "LAKSHMIPUR", "long": 90.88489, "lat": 25.08189, "serial": 7789, "isUnique": 1, "field_11": null }, "geometry": { "type": "Point", "coordinates": [ 90.88489, 25.08189 ] } },
{ "type": "Feature", "properties": { "inst_name": "GOBINDAPUR MOHAMMADIA DAKHIL MADRASHA", "eiin": 113019, "inst_type": "Madrasha", "district": "NETRAKONA", "thana": "KALMAKANDA", "mauza": "HAT GOBINDAPUR", "long": 90.89397, "lat": 25.08361, "serial": 7790, "isUnique": 1, "field_11": null }, "geometry": { "type": "Point", "coordinates": [ 90.89397, 25.08361 ] } },
{ "type": "Feature", "properties": { "inst_name": "ANANDAPUR ALIM MADRASHA", "eiin": 113015, "inst_type": "Madrasha", "district": "NETRAKONA", "thana": "KALMAKANDA", "mauza": "ANANDAPUR", "long": 90.77611, "lat": 25.06006, "serial": 7791, "isUnique": 1, "field_11": null }, "geometry": { "type": "Point", "coordinates": [ 90.77611, 25.06006 ] } },
{ "type": "Feature", "properties": { "inst_name": "FAKIR CHANDUAIL MOhammadia.DARUSSUNNAH DAKHIL MADRASaH", "eiin": 113023, "inst_type": "Madrasha", "district": "NETRAKONA", "thana": "KALMAKANDA", "mauza": "FAKIR CHANDUAIL", "long": 90.79878, "lat": 25.13478, "serial": 7792, "isUnique": 1, "field_11": null }, "geometry": { "type": "Point", "coordinates": [ 90.79878, 25.13478 ] } },
{ "type": "Feature", "properties": { "inst_name": "SHIBNAGAR KANDAPARA DAKHIL MARASAH", "eiin": 113014, "inst_type": "Madrasha", "district": "NETRAKONA", "thana": "KALMAKANDA", "mauza": "UTTAR KANDAR PARA", "long": 90.80011, "lat": 25.12756, "serial": 7793, "isUnique": 1, "field_11": null }, "geometry": { "type": "Point", "coordinates": [ 90.80011, 25.12756 ] } },
{ "type": "Feature", "properties": { "inst_name": "RAHIMPUR M d s  DAKHIL  MADRASHA", "eiin": 113016, "inst_type": "Madrasha", "district": "NETRAKONA", "thana": "KALMAKANDA", "mauza": "RAHIMPUR", "long": 90.78836, "lat": 25.10111, "serial": 7794, "isUnique": 1, "field_11": null }, "geometry": { "type": "Point", "coordinates": [ 90.78836, 25.10111 ] } },
{ "type": "Feature", "properties": { "inst_name": "P.G. DARUS SALAM DAKAHIL MADRASAHA", "eiin": 113022, "inst_type": "Madrasha", "district": "NETRAKONA", "thana": "KALMAKANDA", "mauza": "GUTURA", "long": 90.82097, "lat": 25.06586, "serial": 7795, "isUnique": 1, "field_11": null }, "geometry": { "type": "Point", "coordinates": [ 90.82097, 25.06586 ] } },
{ "type": "Feature", "properties": { "inst_name": "RAMNATHPUR D.S. DAKHIL MADRASHA", "eiin": 113020, "inst_type": "Madrasha", "district": "NETRAKONA", "thana": "KALMAKANDA", "mauza": "POGLA", "long": 90.77419, "lat": 25.06003, "serial": 7796, "isUnique": 1, "field_11": null }, "geometry": { "type": "Point", "coordinates": [ 90.77419, 25.06003 ] } },
{ "type": "Feature", "properties": { "inst_name": "DURGAPUR DINI  alim MADRASHA", "eiin": 112973, "inst_type": "Madrasha", "district": "NETRAKONA", "thana": "DURGAPUR", "mauza": "SADHUPARA", "long": 90.88389, "lat": 25.01683, "serial": 7797, "isUnique": 1, "field_11": null }, "geometry": { "type": "Point", "coordinates": [ 90.88389, 25.01683 ] } },
{ "type": "Feature", "properties": { "inst_name": "FULPUR ISLAMIA  ALIM MADRASAH", "eiin": 112972, "inst_type": "Madrasha", "district": "NETRAKONA", "thana": "DURGAPUR", "mauza": "PHULPUR", "long": 90.69639, "lat": 25.10183, "serial": 7798, "isUnique": 1, "field_11": null }, "geometry": { "type": "Point", "coordinates": [ 90.69639, 25.10183 ] } },
{ "type": "Feature", "properties": { "inst_name": "MADHUAKONA A. U. alim MADRASAH", "eiin": 112971, "inst_type": "Madrasha", "district": "NETRAKONA", "thana": "DURGAPUR", "mauza": "PHULPUR", "long": 90.73878, "lat": 25.07925, "serial": 7799, "isUnique": 1, "field_11": null }, "geometry": { "type": "Point", "coordinates": [ 90.73878, 25.07925 ] } },
{ "type": "Feature", "properties": { "inst_name": "KAILATY F U (SR) FAZIL MADRASAH", "eiin": 112934, "inst_type": "Madrasha", "district": "NETRAKONA", "thana": "BARHATTA", "mauza": "CHHOTA KAILATI", "long": 90.88922, "lat": 24.9, "serial": 7801, "isUnique": 1, "field_11": null }, "geometry": { "type": "Point", "coordinates": [ 90.88922, 24.9 ] } },
{ "type": "Feature", "properties": { "inst_name": "MONASH K.B. FAZIL MADRASA", "eiin": 112931, "inst_type": "Madrasha", "district": "NETRAKONA", "thana": "BARHATTA", "mauza": "MANAS", "long": 90.93097, "lat": 24.8975, "serial": 7802, "isUnique": 1, "field_11": null }, "geometry": { "type": "Point", "coordinates": [ 90.93097, 24.8975 ] } },
{ "type": "Feature", "properties": { "inst_name": "BARHATTA A K KHAN DAKHIL MADRASHA", "eiin": 112936, "inst_type": "Madrasha", "district": "NETRAKONA", "thana": "BARHATTA", "mauza": "ISPINJARPUR", "long": 90.87811, "lat": 24.89506, "serial": 7803, "isUnique": 1, "field_11": null }, "geometry": { "type": "Point", "coordinates": [ 90.87811, 24.89506 ] } },
{ "type": "Feature", "properties": { "inst_name": "YATIMKHANA JANNATUL ULUM DAKHIL MADRASHA", "eiin": 112935, "inst_type": "Madrasha", "district": "NETRAKONA", "thana": "BARHATTA", "mauza": "GORAUND", "long": 90.88228, "lat": 24.89961, "serial": 7804, "isUnique": 1, "field_11": null }, "geometry": { "type": "Point", "coordinates": [ 90.88228, 24.89961 ] } },
{ "type": "Feature", "properties": { "inst_name": "BAUSHI MOGUL UDDIN DAKHIL MADRASHA", "eiin": 112937, "inst_type": "Madrasha", "district": "NETRAKONA", "thana": "BARHATTA", "mauza": "SUSANG DAHAR PARA", "long": 90.8885, "lat": 24.86197, "serial": 7805, "isUnique": 1, "field_11": null }, "geometry": { "type": "Point", "coordinates": [ 90.8885, 24.86197 ] } },
{ "type": "Feature", "properties": { "inst_name": "DASHDHAR MISBAHUL ULUM DAKHIL MADRASah", "eiin": 112932, "inst_type": "Madrasha", "district": "NETRAKONA", "thana": "BARHATTA", "mauza": "DASDHAR", "long": 90.87644, "lat": 24.90003, "serial": 7806, "isUnique": 1, "field_11": null }, "geometry": { "type": "Point", "coordinates": [ 90.87644, 24.90003 ] } },
{ "type": "Feature", "properties": { "inst_name": "NOIHTI BALAM KONAPARA DAKHIL MADRASHA", "eiin": 112930, "inst_type": "Madrasha", "district": "NETRAKONA", "thana": "BARHATTA", "mauza": "NAIHATI", "long": 90.87747, "lat": 24.89492, "serial": 7807, "isUnique": 1, "field_11": null }, "geometry": { "type": "Point", "coordinates": [ 90.87747, 24.89492 ] } },
{ "type": "Feature", "properties": { "inst_name": "TILSINDUR O S DAKHIL MADRASHA", "eiin": 112933, "inst_type": "Madrasha", "district": "NETRAKONA", "thana": "BARHATTA", "mauza": "TILSINDUR", "long": 90.83556, "lat": 24.94236, "serial": 7808, "isUnique": 1, "field_11": null }, "geometry": { "type": "Point", "coordinates": [ 90.83556, 24.94236 ] } },
{ "type": "Feature", "properties": { "inst_name": "SIRAJAM MuNIRA DAKHIL MADRASHA", "eiin": 112910, "inst_type": "Madrasha", "district": "NETRAKONA", "thana": "ATPARA", "mauza": "BANIAJAN", "long": 90.85414, "lat": 24.96997, "serial": 7809, "isUnique": 1, "field_11": null }, "geometry": { "type": "Point", "coordinates": [ 90.85414, 24.96997 ] } },
{ "type": "Feature", "properties": { "inst_name": "CHAYASHI M.A.I DAKHIL MADRASHA", "eiin": 112906, "inst_type": "Madrasha", "district": "NETRAKONA", "thana": "ATPARA", "mauza": "CHHAYASI", "long": 90.86153, "lat": 24.75892, "serial": 7810, "isUnique": 1, "field_11": null }, "geometry": { "type": "Point", "coordinates": [ 90.86153, 24.75892 ] } },
{ "type": "Feature", "properties": { "inst_name": "SHORMOSHIA ALIM  MADRASHA", "eiin": 112909, "inst_type": "Madrasha", "district": "NETRAKONA", "thana": "ATPARA", "mauza": "SARMAISA", "long": 90.90158, "lat": 24.81347, "serial": 7811, "isUnique": 1, "field_11": null }, "geometry": { "type": "Point", "coordinates": [ 90.90158, 24.81347 ] } },
{ "type": "Feature", "properties": { "inst_name": "SUKHARI BAZAR ISLAMIA DAKHIL MADRASAH", "eiin": 112908, "inst_type": "Madrasha", "district": "NETRAKONA", "thana": "ATPARA", "mauza": "DAKSHIN SUKHARI (PART)", "long": 90.81339, "lat": 24.81644, "serial": 7812, "isUnique": 1, "field_11": null }, "geometry": { "type": "Point", "coordinates": [ 90.81339, 24.81644 ] } },
{ "type": "Feature", "properties": { "inst_name": "BALIKANDI JAMIA ISLAMIA  DAKHIL MADRASHA", "eiin": 112907, "inst_type": "Madrasha", "district": "NETRAKONA", "thana": "ATPARA", "mauza": "TELIGANTI", "long": 90.85583, "lat": 24.83644, "serial": 7813, "isUnique": 1, "field_11": null }, "geometry": { "type": "Point", "coordinates": [ 90.85583, 24.83644 ] } },
{ "type": "Feature", "properties": { "inst_name": "KHALUA DAKHIL MADRASAH", "eiin": 113125, "inst_type": "Madrasha", "district": "NETRAKONA", "thana": "MOHANGANJ", "mauza": "KHALUA MALLIKNAGAR", "long": 90.82053, "lat": 24.76856, "serial": 7814, "isUnique": 1, "field_11": null }, "geometry": { "type": "Point", "coordinates": [ 90.82053, 24.76856 ] } },
{ "type": "Feature", "properties": { "inst_name": "SHNKAR PUR ADARSHA JOUNIOR SCHOOL", "eiin": 112968, "inst_type": "School", "district": "NETRAKONA", "thana": "DURGAPUR", "mauza": "DAKSHIN SANKARPUR", "long": 89.62792, "lat": 23.33597, "serial": 20571, "isUnique": 1, "field_11": null }, "geometry": { "type": "Point", "coordinates": [ 89.62792, 23.33597 ] } },
{ "type": "Feature", "properties": { "inst_name": "PURBADHALA  J.M MODEL PILOT HIGH SCHOOL", "eiin": 113198, "inst_type": "School", "district": "NETRAKONA", "thana": "PURBADHALA", "mauza": "PURBADHALA", "long": 89.71461, "lat": 23.23678, "serial": 20572, "isUnique": 1, "field_11": null }, "geometry": { "type": "Point", "coordinates": [ 89.71461, 23.23678 ] } },
{ "type": "Feature", "properties": { "inst_name": "PURBADHALA GIRLS HIGH SCHOOL", "eiin": 113215, "inst_type": "School", "district": "NETRAKONA", "thana": "PURBADHALA", "mauza": "PURBADHALA", "long": 89.64042, "lat": 23.37589, "serial": 20573, "isUnique": 1, "field_11": null }, "geometry": { "type": "Point", "coordinates": [ 89.64042, 23.37589 ] } },
{ "type": "Feature", "properties": { "inst_name": "RAGEEB MAJIB HIGH SCHOOL", "eiin": 113229, "inst_type": "School", "district": "NETRAKONA", "thana": "PURBADHALA", "mauza": "NARAYANDAHAR", "long": 90.60044, "lat": 24.94656, "serial": 20575, "isUnique": 1, "field_11": null }, "geometry": { "type": "Point", "coordinates": [ 90.60044, 24.94656 ] } },
{ "type": "Feature", "properties": { "inst_name": "AGIA HIGH SCHOOL", "eiin": 113212, "inst_type": "School", "district": "NETRAKONA", "thana": "PURBADHALA", "mauza": "AGIA", "long": 90.60353, "lat": 24.95403, "serial": 20576, "isUnique": 2, "field_11": null }, "geometry": { "type": "Point", "coordinates": [ 90.60353, 24.95403 ] } },
{ "type": "Feature", "properties": { "inst_name": "SATYATI BERAIL AKTER KHAN HIGH SCHOOL", "eiin": 113221, "inst_type": "School", "district": "NETRAKONA", "thana": "PURBADHALA", "mauza": "SATYATI", "long": 90.603, "lat": 24.93867, "serial": 20577, "isUnique": 2, "field_11": null }, "geometry": { "type": "Point", "coordinates": [ 90.603, 24.93867 ] } },
{ "type": "Feature", "properties": { "inst_name": " BAINJA HIGH SCHOOL", "eiin": 113206, "inst_type": "School", "district": "NETRAKONA", "thana": "PURBADHALA", "mauza": "BAINJA", "long": 90.64603, "lat": 24.93078, "serial": 20578, "isUnique": 1, "field_11": null }, "geometry": { "type": "Point", "coordinates": [ 90.64603, 24.93078 ] } },
{ "type": "Feature", "properties": { "inst_name": "BARARIA HIGH SCHOOL", "eiin": 113197, "inst_type": "School", "district": "NETRAKONA", "thana": "PURBADHALA", "mauza": "KATAKHALI", "long": 90.549, "lat": 24.95111, "serial": 20579, "isUnique": 1, "field_11": null }, "geometry": { "type": "Point", "coordinates": [ 90.549, 24.95111 ] } },
{ "type": "Feature", "properties": { "inst_name": "NABI HOSSAIN KHAN HIGH SCHOOL", "eiin": 130860, "inst_type": "School", "district": "NETRAKONA", "thana": "PURBADHALA", "mauza": "DAKSHIN KAJLAPOTA", "long": 90.578, "lat": 24.96658, "serial": 20580, "isUnique": 1, "field_11": null }, "geometry": { "type": "Point", "coordinates": [ 90.578, 24.96658 ] } },
{ "type": "Feature", "properties": { "inst_name": "TANUA HIGH SCHOOL", "eiin": 113216, "inst_type": "School", "district": "NETRAKONA", "thana": "PURBADHALA", "mauza": "TENUA", "long": 90.58739, "lat": 24.97947, "serial": 20581, "isUnique": 1, "field_11": null }, "geometry": { "type": "Point", "coordinates": [ 90.58739, 24.97947 ] } },
{ "type": "Feature", "properties": { "inst_name": "BADE PUTIKA HIGH SCHOL", "eiin": 113211, "inst_type": "School", "district": "NETRAKONA", "thana": "PURBADHALA", "mauza": "BADE PUTIKA", "long": 90.60736, "lat": 24.82028, "serial": 20582, "isUnique": 1, "field_11": null }, "geometry": { "type": "Point", "coordinates": [ 90.60736, 24.82028 ] } },
{ "type": "Feature", "properties": { "inst_name": "BISHOMPUR JUNIOR HIGH SCHOOL", "eiin": 113226, "inst_type": "School", "district": "NETRAKONA", "thana": "PURBADHALA", "mauza": "BISHAMPUR", "long": 90.65094, "lat": 24.82872, "serial": 20583, "isUnique": 1, "field_11": null }, "geometry": { "type": "Point", "coordinates": [ 90.65094, 24.82872 ] } },
{ "type": "Feature", "properties": { "inst_name": "DR. MOHAMMAD ALI HIGH SCHOOL", "eiin": 113219, "inst_type": "School", "district": "NETRAKONA", "thana": "PURBADHALA", "mauza": "DALDALA", "long": 90.61047, "lat": 24.82397, "serial": 20584, "isUnique": 1, "field_11": null }, "geometry": { "type": "Point", "coordinates": [ 90.61047, 24.82397 ] } },
{ "type": "Feature", "properties": { "inst_name": "SHAHID SMRITY HIGH SCHOOL", "eiin": 113228, "inst_type": "School", "district": "NETRAKONA", "thana": "PURBADHALA", "mauza": "RAMPUR KACHIAKANDA", "long": 90.64839, "lat": 24.81894, "serial": 20585, "isUnique": 1, "field_11": null }, "geometry": { "type": "Point", "coordinates": [ 90.64839, 24.81894 ] } },
{ "type": "Feature", "properties": { "inst_name": "SHARISHTALA HIGH SCHOOL", "eiin": 113224, "inst_type": "School", "district": "NETRAKONA", "thana": "PURBADHALA", "mauza": "SARISHTALA", "long": 90.62417, "lat": 24.80419, "serial": 20586, "isUnique": 1, "field_11": null }, "geometry": { "type": "Point", "coordinates": [ 90.62417, 24.80419 ] } },
{ "type": "Feature", "properties": { "inst_name": "DHALAMULGAON HIGH SCHOOL", "eiin": 113205, "inst_type": "School", "district": "NETRAKONA", "thana": "PURBADHALA", "mauza": "DHALA MULGAON", "long": 90.54944, "lat": 24.91106, "serial": 20587, "isUnique": 1, "field_11": null }, "geometry": { "type": "Point", "coordinates": [ 90.54944, 24.91106 ] } },
{ "type": "Feature", "properties": { "inst_name": "SHALTHI HIGH SCHOOL", "eiin": 113208, "inst_type": "School", "district": "NETRAKONA", "thana": "PURBADHALA", "mauza": "SALTHI GHAGRA PARA", "long": 90.54669, "lat": 24.92525, "serial": 20588, "isUnique": 1, "field_11": null }, "geometry": { "type": "Point", "coordinates": [ 90.54669, 24.92525 ] } },
{ "type": "Feature", "properties": { "inst_name": "DUDHI JUNIOR HIGH SCHOOL", "eiin": 113230, "inst_type": "School", "district": "NETRAKONA", "thana": "PURBADHALA", "mauza": "DUDHI", "long": 90.63386, "lat": 24.97414, "serial": 20589, "isUnique": 1, "field_11": null }, "geometry": { "type": "Point", "coordinates": [ 90.63386, 24.97414 ] } },
{ "type": "Feature", "properties": { "inst_name": "GHAGRA BILATERAL HIGH SCHOOL", "eiin": 113199, "inst_type": "School", "district": "NETRAKONA", "thana": "PURBADHALA", "mauza": "GHAGRA", "long": 90.59236, "lat": 24.90689, "serial": 20590, "isUnique": 1, "field_11": null }, "geometry": { "type": "Point", "coordinates": [ 90.59236, 24.90689 ] } },
{ "type": "Feature", "properties": { "inst_name": "KAPASIA HIGH SCHOOL", "eiin": 113223, "inst_type": "School", "district": "NETRAKONA", "thana": "PURBADHALA", "mauza": "KAPASHIA", "long": 90.55308, "lat": 24.88772, "serial": 20591, "isUnique": 1, "field_11": null }, "geometry": { "type": "Point", "coordinates": [ 90.55308, 24.88772 ] } },
{ "type": "Feature", "properties": { "inst_name": "MEGH SHIMUL HIGH SCHOOL", "eiin": 113209, "inst_type": "School", "district": "NETRAKONA", "thana": "PURBADHALA", "mauza": "MEGH SHIMUL", "long": 90.70172, "lat": 24.98333, "serial": 20592, "isUnique": 1, "field_11": null }, "geometry": { "type": "Point", "coordinates": [ 90.70172, 24.98333 ] } },
{ "type": "Feature", "properties": { "inst_name": "RAMKANDA HIGH SCHOOL", "eiin": 113220, "inst_type": "School", "district": "NETRAKONA", "thana": "PURBADHALA", "mauza": "MEGH SHIMUL", "long": 90.66872, "lat": 24.96019, "serial": 20593, "isUnique": 1, "field_11": null }, "geometry": { "type": "Point", "coordinates": [ 90.66872, 24.96019 ] } },
{ "type": "Feature", "properties": { "inst_name": "JALSUKA KUMUD GANJ HIGH SCHOOL", "eiin": 113204, "inst_type": "School", "district": "NETRAKONA", "thana": "PURBADHALA", "mauza": "JALSUKA", "long": 90.58542, "lat": 25.02219, "serial": 20594, "isUnique": 1, "field_11": null }, "geometry": { "type": "Point", "coordinates": [ 90.58542, 25.02219 ] } },
{ "type": "Feature", "properties": { "inst_name": "SADHUPARA HIGH SCHOOL", "eiin": 113203, "inst_type": "School", "district": "NETRAKONA", "thana": "PURBADHALA", "mauza": "HOGLA", "long": 90.59086, "lat": 24.85806, "serial": 20597, "isUnique": 1, "field_11": null }, "geometry": { "type": "Point", "coordinates": [ 90.59086, 24.85806 ] } },
{ "type": "Feature", "properties": { "inst_name": "HOGLA  HIGH SCHOOL", "eiin": 113232, "inst_type": "School", "district": "NETRAKONA", "thana": "PURBADHALA", "mauza": "HOGLA", "long": 90.57675, "lat": 24.84258, "serial": 20598, "isUnique": 1, "field_11": null }, "geometry": { "type": "Point", "coordinates": [ 90.57675, 24.84258 ] } },
{ "type": "Feature", "properties": { "inst_name": "PANESHA  GIRLS SCHOOL", "eiin": 113227, "inst_type": "School", "district": "NETRAKONA", "thana": "PURBADHALA", "mauza": "PAINSA", "long": 90.62789, "lat": 24.85125, "serial": 20599, "isUnique": 1, "field_11": null }, "geometry": { "type": "Point", "coordinates": [ 90.62789, 24.85125 ] } },
{ "type": "Feature", "properties": { "inst_name": "PATRA DAMPARA HIGH SCHOOL", "eiin": 113207, "inst_type": "School", "district": "NETRAKONA", "thana": "PURBADHALA", "mauza": "PATHERA", "long": 90.58439, "lat": 24.86575, "serial": 20600, "isUnique": 1, "field_11": null }, "geometry": { "type": "Point", "coordinates": [ 90.58439, 24.86575 ] } },
{ "type": "Feature", "properties": { "inst_name": "DEAUTUKON A. GANI HIGH SCHOOL", "eiin": 113218, "inst_type": "School", "district": "NETRAKONA", "thana": "PURBADHALA", "mauza": "MEGHA PARA CHHANDHARA", "long": 90.53653, "lat": 24.97831, "serial": 20601, "isUnique": 1, "field_11": null }, "geometry": { "type": "Point", "coordinates": [ 90.53653, 24.97831 ] } },
{ "type": "Feature", "properties": { "inst_name": "TIKURIA ASARSHA JUNIOR SCHOOL", "eiin": 113233, "inst_type": "School", "district": "NETRAKONA", "thana": "PURBADHALA", "mauza": "SATYATI", "long": 90.52725, "lat": 24.95542, "serial": 20602, "isUnique": 1, "field_11": null }, "geometry": { "type": "Point", "coordinates": [ 90.52725, 24.95542 ] } },
{ "type": "Feature", "properties": { "inst_name": "ICHULIA HIGH SCHOOL", "eiin": 113213, "inst_type": "School", "district": "NETRAKONA", "thana": "PURBADHALA", "mauza": "KHALISAUR", "long": 90.531, "lat": 25.01736, "serial": 20603, "isUnique": 1, "field_11": null }, "geometry": { "type": "Point", "coordinates": [ 90.531, 25.01736 ] } },
{ "type": "Feature", "properties": { "inst_name": "BUTER GHAT HIGH SCHOOL", "eiin": 113231, "inst_type": "School", "district": "NETRAKONA", "thana": "PURBADHALA", "mauza": "KHALISAUR", "long": 90.50861, "lat": 24.99047, "serial": 20604, "isUnique": 1, "field_11": null }, "geometry": { "type": "Point", "coordinates": [ 90.50861, 24.99047 ] } },
{ "type": "Feature", "properties": { "inst_name": "PABAI HIGH SCHOOL", "eiin": 113217, "inst_type": "School", "district": "NETRAKONA", "thana": "PURBADHALA", "mauza": "PABAI", "long": 90.59411, "lat": 24.97622, "serial": 20605, "isUnique": 1, "field_11": null }, "geometry": { "type": "Point", "coordinates": [ 90.59411, 24.97622 ] } },
{ "type": "Feature", "properties": { "inst_name": "SHIMUL KANDI HIGH SCHOOL", "eiin": 130906, "inst_type": "School", "district": "NETRAKONA", "thana": "PURBADHALA", "mauza": "SHIMULKANDI", "long": 90.61936, "lat": 24.96911, "serial": 20606, "isUnique": 1, "field_11": null }, "geometry": { "type": "Point", "coordinates": [ 90.61936, 24.96911 ] } },
{ "type": "Feature", "properties": { "inst_name": "HIRANPUR HIGH SCHOOL", "eiin": 113202, "inst_type": "School", "district": "NETRAKONA", "thana": "PURBADHALA", "mauza": "IARAN", "long": 90.60894, "lat": 24.92258, "serial": 20607, "isUnique": 1, "field_11": null }, "geometry": { "type": "Point", "coordinates": [ 90.60894, 24.92258 ] } },
{ "type": "Feature", "properties": { "inst_name": " BHUGI JAWANI HIGH SCHOOL", "eiin": 113214, "inst_type": "School", "district": "NETRAKONA", "thana": "PURBADHALA", "mauza": "BHUGHI", "long": 90.6055, "lat": 24.91147, "serial": 20608, "isUnique": 1, "field_11": null }, "geometry": { "type": "Point", "coordinates": [ 90.6055, 24.91147 ] } },
{ "type": "Feature", "properties": { "inst_name": "NARAYAN DAHAR HIGH SCHOOL3", "eiin": 113210, "inst_type": "School", "district": "NETRAKONA", "thana": "PURBADHALA", "mauza": "NARAYANDAHAR", "long": 90.58614, "lat": 24.89011, "serial": 20609, "isUnique": 1, "field_11": null }, "geometry": { "type": "Point", "coordinates": [ 90.58614, 24.89011 ] } },
{ "type": "Feature", "properties": { "inst_name": "PURBADHALA HIGH SCHOOL", "eiin": 113222, "inst_type": "School", "district": "NETRAKONA", "thana": "PURBADHALA", "mauza": "PURBADHALA", "long": 90.64919, "lat": 24.90525, "serial": 20610, "isUnique": 1, "field_11": null }, "geometry": { "type": "Point", "coordinates": [ 90.64919, 24.90525 ] } },
{ "type": "Feature", "properties": { "inst_name": "RUPGANJ GIRLS HIGH SCHOOL", "eiin": 112927, "inst_type": "School", "district": "NETRAKONA", "thana": "BARHATTA", "mauza": "SUSANG DAHAR PARA", "long": 90.59281, "lat": 24.90139, "serial": 20611, "isUnique": 1, "field_11": null }, "geometry": { "type": "Point", "coordinates": [ 90.59281, 24.90139 ] } },
{ "type": "Feature", "properties": { "inst_name": "ROGHUNATHPUR  GIRLS SCHOOL", "eiin": 113052, "inst_type": "School", "district": "NETRAKONA", "thana": "KENDUA", "mauza": "RAGHUNATHPUR", "long": 90.63169, "lat": 24.918, "serial": 20612, "isUnique": 1, "field_11": null }, "geometry": { "type": "Point", "coordinates": [ 90.63169, 24.918 ] } },
{ "type": "Feature", "properties": { "inst_name": "NETRAKONA HIGH SCHOOL", "eiin": 113137, "inst_type": "School", "district": "NETRAKONA", "thana": "NETROKONA SADAR", "mauza": "AZAHAR ROAD", "long": 90.60353, "lat": 24.95403, "serial": 20613, "isUnique": 2, "field_11": null }, "geometry": { "type": "Point", "coordinates": [ 90.60353, 24.95403 ] } },
{ "type": "Feature", "properties": { "inst_name": "SHIMUL JANI GIRLS HIGH SCHOOL", "eiin": 113132, "inst_type": "School", "district": "NETRAKONA", "thana": "NETROKONA SADAR", "mauza": "SHIMULJANI", "long": 90.834, "lat": 24.94242, "serial": 20614, "isUnique": 1, "field_11": null }, "geometry": { "type": "Point", "coordinates": [ 90.834, 24.94242 ] } },
{ "type": "Feature", "properties": { "inst_name": "KRISHNA GOBINDA  GIGH SCHOOL", "eiin": 113151, "inst_type": "School", "district": "NETRAKONA", "thana": "NETROKONA SADAR", "mauza": "SINGHAR BANGLA", "long": 90.83419, "lat": 24.93867, "serial": 20615, "isUnique": 1, "field_11": null }, "geometry": { "type": "Point", "coordinates": [ 90.83419, 24.93867 ] } },
{ "type": "Feature", "properties": { "inst_name": "ABU HAYDER YOUSUF ABBASIA JUNIOR HIGH SCHOOL", "eiin": 113172, "inst_type": "School", "district": "NETRAKONA", "thana": "NETROKONA SADAR", "mauza": "BETATI", "long": 90.77619, "lat": 24.76617, "serial": 20616, "isUnique": 1, "field_11": null }, "geometry": { "type": "Point", "coordinates": [ 90.77619, 24.76617 ] } },
{ "type": "Feature", "properties": { "inst_name": "NETROKONA CHANDARA NATH HIGH SCHOOL", "eiin": 113140, "inst_type": "School", "district": "NETRAKONA", "thana": "NETROKONA SADAR", "mauza": "NIKHIL NATH ROAD", "long": 90.71533, "lat": 24.90586, "serial": 20617, "isUnique": 1, "field_11": null }, "geometry": { "type": "Point", "coordinates": [ 90.71533, 24.90586 ] } },
{ "type": "Feature", "properties": { "inst_name": "JAHANARA SHRITY GRIL'S HIGH SCHOOL", "eiin": 113139, "inst_type": "School", "district": "NETRAKONA", "thana": "NETROKONA SADAR", "mauza": "NIKHIL NATH ROAD", "long": 90.79472, "lat": 24.88544, "serial": 20619, "isUnique": 1, "field_11": null }, "geometry": { "type": "Point", "coordinates": [ 90.79472, 24.88544 ] } },
{ "type": "Feature", "properties": { "inst_name": "SATPAI BORSHIKORA HIGH SCHOOL", "eiin": 113158, "inst_type": "School", "district": "NETRAKONA", "thana": "NETROKONA SADAR", "mauza": "GRAM SATPAI_(1)", "long": 90.77456, "lat": 24.94889, "serial": 20621, "isUnique": 1, "field_11": null }, "geometry": { "type": "Point", "coordinates": [ 90.77456, 24.94889 ] } },
{ "type": "Feature", "properties": { "inst_name": "DUTTA HIGH SCHOOL", "eiin": 113136, "inst_type": "School", "district": "NETRAKONA", "thana": "NETROKONA SADAR", "mauza": "ARAMBAG", "long": 90.73781, "lat": 24.88161, "serial": 20622, "isUnique": 1, "field_11": null }, "geometry": { "type": "Point", "coordinates": [ 90.73781, 24.88161 ] } },
{ "type": "Feature", "properties": { "inst_name": "UNMESH ADERSHA HIGH SCHOOL", "eiin": 130697, "inst_type": "School", "district": "NETRAKONA", "thana": "NETROKONA SADAR", "mauza": "MUKTER PARA", "long": 90.73078, "lat": 24.87733, "serial": 20623, "isUnique": 1, "field_11": null }, "geometry": { "type": "Point", "coordinates": [ 90.73078, 24.87733 ] } },
{ "type": "Feature", "properties": { "inst_name": "MAHMUDPUR HIGH SCHOOL", "eiin": 113159, "inst_type": "School", "district": "NETRAKONA", "thana": "NETROKONA SADAR", "mauza": "MAHAMUDPUR", "long": 90.71828, "lat": 24.88794, "serial": 20624, "isUnique": 1, "field_11": null }, "geometry": { "type": "Point", "coordinates": [ 90.71828, 24.88794 ] } },
{ "type": "Feature", "properties": { "inst_name": "RAZUR BAZAR COLLEGIATE SCHOOL", "eiin": 113163, "inst_type": "School", "district": "NETRAKONA", "thana": "NETROKONA SADAR", "mauza": "BAHIRCHA PARA", "long": 90.71283, "lat": 24.88744, "serial": 20625, "isUnique": 1, "field_11": null }, "geometry": { "type": "Point", "coordinates": [ 90.71283, 24.88744 ] } },
{ "type": "Feature", "properties": { "inst_name": "NETRAKONA GOVT. GIRLS HIGH SCHOOL", "eiin": 113138, "inst_type": "School", "district": "NETRAKONA", "thana": "NETROKONA SADAR", "mauza": "MACHUA BAZAR", "long": 90.7195, "lat": 24.88761, "serial": 20626, "isUnique": 1, "field_11": null }, "geometry": { "type": "Point", "coordinates": [ 90.7195, 24.88761 ] } },
{ "type": "Feature", "properties": { "inst_name": "NETRAKONA RESIDENTIAL MODEL SCHOOL", "eiin": 132111, "inst_type": "School", "district": "NETRAKONA", "thana": "NETROKONA SADAR", "mauza": "MUKTER PARA", "long": 90.73033, "lat": 24.87756, "serial": 20627, "isUnique": 1, "field_11": null }, "geometry": { "type": "Point", "coordinates": [ 90.73033, 24.87756 ] } },
{ "type": "Feature", "properties": { "inst_name": "M A HAMID HIGH SCHOOL", "eiin": 113171, "inst_type": "School", "district": "NETRAKONA", "thana": "NETROKONA SADAR", "mauza": "AMTALA", "long": 90.73161, "lat": 24.88067, "serial": 20628, "isUnique": 1, "field_11": null }, "geometry": { "type": "Point", "coordinates": [ 90.73161, 24.88067 ] } },
{ "type": "Feature", "properties": { "inst_name": "DEOPUR HIGH SCHOOL", "eiin": 113146, "inst_type": "School", "district": "NETRAKONA", "thana": "NETROKONA SADAR", "mauza": "DEBPUR", "long": 90.72797, "lat": 24.88019, "serial": 20629, "isUnique": 1, "field_11": null }, "geometry": { "type": "Point", "coordinates": [ 90.72797, 24.88019 ] } },
{ "type": "Feature", "properties": { "inst_name": "AMTOLA HIGH SCHOOL", "eiin": 113162, "inst_type": "School", "district": "NETRAKONA", "thana": "NETROKONA SADAR", "mauza": "AMTALA", "long": 90.73311, "lat": 24.87061, "serial": 20630, "isUnique": 1, "field_11": null }, "geometry": { "type": "Point", "coordinates": [ 90.73311, 24.87061 ] } },
{ "type": "Feature", "properties": { "inst_name": "MUKTAL HOSSAIN HIGH SCHOOL", "eiin": 113144, "inst_type": "School", "district": "NETRAKONA", "thana": "NETROKONA SADAR", "mauza": "CHALLISHA", "long": 90.8, "lat": 24.8545, "serial": 20631, "isUnique": 1, "field_11": null }, "geometry": { "type": "Point", "coordinates": [ 90.8, 24.8545 ] } },
{ "type": "Feature", "properties": { "inst_name": "MOUOVI NAGAR HIGH SCHOOL", "eiin": 113153, "inst_type": "School", "district": "NETRAKONA", "thana": "NETROKONA SADAR", "mauza": "UTTAR BISHIURA", "long": 90.76578, "lat": 24.84136, "serial": 20632, "isUnique": 1, "field_11": null }, "geometry": { "type": "Point", "coordinates": [ 90.76578, 24.84136 ] } },
{ "type": "Feature", "properties": { "inst_name": "MILON HIGH SCHOOL", "eiin": 113152, "inst_type": "School", "district": "NETRAKONA", "thana": "NETROKONA SADAR", "mauza": "BANSATI", "long": 90.80203, "lat": 24.87378, "serial": 20633, "isUnique": 1, "field_11": null }, "geometry": { "type": "Point", "coordinates": [ 90.80203, 24.87378 ] } },
{ "type": "Feature", "properties": { "inst_name": "DAKSHIN BISHIURA HIGH SCHOOL", "eiin": 113150, "inst_type": "School", "district": "NETRAKONA", "thana": "NETROKONA SADAR", "mauza": "DAKSHIN BISHIURA", "long": 90.77092, "lat": 24.83114, "serial": 20634, "isUnique": 1, "field_11": null }, "geometry": { "type": "Point", "coordinates": [ 90.77092, 24.83114 ] } },
{ "type": "Feature", "properties": { "inst_name": "DEWANBAGI GIRLS HIGH SCHOOL", "eiin": 113174, "inst_type": "School", "district": "NETRAKONA", "thana": "NETROKONA SADAR", "mauza": "DAPUNIA", "long": 90.78731, "lat": 24.84694, "serial": 20635, "isUnique": 1, "field_11": null }, "geometry": { "type": "Point", "coordinates": [ 90.78731, 24.84694 ] } },
{ "type": "Feature", "properties": { "inst_name": "ABBASIA HIGH SCHOOL", "eiin": 113142, "inst_type": "School", "district": "NETRAKONA", "thana": "NETROKONA SADAR", "mauza": "BIL GUJABAGI", "long": 90.74994, "lat": 24.96039, "serial": 20637, "isUnique": 1, "field_11": null }, "geometry": { "type": "Point", "coordinates": [ 90.74994, 24.96039 ] } },
{ "type": "Feature", "properties": { "inst_name": "HAZI MOHAMMED ABDUR RAHAMAN HIGH SCHOOL", "eiin": 113161, "inst_type": "School", "district": "NETRAKONA", "thana": "NETROKONA SADAR", "mauza": "BARA KAILATI", "long": 90.68461, "lat": 24.822, "serial": 20638, "isUnique": 1, "field_11": null }, "geometry": { "type": "Point", "coordinates": [ 90.68461, 24.822 ] } },
{ "type": "Feature", "properties": { "inst_name": "JANATA HIGH SCHOOL", "eiin": 113164, "inst_type": "School", "district": "NETRAKONA", "thana": "NETROKONA SADAR", "mauza": "KHATIB NAGUA", "long": 90.68553, "lat": 24.82361, "serial": 20639, "isUnique": 1, "field_11": null }, "geometry": { "type": "Point", "coordinates": [ 90.68553, 24.82361 ] } },
{ "type": "Feature", "properties": { "inst_name": "DEUTUKON BAZAR. HIGH SCHOOL", "eiin": 113160, "inst_type": "School", "district": "NETRAKONA", "thana": "NETROKONA SADAR", "mauza": "MASUA", "long": 90.74053, "lat": 24.86928, "serial": 20640, "isUnique": 1, "field_11": null }, "geometry": { "type": "Point", "coordinates": [ 90.74053, 24.86928 ] } },
{ "type": "Feature", "properties": { "inst_name": "LAKSHMIGONJ HIGH SCHOOL", "eiin": 113143, "inst_type": "School", "district": "NETRAKONA", "thana": "NETROKONA SADAR", "mauza": "LAKSHMIGANJ", "long": 90.74581, "lat": 24.84319, "serial": 20641, "isUnique": 1, "field_11": null }, "geometry": { "type": "Point", "coordinates": [ 90.74581, 24.84319 ] } },
{ "type": "Feature", "properties": { "inst_name": "LOXMIPUR ADARSHA High SCHOOL", "eiin": 113157, "inst_type": "School", "district": "NETRAKONA", "thana": "NETROKONA SADAR", "mauza": "LAKSHMIPUR", "long": 90.74281, "lat": 24.86608, "serial": 20642, "isUnique": 1, "field_11": null }, "geometry": { "type": "Point", "coordinates": [ 90.74281, 24.86608 ] } },
{ "type": "Feature", "properties": { "inst_name": "MADANPUR SHAH SULTAN HIGH SCHOOL", "eiin": 113148, "inst_type": "School", "district": "NETRAKONA", "thana": "NETROKONA SADAR", "mauza": "MADANPUR", "long": 90.70736, "lat": 24.99522, "serial": 20643, "isUnique": 1, "field_11": null }, "geometry": { "type": "Point", "coordinates": [ 90.70736, 24.99522 ] } },
{ "type": "Feature", "properties": { "inst_name": "SURIYA ABBAS DMC HIGH SCHOOL", "eiin": 113170, "inst_type": "School", "district": "NETRAKONA", "thana": "NETROKONA SADAR", "mauza": "MINARGANTI", "long": 90.75083, "lat": 24.95767, "serial": 20644, "isUnique": 1, "field_11": null }, "geometry": { "type": "Point", "coordinates": [ 90.75083, 24.95767 ] } },
{ "type": "Feature", "properties": { "inst_name": "NANDIPUR SONAR BANGLA HIGH SCHOOL", "eiin": 113131, "inst_type": "School", "district": "NETRAKONA", "thana": "NETROKONA SADAR", "mauza": "NANDIPUR", "long": 90.75994, "lat": 24.8255, "serial": 20645, "isUnique": 1, "field_11": null }, "geometry": { "type": "Point", "coordinates": [ 90.75994, 24.8255 ] } },
{ "type": "Feature", "properties": { "inst_name": "SHAZIURA MOFILA FAIZ MODEL HIGH SCHOOL", "eiin": 113167, "inst_type": "School", "district": "NETRAKONA", "thana": "NETROKONA SADAR", "mauza": "SAJIURA", "long": 90.76031, "lat": 24.826, "serial": 20646, "isUnique": 1, "field_11": null }, "geometry": { "type": "Point", "coordinates": [ 90.76031, 24.826 ] } },
{ "type": "Feature", "properties": { "inst_name": "BARAWARI HIGH SCHOOL", "eiin": 113141, "inst_type": "School", "district": "NETRAKONA", "thana": "NETROKONA SADAR", "mauza": "BAROARI", "long": 90.71208, "lat": 24.78836, "serial": 20647, "isUnique": 1, "field_11": null }, "geometry": { "type": "Point", "coordinates": [ 90.71208, 24.78836 ] } },
{ "type": "Feature", "properties": { "inst_name": "HAZI FOYAJ UDDIN AKAND HIGH SCHOOL", "eiin": 113165, "inst_type": "School", "district": "NETRAKONA", "thana": "NETROKONA SADAR", "mauza": "SAID FAZAL", "long": 90.75053, "lat": 24.78142, "serial": 20648, "isUnique": 1, "field_11": null }, "geometry": { "type": "Point", "coordinates": [ 90.75053, 24.78142 ] } },
{ "type": "Feature", "properties": { "inst_name": "T KHAN HIGH SCHOOL", "eiin": 113173, "inst_type": "School", "district": "NETRAKONA", "thana": "NETROKONA SADAR", "mauza": "NATORKONA", "long": 90.74919, "lat": 24.79944, "serial": 20649, "isUnique": 1, "field_11": null }, "geometry": { "type": "Point", "coordinates": [ 90.74919, 24.79944 ] } },
{ "type": "Feature", "properties": { "inst_name": "K.N.F. HIGH SCHOOL", "eiin": 113133, "inst_type": "School", "district": "NETRAKONA", "thana": "NETROKONA SADAR", "mauza": "KANCHANPUR", "long": 90.71722, "lat": 24.86911, "serial": 20650, "isUnique": 1, "field_11": null }, "geometry": { "type": "Point", "coordinates": [ 90.71722, 24.86911 ] } },
{ "type": "Feature", "properties": { "inst_name": "MARA DIGHI GOLAM HOSSAIN HIGH SCHOOL", "eiin": 113145, "inst_type": "School", "district": "NETRAKONA", "thana": "NETROKONA SADAR", "mauza": "MARA DIGHI", "long": 90.75686, "lat": 24.93481, "serial": 20651, "isUnique": 1, "field_11": null }, "geometry": { "type": "Point", "coordinates": [ 90.75686, 24.93481 ] } },
{ "type": "Feature", "properties": { "inst_name": "KUNIA FAZARANNESSA HIGH SCHOOL", "eiin": 113156, "inst_type": "School", "district": "NETRAKONA", "thana": "NETROKONA SADAR", "mauza": "BARSIKURA", "long": 90.74339, "lat": 24.90844, "serial": 20652, "isUnique": 1, "field_11": null }, "geometry": { "type": "Point", "coordinates": [ 90.74339, 24.90844 ] } },
{ "type": "Feature", "properties": { "inst_name": "CHARPARA MOHADEBPUR HIGH SCHOOL", "eiin": 113149, "inst_type": "School", "district": "NETRAKONA", "thana": "NETROKONA SADAR", "mauza": "MAHADEBPUR", "long": 90.6985, "lat": 24.94667, "serial": 20653, "isUnique": 1, "field_11": null }, "geometry": { "type": "Point", "coordinates": [ 90.6985, 24.94667 ] } },
{ "type": "Feature", "properties": { "inst_name": "CHARPARA HIGH SCHOOL", "eiin": 113168, "inst_type": "School", "district": "NETRAKONA", "thana": "NETROKONA SADAR", "mauza": "TATIAR", "long": 90.69425, "lat": 24.92272, "serial": 20654, "isUnique": 1, "field_11": null }, "geometry": { "type": "Point", "coordinates": [ 90.69425, 24.92272 ] } },
{ "type": "Feature", "properties": { "inst_name": "TETULIA KAKUNI KONA S. B. HIGH SCHOOL", "eiin": 113154, "inst_type": "School", "district": "NETRAKONA", "thana": "NETROKONA SADAR", "mauza": "KAKANIKONA", "long": 90.71644, "lat": 24.93875, "serial": 20655, "isUnique": 1, "field_11": null }, "geometry": { "type": "Point", "coordinates": [ 90.71644, 24.93875 ] } },
{ "type": "Feature", "properties": { "inst_name": "SHIMULATI HIGH SCHOOL", "eiin": 113169, "inst_type": "School", "district": "NETRAKONA", "thana": "NETROKONA SADAR", "mauza": "PANCHPAI", "long": 90.68583, "lat": 24.92883, "serial": 20656, "isUnique": 1, "field_11": null }, "geometry": { "type": "Point", "coordinates": [ 90.68583, 24.92883 ] } },
{ "type": "Feature", "properties": { "inst_name": "THAKURKONA RaHIM UDDIN HIGH SCHOOL", "eiin": 113147, "inst_type": "School", "district": "NETRAKONA", "thana": "NETROKONA SADAR", "mauza": "THAKURAKONA", "long": 90.70928, "lat": 24.90675, "serial": 20657, "isUnique": 1, "field_11": null }, "geometry": { "type": "Point", "coordinates": [ 90.70928, 24.90675 ] } },
{ "type": "Feature", "properties": { "inst_name": "MOHANGONJ ADARSH HIGH SCHOOL", "eiin": 113118, "inst_type": "School", "district": "NETRAKONA", "thana": "MOHANGANJ", "mauza": "KAZIATI", "long": 90.83169, "lat": 24.93628, "serial": 20658, "isUnique": 1, "field_11": null }, "geometry": { "type": "Point", "coordinates": [ 90.83169, 24.93628 ] } },
{ "type": "Feature", "properties": { "inst_name": "MOHANGANJ  PILOT GOVT.HIGH SCHOOL", "eiin": 113107, "inst_type": "School", "district": "NETRAKONA", "thana": "MOHANGANJ", "mauza": "TANGAPARA (PART)", "long": 90.77864, "lat": 24.77025, "serial": 20659, "isUnique": 1, "field_11": null }, "geometry": { "type": "Point", "coordinates": [ 90.77864, 24.77025 ] } },
{ "type": "Feature", "properties": { "inst_name": "MAGHAN HIGH SCHOOL", "eiin": 113114, "inst_type": "School", "district": "NETRAKONA", "thana": "MOHANGANJ", "mauza": "MAGHAN", "long": 90.82172, "lat": 24.90847, "serial": 20660, "isUnique": 1, "field_11": null }, "geometry": { "type": "Point", "coordinates": [ 90.82172, 24.90847 ] } },
{ "type": "Feature", "properties": { "inst_name": "MOHANGANJ PUBLIC HIGH SCHOOL", "eiin": 113116, "inst_type": "School", "district": "NETRAKONA", "thana": "MOHANGANJ", "mauza": "MAILORA", "long": 90.97275, "lat": 24.86669, "serial": 20661, "isUnique": 1, "field_11": null }, "geometry": { "type": "Point", "coordinates": [ 90.97275, 24.86669 ] } },
{ "type": "Feature", "properties": { "inst_name": "MOHANGONJ PILOT GIRLS HIGH SCHOOL", "eiin": 113108, "inst_type": "School", "district": "NETRAKONA", "thana": "MOHANGANJ", "mauza": "DAULATPUR (PART)", "long": 90.96847, "lat": 24.86558, "serial": 20662, "isUnique": 1, "field_11": null }, "geometry": { "type": "Point", "coordinates": [ 90.96847, 24.86558 ] } },
{ "type": "Feature", "properties": { "inst_name": "JAINPUR HIGH SCHOOL", "eiin": 113121, "inst_type": "School", "district": "NETRAKONA", "thana": "MOHANGANJ", "mauza": "JAINPUR", "long": 90.98278, "lat": 24.84128, "serial": 20663, "isUnique": 1, "field_11": null }, "geometry": { "type": "Point", "coordinates": [ 90.98278, 24.84128 ] } },
{ "type": "Feature", "properties": { "inst_name": "BIRAMPUR HIGH SCHOOL", "eiin": 113119, "inst_type": "School", "district": "NETRAKONA", "thana": "MOHANGANJ", "mauza": "BIRAMPUR", "long": 90.98083, "lat": 24.86822, "serial": 20664, "isUnique": 1, "field_11": null }, "geometry": { "type": "Point", "coordinates": [ 90.98083, 24.86822 ] } },
{ "type": "Feature", "properties": { "inst_name": "VATI BANGLA  HIGH SCHOOL", "eiin": 130683, "inst_type": "School", "district": "NETRAKONA", "thana": "MOHANGANJ", "mauza": "GAGLAJORE", "long": 90.97322, "lat": 24.86528, "serial": 20665, "isUnique": 1, "field_11": null }, "geometry": { "type": "Point", "coordinates": [ 90.97322, 24.86528 ] } },
{ "type": "Feature", "properties": { "inst_name": "MOKTI ZUDDHYA SMRITY JR HIGH SCHOOL", "eiin": 113120, "inst_type": "School", "district": "NETRAKONA", "thana": "MOHANGANJ", "mauza": "KARACHAPUR", "long": 90.97983, "lat": 24.87508, "serial": 20666, "isUnique": 1, "field_11": null }, "geometry": { "type": "Point", "coordinates": [ 90.97983, 24.87508 ] } },
{ "type": "Feature", "properties": { "inst_name": "SHYAMPUR UNION HIGH SCHOOL", "eiin": 113112, "inst_type": "School", "district": "NETRAKONA", "thana": "MOHANGANJ", "mauza": "KAMALPUR", "long": 91.09336, "lat": 24.86558, "serial": 20667, "isUnique": 1, "field_11": null }, "geometry": { "type": "Point", "coordinates": [ 91.09336, 24.86558 ] } },
{ "type": "Feature", "properties": { "inst_name": "KHURSHIMUL  HIGH SCHOOL", "eiin": 113110, "inst_type": "School", "district": "NETRAKONA", "thana": "MOHANGANJ", "mauza": "KHORSHIMULI", "long": 90.98003, "lat": 24.87317, "serial": 20668, "isUnique": 1, "field_11": null }, "geometry": { "type": "Point", "coordinates": [ 90.98003, 24.87317 ] } },
{ "type": "Feature", "properties": { "inst_name": "K.B KABIR UDDIN K. HIGH SCHOOL", "eiin": 113115, "inst_type": "School", "district": "NETRAKONA", "thana": "MOHANGANJ", "mauza": "SAHILDEO", "long": 91.114, "lat": 24.81347, "serial": 20669, "isUnique": 1, "field_11": null }, "geometry": { "type": "Point", "coordinates": [ 91.114, 24.81347 ] } },
{ "type": "Feature", "properties": { "inst_name": "SAMAJ HIGH SCHOOL", "eiin": 113109, "inst_type": "School", "district": "NETRAKONA", "thana": "MOHANGANJ", "mauza": "JIBANPUR", "long": 91.05094, "lat": 24.77653, "serial": 20670, "isUnique": 1, "field_11": null }, "geometry": { "type": "Point", "coordinates": [ 91.05094, 24.77653 ] } },
{ "type": "Feature", "properties": { "inst_name": "FATHEPUR S.A.C HIGH SCHOOL", "eiin": 113081, "inst_type": "School", "district": "NETRAKONA", "thana": "MADAN", "mauza": "FATEHPUR", "long": 91.0065, "lat": 24.77339, "serial": 20672, "isUnique": 1, "field_11": null }, "geometry": { "type": "Point", "coordinates": [ 91.0065, 24.77339 ] } },
{ "type": "Feature", "properties": { "inst_name": "GOBINDA SREE HIGH SCHOOL", "eiin": 113088, "inst_type": "School", "district": "NETRAKONA", "thana": "MADAN", "mauza": "GOBINDASREE", "long": 90.97067, "lat": 24.64728, "serial": 20673, "isUnique": 1, "field_11": null }, "geometry": { "type": "Point", "coordinates": [ 90.97067, 24.64728 ] } },
{ "type": "Feature", "properties": { "inst_name": "CHAND GOUHASKURI MAIDHAM HIGH SCHOOL", "eiin": 113095, "inst_type": "School", "district": "NETRAKONA", "thana": "MADAN", "mauza": "CHANDGAON", "long": 90.95386, "lat": 24.71267, "serial": 20674, "isUnique": 1, "field_11": null }, "geometry": { "type": "Point", "coordinates": [ 90.95386, 24.71267 ] } },
{ "type": "Feature", "properties": { "inst_name": "BANSARI MEHERUNNESA HIGH SCHOOL", "eiin": 113093, "inst_type": "School", "district": "NETRAKONA", "thana": "MADAN", "mauza": "DURGASRAM", "long": 91.02947, "lat": 24.71867, "serial": 20675, "isUnique": 1, "field_11": null }, "geometry": { "type": "Point", "coordinates": [ 91.02947, 24.71867 ] } },
{ "type": "Feature", "properties": { "inst_name": "MADAN SHAHID SMARNIKA PILOT GIRL'S HIGH", "eiin": 113082, "inst_type": "School", "district": "NETRAKONA", "thana": "MADAN", "mauza": "PASCHIM  JAHANGIRPUR", "long": 91.02608, "lat": 24.72111, "serial": 20676, "isUnique": 1, "field_11": null }, "geometry": { "type": "Point", "coordinates": [ 91.02608, 24.72111 ] } },
{ "type": "Feature", "properties": { "inst_name": "JAHANGIRPUR T. AMIN PILOT HIGH SCHOOL", "eiin": 113083, "inst_type": "School", "district": "NETRAKONA", "thana": "MADAN", "mauza": "MAIDHAY JAHANGIRPUR", "long": 91.00869, "lat": 24.68297, "serial": 20677, "isUnique": 1, "field_11": null }, "geometry": { "type": "Point", "coordinates": [ 91.00869, 24.68297 ] } },
{ "type": "Feature", "properties": { "inst_name": "KESHJANI BIDDA NIKATAN", "eiin": 113091, "inst_type": "School", "district": "NETRAKONA", "thana": "MADAN", "mauza": "KESHJANI", "long": 90.92619, "lat": 24.71811, "serial": 20678, "isUnique": 1, "field_11": null }, "geometry": { "type": "Point", "coordinates": [ 90.92619, 24.71811 ] } },
{ "type": "Feature", "properties": { "inst_name": "KHAGURIa HIGH SCHOOL", "eiin": 113085, "inst_type": "School", "district": "NETRAKONA", "thana": "MADAN", "mauza": "KHAGURIA", "long": 90.91653, "lat": 24.72172, "serial": 20679, "isUnique": 1, "field_11": null }, "geometry": { "type": "Point", "coordinates": [ 90.91653, 24.72172 ] } },
{ "type": "Feature", "properties": { "inst_name": "MADAN ADARSHA PUBLIC HIGH SCHOOL", "eiin": 113092, "inst_type": "School", "district": "NETRAKONA", "thana": "MADAN", "mauza": "MADAN", "long": 90.91456, "lat": 24.69011, "serial": 20680, "isUnique": 1, "field_11": null }, "geometry": { "type": "Point", "coordinates": [ 90.91456, 24.69011 ] } },
{ "type": "Feature", "properties": { "inst_name": "CHOWDHURY TALE HOSSAIN MICHHIL JAN ACADEM", "eiin": 113094, "inst_type": "School", "district": "NETRAKONA", "thana": "MADAN", "mauza": "MAIDHAY JAHANGIRPUR", "long": 90.89311, "lat": 24.73189, "serial": 20681, "isUnique": 1, "field_11": null }, "geometry": { "type": "Point", "coordinates": [ 90.89311, 24.73189 ] } },
{ "type": "Feature", "properties": { "inst_name": "NOAGAOAN AFTAB HOSSAIN ACADEMY", "eiin": 113087, "inst_type": "School", "district": "NETRAKONA", "thana": "MADAN", "mauza": "NAYEKPUR", "long": 90.88747, "lat": 24.71375, "serial": 20682, "isUnique": 1, "field_11": null }, "geometry": { "type": "Point", "coordinates": [ 90.88747, 24.71375 ] } },
{ "type": "Feature", "properties": { "inst_name": "BAGJAN KUTUREEKONA MODEL HIGH SCHOOL", "eiin": 130687, "inst_type": "School", "district": "NETRAKONA", "thana": "MADAN", "mauza": "BAGHJAN", "long": 90.95739, "lat": 24.71736, "serial": 20683, "isUnique": 1, "field_11": null }, "geometry": { "type": "Point", "coordinates": [ 90.95739, 24.71736 ] } },
{ "type": "Feature", "properties": { "inst_name": "BALALI BAGMARA HIGH SCHOOL", "eiin": 113086, "inst_type": "School", "district": "NETRAKONA", "thana": "MADAN", "mauza": "BALALI", "long": 90.96092, "lat": 24.71503, "serial": 20684, "isUnique": 1, "field_11": null }, "geometry": { "type": "Point", "coordinates": [ 90.96092, 24.71503 ] } },
{ "type": "Feature", "properties": { "inst_name": "TIOSREE N H KHAN ACADEMY", "eiin": 113090, "inst_type": "School", "district": "NETRAKONA", "thana": "MADAN", "mauza": "TIASREE", "long": 91.04894, "lat": 24.65556, "serial": 20685, "isUnique": 1, "field_11": null }, "geometry": { "type": "Point", "coordinates": [ 91.04894, 24.65556 ] } },
{ "type": "Feature", "properties": { "inst_name": "SHALDIGHA GOPAL GOPINATH HIGH SCHOOL", "eiin": 112976, "inst_type": "School", "district": "NETRAKONA", "thana": "KHALIAJURI", "mauza": "SALDIGHA", "long": 90.97103, "lat": 24.64656, "serial": 20686, "isUnique": 1, "field_11": null }, "geometry": { "type": "Point", "coordinates": [ 90.97103, 24.64656 ] } },
{ "type": "Feature", "properties": { "inst_name": "PANCHHAT HIGH SCHOOL", "eiin": 133260, "inst_type": "School", "district": "NETRAKONA", "thana": "KHALIAJURI", "mauza": "PANCHHAT", "long": 90.93731, "lat": 24.66736, "serial": 20687, "isUnique": 1, "field_11": null }, "geometry": { "type": "Point", "coordinates": [ 90.93731, 24.66736 ] } },
{ "type": "Feature", "properties": { "inst_name": "KHALIAJURI PILOT HIGH SCHOOL", "eiin": 112978, "inst_type": "School", "district": "NETRAKONA", "thana": "KHALIAJURI", "mauza": "KHALIAJURI", "long": 90.92925, "lat": 24.66736, "serial": 20688, "isUnique": 1, "field_11": null }, "geometry": { "type": "Point", "coordinates": [ 90.92925, 24.66736 ] } },
{ "type": "Feature", "properties": { "inst_name": "SIDDIQUR RAHMAN BALIKA BIDDA NIKETAN", "eiin": 112986, "inst_type": "School", "district": "NETRAKONA", "thana": "KHALIAJURI", "mauza": "KHALIAJURI", "long": 90.97167, "lat": 24.64831, "serial": 20689, "isUnique": 1, "field_11": null }, "geometry": { "type": "Point", "coordinates": [ 90.97167, 24.64831 ] } },
{ "type": "Feature", "properties": { "inst_name": "KRISHNAPUR ALIMUDDIN ARGERNESA Public High SCHool", "eiin": 112980, "inst_type": "School", "district": "NETRAKONA", "thana": "KHALIAJURI", "mauza": "KRISHNAPUR", "long": 91.12192, "lat": 24.61575, "serial": 20690, "isUnique": 1, "field_11": null }, "geometry": { "type": "Point", "coordinates": [ 91.12192, 24.61575 ] } },
{ "type": "Feature", "properties": { "inst_name": "ABDUL JABBAR RABEYA KHTUN GIRLS HIGH SCHOOL", "eiin": 112984, "inst_type": "School", "district": "NETRAKONA", "thana": "KHALIAJURI", "mauza": "KRISHNAPUR", "long": 91.12039, "lat": 24.62058, "serial": 20691, "isUnique": 1, "field_11": null }, "geometry": { "type": "Point", "coordinates": [ 91.12039, 24.62058 ] } },
{ "type": "Feature", "properties": { "inst_name": "KUTUBPUR PABLIC HIGH SCHOOL", "eiin": 112977, "inst_type": "School", "district": "NETRAKONA", "thana": "KHALIAJURI", "mauza": "KUTUBPUR", "long": 91.13947, "lat": 24.69189, "serial": 20692, "isUnique": 1, "field_11": null }, "geometry": { "type": "Point", "coordinates": [ 91.13947, 24.69189 ] } },
{ "type": "Feature", "properties": { "inst_name": "PROKASH NATH PUBLIC HIGH SCHOOL", "eiin": 112983, "inst_type": "School", "district": "NETRAKONA", "thana": "KHALIAJURI", "mauza": "JIAKHARA", "long": 91.22439, "lat": 24.69053, "serial": 20693, "isUnique": 1, "field_11": null }, "geometry": { "type": "Point", "coordinates": [ 91.22439, 24.69053 ] } },
{ "type": "Feature", "properties": { "inst_name": "JAGANNATH PUR M U S HIGH SCHOOL", "eiin": 112981, "inst_type": "School", "district": "NETRAKONA", "thana": "KHALIAJURI", "mauza": "JAGANNATHPUR", "long": 91.21678, "lat": 24.68806, "serial": 20694, "isUnique": 1, "field_11": null }, "geometry": { "type": "Point", "coordinates": [ 91.21678, 24.68806 ] } },
{ "type": "Feature", "properties": { "inst_name": "SATGOAN M B P HIGH sCHOOL", "eiin": 112979, "inst_type": "School", "district": "NETRAKONA", "thana": "KHALIAJURI", "mauza": "SATGAON", "long": 91.20278, "lat": 24.68122, "serial": 20695, "isUnique": 1, "field_11": null }, "geometry": { "type": "Point", "coordinates": [ 91.20278, 24.68122 ] } },
{ "type": "Feature", "properties": { "inst_name": "BAGHATIA HIGH SCHOOL", "eiin": 112982, "inst_type": "School", "district": "NETRAKONA", "thana": "KHALIAJURI", "mauza": "BAGHATIA", "long": 91.22031, "lat": 24.69003, "serial": 20696, "isUnique": 1, "field_11": null }, "geometry": { "type": "Point", "coordinates": [ 91.22031, 24.69003 ] } },
{ "type": "Feature", "properties": { "inst_name": "KANDIPARA A. M. S. R. INSTITUTE", "eiin": 112903, "inst_type": "School", "district": "NETRAKONA", "thana": "ATPARA", "mauza": "KANDI PARA", "long": 91.22464, "lat": 24.69083, "serial": 20697, "isUnique": 1, "field_11": null }, "geometry": { "type": "Point", "coordinates": [ 91.22464, 24.69083 ] } },
{ "type": "Feature", "properties": { "inst_name": "BASHATI HIGH SCHOOL", "eiin": 113044, "inst_type": "School", "district": "NETRAKONA", "thana": "KENDUA", "mauza": "BASATI", "long": 91.04728, "lat": 24.73658, "serial": 20698, "isUnique": 1, "field_11": null }, "geometry": { "type": "Point", "coordinates": [ 91.04728, 24.73658 ] } },
{ "type": "Feature", "properties": { "inst_name": "SABERUNNESSA GIRL'S HIGH SCHOOL", "eiin": 113041, "inst_type": "School", "district": "NETRAKONA", "thana": "KENDUA", "mauza": "KAMALPUR", "long": 91.07831, "lat": 24.70692, "serial": 20699, "isUnique": 1, "field_11": null }, "geometry": { "type": "Point", "coordinates": [ 91.07831, 24.70692 ] } },
{ "type": "Feature", "properties": { "inst_name": "SAYMA SHAHJAHAN ACADEMY", "eiin": 113049, "inst_type": "School", "district": "NETRAKONA", "thana": "KENDUA", "mauza": "KAMALPUR", "long": 91.03494, "lat": 24.75933, "serial": 20700, "isUnique": 1, "field_11": null }, "geometry": { "type": "Point", "coordinates": [ 91.03494, 24.75933 ] } },
{ "type": "Feature", "properties": { "inst_name": "AL HAZ ATIKUR RAHMAN BHUYIAN GIRL'S ACADEMY", "eiin": 113057, "inst_type": "School", "district": "NETRAKONA", "thana": "KENDUA", "mauza": "BATTA", "long": 91.17067, "lat": 24.66006, "serial": 20701, "isUnique": 1, "field_11": null }, "geometry": { "type": "Point", "coordinates": [ 91.17067, 24.66006 ] } },
{ "type": "Feature", "properties": { "inst_name": "JANATA HIGH SCHOOL", "eiin": 113032, "inst_type": "School", "district": "NETRAKONA", "thana": "KENDUA", "mauza": "AMTALA", "long": 90.83836, "lat": 24.74817, "serial": 20702, "isUnique": 1, "field_11": null }, "geometry": { "type": "Point", "coordinates": [ 90.83836, 24.74817 ] } },
{ "type": "Feature", "properties": { "inst_name": "KENDUA JOY HARI SPRY GOVT. HIGH SCHOOL", "eiin": 113026, "inst_type": "School", "district": "NETRAKONA", "thana": "KENDUA", "mauza": "KENDUA BAZAR", "long": 90.83944, "lat": 24.66242, "serial": 20703, "isUnique": 1, "field_11": null }, "geometry": { "type": "Point", "coordinates": [ 90.83944, 24.66242 ] } },
{ "type": "Feature", "properties": { "inst_name": "ASHUJIA j N C INSTITUTION", "eiin": 113027, "inst_type": "School", "district": "NETRAKONA", "thana": "KENDUA", "mauza": "ASUJIA", "long": 90.78858, "lat": 24.62422, "serial": 20704, "isUnique": 1, "field_11": null }, "geometry": { "type": "Point", "coordinates": [ 90.78858, 24.62422 ] } },
{ "type": "Feature", "properties": { "inst_name": "JANATA ADARSHA HIGH SCHOOL", "eiin": 113053, "inst_type": "School", "district": "NETRAKONA", "thana": "KENDUA", "mauza": "GOBINDAPUR", "long": 90.842, "lat": 24.66764, "serial": 20705, "isUnique": 1, "field_11": null }, "geometry": { "type": "Point", "coordinates": [ 90.842, 24.66764 ] } },
{ "type": "Feature", "properties": { "inst_name": "RAMPUR ANWARA HIGH SCHOOL", "eiin": 113039, "inst_type": "School", "district": "NETRAKONA", "thana": "KENDUA", "mauza": "NANDIKHILA", "long": 90.84181, "lat": 24.66244, "serial": 20706, "isUnique": 1, "field_11": null }, "geometry": { "type": "Point", "coordinates": [ 90.84181, 24.66244 ] } },
{ "type": "Feature", "properties": { "inst_name": "BALAISHIMUL.J.K ACAOEMY", "eiin": 113055, "inst_type": "School", "district": "NETRAKONA", "thana": "KENDUA", "mauza": "BALAISHIMUL", "long": 90.78903, "lat": 24.7295, "serial": 20707, "isUnique": 1, "field_11": null }, "geometry": { "type": "Point", "coordinates": [ 90.78903, 24.7295 ] } },
{ "type": "Feature", "properties": { "inst_name": "GOPALPUR HIGH SCHOOL", "eiin": 113043, "inst_type": "School", "district": "NETRAKONA", "thana": "KENDUA", "mauza": "GOURI GOPALPUR", "long": 90.78206, "lat": 24.76225, "serial": 20708, "isUnique": 1, "field_11": null }, "geometry": { "type": "Point", "coordinates": [ 90.78206, 24.76225 ] } },
{ "type": "Feature", "properties": { "inst_name": "NOADIA AKOTA HIGH SCHOOL", "eiin": 113047, "inst_type": "School", "district": "NETRAKONA", "thana": "KENDUA", "mauza": "NOADIADIGAR", "long": 90.75936, "lat": 24.74881, "serial": 20709, "isUnique": 1, "field_11": null }, "geometry": { "type": "Point", "coordinates": [ 90.75936, 24.74881 ] } },
{ "type": "Feature", "properties": { "inst_name": "SHAJIURA HIGH SCHOOL", "eiin": 113040, "inst_type": "School", "district": "NETRAKONA", "thana": "KENDUA", "mauza": "SAJIURA", "long": 90.82217, "lat": 24.72589, "serial": 20710, "isUnique": 1, "field_11": null }, "geometry": { "type": "Point", "coordinates": [ 90.82217, 24.72589 ] } },
{ "type": "Feature", "properties": { "inst_name": "BEKHAIR HATI NARADRA KANTA HIGH SCHOOL", "eiin": 113029, "inst_type": "School", "district": "NETRAKONA", "thana": "KENDUA", "mauza": "BEKHURATI", "long": 90.78378, "lat": 24.70381, "serial": 20711, "isUnique": 1, "field_11": null }, "geometry": { "type": "Point", "coordinates": [ 90.78378, 24.70381 ] } },
{ "type": "Feature", "properties": { "inst_name": "JALLY HIGH SCHOOL", "eiin": 113054, "inst_type": "School", "district": "NETRAKONA", "thana": "KENDUA", "mauza": "JALLI", "long": 90.81806, "lat": 24.73797, "serial": 20712, "isUnique": 1, "field_11": null }, "geometry": { "type": "Point", "coordinates": [ 90.81806, 24.73797 ] } },
{ "type": "Feature", "properties": { "inst_name": "RAMNAGAR GIRL'S HIGH SCHOOL", "eiin": 113045, "inst_type": "School", "district": "NETRAKONA", "thana": "KENDUA", "mauza": "RAMNAGAR", "long": 90.81561, "lat": 24.75422, "serial": 20713, "isUnique": 1, "field_11": null }, "geometry": { "type": "Point", "coordinates": [ 90.81561, 24.75422 ] } },
{ "type": "Feature", "properties": { "inst_name": "ROUSHAN IJDANI ACADEMY", "eiin": 113033, "inst_type": "School", "district": "NETRAKONA", "thana": "KENDUA", "mauza": "BIDYABALLABH", "long": 90.71308, "lat": 24.75708, "serial": 20714, "isUnique": 1, "field_11": null }, "geometry": { "type": "Point", "coordinates": [ 90.71308, 24.75708 ] } },
{ "type": "Feature", "properties": { "inst_name": "PUBAIL JUNIOR GIRLS SCHOOL", "eiin": 113051, "inst_type": "School", "district": "NETRAKONA", "thana": "KENDUA", "mauza": "PUBAIL", "long": 90.73525, "lat": 24.73889, "serial": 20715, "isUnique": 1, "field_11": null }, "geometry": { "type": "Point", "coordinates": [ 90.73525, 24.73889 ] } },
{ "type": "Feature", "properties": { "inst_name": "GARADOVA ABDUL HAMID HIGH SCHOOL", "eiin": 113042, "inst_type": "School", "district": "NETRAKONA", "thana": "KENDUA", "mauza": "GARADOBA", "long": 90.73625, "lat": 24.75222, "serial": 20716, "isUnique": 1, "field_11": null }, "geometry": { "type": "Point", "coordinates": [ 90.73625, 24.75222 ] } },
{ "type": "Feature", "properties": { "inst_name": "BOISHAPATTA MODEL ACADEMY", "eiin": 113050, "inst_type": "School", "district": "NETRAKONA", "thana": "KENDUA", "mauza": "BAISYA BATTA", "long": 90.76317, "lat": 24.70383, "serial": 20717, "isUnique": 1, "field_11": null }, "geometry": { "type": "Point", "coordinates": [ 90.76317, 24.70383 ] } },
{ "type": "Feature", "properties": { "inst_name": "GONDA HIGH SCHOOL", "eiin": 113035, "inst_type": "School", "district": "NETRAKONA", "thana": "KENDUA", "mauza": "GANDA", "long": 90.74456, "lat": 24.70361, "serial": 20718, "isUnique": 1, "field_11": null }, "geometry": { "type": "Point", "coordinates": [ 90.74456, 24.70361 ] } },
{ "type": "Feature", "properties": { "inst_name": "JOYKA SATASHI HIGH SCHOOL", "eiin": 113038, "inst_type": "School", "district": "NETRAKONA", "thana": "KENDUA", "mauza": "SATASHI DIGAR", "long": 90.72356, "lat": 24.65031, "serial": 20719, "isUnique": 1, "field_11": null }, "geometry": { "type": "Point", "coordinates": [ 90.72356, 24.65031 ] } },
{ "type": "Feature", "properties": { "inst_name": "GOGDA HIGH SCHOOL", "eiin": 113036, "inst_type": "School", "district": "NETRAKONA", "thana": "KENDUA", "mauza": "GAGDA", "long": 90.72478, "lat": 24.66619, "serial": 20720, "isUnique": 1, "field_11": null }, "geometry": { "type": "Point", "coordinates": [ 90.72478, 24.66619 ] } },
{ "type": "Feature", "properties": { "inst_name": "AYESHA HAMIDA GIRLS HIGH SCHOOL", "eiin": 113056, "inst_type": "School", "district": "NETRAKONA", "thana": "KENDUA", "mauza": "MUZAFFARPUR", "long": 90.70756, "lat": 24.67711, "serial": 20721, "isUnique": 1, "field_11": null }, "geometry": { "type": "Point", "coordinates": [ 90.70756, 24.67711 ] } },
{ "type": "Feature", "properties": { "inst_name": "NOAPARA HIGH SCHOOL", "eiin": 113028, "inst_type": "School", "district": "NETRAKONA", "thana": "KENDUA", "mauza": "NAOPARA", "long": 90.785, "lat": 24.68839, "serial": 20722, "isUnique": 1, "field_11": null }, "geometry": { "type": "Point", "coordinates": [ 90.785, 24.68839 ] } },
{ "type": "Feature", "properties": { "inst_name": "MOJLISHPUR HIGH SCHOOL", "eiin": 113031, "inst_type": "School", "district": "NETRAKONA", "thana": "KENDUA", "mauza": "MAJLISHPUR", "long": 90.87669, "lat": 24.61119, "serial": 20723, "isUnique": 1, "field_11": null }, "geometry": { "type": "Point", "coordinates": [ 90.87669, 24.61119 ] } },
{ "type": "Feature", "properties": { "inst_name": "MITALI HIGH SCHOOL", "eiin": 113037, "inst_type": "School", "district": "NETRAKONA", "thana": "KENDUA", "mauza": "BIRAMPUR", "long": 90.85489, "lat": 24.69875, "serial": 20724, "isUnique": 1, "field_11": null }, "geometry": { "type": "Point", "coordinates": [ 90.85489, 24.69875 ] } },
{ "type": "Feature", "properties": { "inst_name": "HAZIGONJ HIGH SCHOOL", "eiin": 112940, "inst_type": "School", "district": "NETRAKONA", "thana": "BARHATTA", "mauza": "GABARKANDA", "long": 90.84414, "lat": 24.60261, "serial": 20725, "isUnique": 1, "field_11": null }, "geometry": { "type": "Point", "coordinates": [ 90.84414, 24.60261 ] } },
{ "type": "Feature", "properties": { "inst_name": "RANGCHATI HIGH SCHOOL", "eiin": 112993, "inst_type": "School", "district": "NETRAKONA", "thana": "KALMAKANDA", "mauza": "PANCHGAON", "long": 90.82703, "lat": 24.62742, "serial": 20726, "isUnique": 1, "field_11": null }, "geometry": { "type": "Point", "coordinates": [ 90.82703, 24.62742 ] } },
{ "type": "Feature", "properties": { "inst_name": "AKOTA HIGH SCHOOL", "eiin": 113008, "inst_type": "School", "district": "NETRAKONA", "thana": "KALMAKANDA", "mauza": "NAGARGATI", "long": 90.78508, "lat": 24.61864, "serial": 20727, "isUnique": 1, "field_11": null }, "geometry": { "type": "Point", "coordinates": [ 90.78508, 24.61864 ] } },
{ "type": "Feature", "properties": { "inst_name": "UDAYPUR MITALY HIGH SCHOOL", "eiin": 113010, "inst_type": "School", "district": "NETRAKONA", "thana": "KALMAKANDA", "mauza": "BAGHSATRA", "long": 90.74475, "lat": 24.63683, "serial": 20728, "isUnique": 1, "field_11": null }, "geometry": { "type": "Point", "coordinates": [ 90.74475, 24.63683 ] } },
{ "type": "Feature", "properties": { "inst_name": "MITALy GIRL'S HIGH SCHOOL", "eiin": 112991, "inst_type": "School", "district": "NETRAKONA", "thana": "KALMAKANDA", "mauza": "BANIA PARA", "long": 90.87711, "lat": 24.96639, "serial": 20729, "isUnique": 1, "field_11": null }, "geometry": { "type": "Point", "coordinates": [ 90.87711, 24.96639 ] } },
{ "type": "Feature", "properties": { "inst_name": "JANATA HIGH SCHOOL", "eiin": 113004, "inst_type": "School", "district": "NETRAKONA", "thana": "KALMAKANDA", "mauza": "KAILATI", "long": 90.91461, "lat": 25.13475, "serial": 20730, "isUnique": 1, "field_11": null }, "geometry": { "type": "Point", "coordinates": [ 90.91461, 25.13475 ] } },
{ "type": "Feature", "properties": { "inst_name": "PUBLIC HIGH SCHOOL", "eiin": 112995, "inst_type": "School", "district": "NETRAKONA", "thana": "KALMAKANDA", "mauza": "SIDHLI", "long": 90.90747, "lat": 25.14317, "serial": 20731, "isUnique": 1, "field_11": null }, "geometry": { "type": "Point", "coordinates": [ 90.90747, 25.14317 ] } },
{ "type": "Feature", "properties": { "inst_name": "BISHARpashA HARISHCHANDRA HIGH SCHOOL", "eiin": 113006, "inst_type": "School", "district": "NETRAKONA", "thana": "KALMAKANDA", "mauza": "BISHAR PASHA", "long": 90.76769, "lat": 25.01822, "serial": 20732, "isUnique": 1, "field_11": null }, "geometry": { "type": "Point", "coordinates": [ 90.76769, 25.01822 ] } },
{ "type": "Feature", "properties": { "inst_name": "DHITPUR  HIGH  SCHOOL", "eiin": 113009, "inst_type": "School", "district": "NETRAKONA", "thana": "KALMAKANDA", "mauza": "DHITPUR", "long": 90.82072, "lat": 25.01275, "serial": 20733, "isUnique": 1, "field_11": null }, "geometry": { "type": "Point", "coordinates": [ 90.82072, 25.01275 ] } },
{ "type": "Feature", "properties": { "inst_name": "KALMAKANDA PILOT HIGH SCHOOL", "eiin": 112992, "inst_type": "School", "district": "NETRAKONA", "thana": "KALMAKANDA", "mauza": "KALMAKANDA", "long": 90.76692, "lat": 25.01406, "serial": 20734, "isUnique": 2, "field_11": null }, "geometry": { "type": "Point", "coordinates": [ 90.76692, 25.01406 ] } },
{ "type": "Feature", "properties": { "inst_name": "KALMAKANDA GIRL'S HIGH SCHOOL", "eiin": 113007, "inst_type": "School", "district": "NETRAKONA", "thana": "KALMAKANDA", "mauza": "CHANDPUR", "long": 90.80033, "lat": 25.01889, "serial": 20735, "isUnique": 1, "field_11": null }, "geometry": { "type": "Point", "coordinates": [ 90.80033, 25.01889 ] } },
{ "type": "Feature", "properties": { "inst_name": "BARDAL HIGH SCHOOL", "eiin": 113001, "inst_type": "School", "district": "NETRAKONA", "thana": "KALMAKANDA", "mauza": "LAKSHMIPUR", "long": 90.88819, "lat": 25.07758, "serial": 20736, "isUnique": 1, "field_11": null }, "geometry": { "type": "Point", "coordinates": [ 90.88819, 25.07758 ] } },
{ "type": "Feature", "properties": { "inst_name": "GOBINDOPUR high SCHOOL", "eiin": 112997, "inst_type": "School", "district": "NETRAKONA", "thana": "KALMAKANDA", "mauza": "HAT GOBINDAPUR", "long": 90.88489, "lat": 25.07822, "serial": 20737, "isUnique": 1, "field_11": null }, "geometry": { "type": "Point", "coordinates": [ 90.88489, 25.07822 ] } },
{ "type": "Feature", "properties": { "inst_name": " LENGURA HIGH SCHOOL", "eiin": 113005, "inst_type": "School", "district": "NETRAKONA", "thana": "KALMAKANDA", "mauza": "LENGURA", "long": 90.88697, "lat": 25.07278, "serial": 20738, "isUnique": 1, "field_11": null }, "geometry": { "type": "Point", "coordinates": [ 90.88697, 25.07278 ] } },
{ "type": "Feature", "properties": { "inst_name": "UTTAR GORAGAON SABUJ NIKETON JUNIOR SCHOOL", "eiin": 130668, "inst_type": "School", "district": "NETRAKONA", "thana": "KALMAKANDA", "mauza": "GORAGAON", "long": 90.83314, "lat": 25.09772, "serial": 20739, "isUnique": 1, "field_11": null }, "geometry": { "type": "Point", "coordinates": [ 90.83314, 25.09772 ] } },
{ "type": "Feature", "properties": { "inst_name": "RAJNAGAR HIGH SCHOOL", "eiin": 112996, "inst_type": "School", "district": "NETRAKONA", "thana": "KALMAKANDA", "mauza": "RAJNAGAR", "long": 90.84386, "lat": 25.15694, "serial": 20740, "isUnique": 1, "field_11": null }, "geometry": { "type": "Point", "coordinates": [ 90.84386, 25.15694 ] } },
{ "type": "Feature", "properties": { "inst_name": "ANANDAPUR HIGH SCHOOL", "eiin": 113003, "inst_type": "School", "district": "NETRAKONA", "thana": "KALMAKANDA", "mauza": "ANANDAPUR", "long": 90.85144, "lat": 25.0905, "serial": 20741, "isUnique": 1, "field_11": null }, "geometry": { "type": "Point", "coordinates": [ 90.85144, 25.0905 ] } },
{ "type": "Feature", "properties": { "inst_name": "SaCRED HEArT HIGH SCHOOL  baluchora", "eiin": 112999, "inst_type": "School", "district": "NETRAKONA", "thana": "KALMAKANDA", "mauza": "NALCHAPRA", "long": 90.84611, "lat": 25.14253, "serial": 20742, "isUnique": 1, "field_11": null }, "geometry": { "type": "Point", "coordinates": [ 90.84611, 25.14253 ] } },
{ "type": "Feature", "properties": { "inst_name": "NALCHAPRA HIGH SCOOL", "eiin": 113000, "inst_type": "School", "district": "NETRAKONA", "thana": "KALMAKANDA", "mauza": "NALCHAPRA", "long": 90.78361, "lat": 25.15689, "serial": 20743, "isUnique": 1, "field_11": null }, "geometry": { "type": "Point", "coordinates": [ 90.78361, 25.15689 ] } },
{ "type": "Feature", "properties": { "inst_name": "NAZIRPUR PALLI JAGARON HIGH SCHOOL", "eiin": 112994, "inst_type": "School", "district": "NETRAKONA", "thana": "KALMAKANDA", "mauza": "NAZIRPUR", "long": 90.807, "lat": 25.14914, "serial": 20744, "isUnique": 1, "field_11": null }, "geometry": { "type": "Point", "coordinates": [ 90.807, 25.14914 ] } },
{ "type": "Feature", "properties": { "inst_name": "SMORONIKA HIGH SCHOOL", "eiin": 113011, "inst_type": "School", "district": "NETRAKONA", "thana": "KALMAKANDA", "mauza": "SANDUHALA", "long": 90.77244, "lat": 25.13336, "serial": 20745, "isUnique": 1, "field_11": null }, "geometry": { "type": "Point", "coordinates": [ 90.77244, 25.13336 ] } },
{ "type": "Feature", "properties": { "inst_name": "BATTALA JUNIOR HIGH SCHOOL", "eiin": 113002, "inst_type": "School", "district": "NETRAKONA", "thana": "KALMAKANDA", "mauza": "MAHADEO", "long": 90.81189, "lat": 25.05331, "serial": 20746, "isUnique": 1, "field_11": null }, "geometry": { "type": "Point", "coordinates": [ 90.81189, 25.05331 ] } },
{ "type": "Feature", "properties": { "inst_name": "BORUAKONA SADHU FREDRICK HIGH SCHOOL", "eiin": 112998, "inst_type": "School", "district": "NETRAKONA", "thana": "KALMAKANDA", "mauza": "MAHADEO", "long": 90.80264, "lat": 25.0875, "serial": 20747, "isUnique": 1, "field_11": null }, "geometry": { "type": "Point", "coordinates": [ 90.80264, 25.0875 ] } },
{ "type": "Feature", "properties": { "inst_name": "MUNSHIPUR HAJI ISRAIL ISLAMI HIGH SCHOOL", "eiin": 113012, "inst_type": "School", "district": "NETRAKONA", "thana": "KALMAKANDA", "mauza": "MUNSHIPUR", "long": 90.81133, "lat": 25.11167, "serial": 20748, "isUnique": 1, "field_11": null }, "geometry": { "type": "Point", "coordinates": [ 90.81133, 25.11167 ] } },