{
"type": "FeatureCollection",
"crs": { "type": "name", "properties": { "name": "urn:ogc:def:crs:OGC:1.3:CRS84" } },
"features": [
{ "type": "Feature", "properties": { "inst name": "CHAUMUHANI GOVT. S.A. COLLEGE", "eiin": 107253, "inst_type": "College", "district": "NOAKHALI", "thana": "BEGUMGANJ", "mauza": "PURBA GANIPUR", "long": 91.110756, "lat": 22.944416, "serial": 1586, "isUnique": 1, "field_11": null }, "geometry": { "type": "Point", "coordinates": [ 91.110756, 22.944416 ] } },
{ "type": "Feature", "properties": { "inst name": "KABIRHAT GOVT. COLLEGE", "eiin": 107655, "inst_type": "College", "district": "NOAKHALI", "thana": "KABIRHAT", "mauza": "ENAYET NAGAR", "long": 92.00526, "lat": 23.13706, "serial": 1587, "isUnique": 1, "field_11": null }, "geometry": { "type": "Point", "coordinates": [ 92.00526, 23.13706 ] } },
{ "type": "Feature", "properties": { "inst name": "CHAPRASHIR HAT ISMAIL COLLEGE", "eiin": 107656, "inst_type": "College", "district": "NOAKHALI", "thana": "KABIRHAT", "mauza": "UPARDI LAMCHHI", "long": 91.16506, "lat": 22.88075, "serial": 1588, "isUnique": 1, "field_11": null }, "geometry": { "type": "Point", "coordinates": [ 91.16506, 22.88075 ] } },
{ "type": "Feature", "properties": { "inst name": "HATIYA DEGREE COLLEGE", "eiin": 107463, "inst_type": "College", "district": "NOAKHALI", "thana": "HATIYA", "mauza": "CHAR ISHWAR ROY (PART-2)", "long": 91.13978, "lat": 22.31069, "serial": 1589, "isUnique": 1, "field_11": null }, "geometry": { "type": "Point", "coordinates": [ 91.13978, 22.31069 ] } },
{ "type": "Feature", "properties": { "inst name": "HATYA COMMUNITY COLLEGE", "eiin": 132033, "inst_type": "College", "district": "NOAKHALI", "thana": "HATIYA", "mauza": "JAHAJMARA", "long": 91.12153, "lat": 22.35403, "serial": 1590, "isUnique": 2, "field_11": null }, "geometry": { "type": "Point", "coordinates": [ 91.12153, 22.35403 ] } },
{ "type": "Feature", "properties": { "inst name": "ENGINEER MOHAMMAD FAZLUL AZIM MOHILA COLLEGE", "eiin": 107465, "inst_type": "College", "district": "NOAKHALI", "thana": "HATIYA", "mauza": "CHAR KAILASH (PART)", "long": 91.09608, "lat": 22.25492, "serial": 1591, "isUnique": 1, "field_11": null }, "geometry": { "type": "Point", "coordinates": [ 91.09608, 22.25492 ] } },
{ "type": "Feature", "properties": { "inst name": "SAIKAT DEGREE COLLEGE", "eiin": 107662, "inst_type": "College", "district": "NOAKHALI", "thana": "SUBARNACHAR", "mauza": "CHAR BATA", "long": 91.16897, "lat": 22.82572, "serial": 1592, "isUnique": 1, "field_11": null }, "geometry": { "type": "Point", "coordinates": [ 91.16897, 22.82572 ] } },
{ "type": "Feature", "properties": { "inst name": "CHAR JABBAR DEGREE COLLEGE", "eiin": 107663, "inst_type": "College", "district": "NOAKHALI", "thana": "SUBARNACHAR", "mauza": "CHAR JABBAR", "long": 91.03989, "lat": 22.66739, "serial": 1593, "isUnique": 1, "field_11": null }, "geometry": { "type": "Point", "coordinates": [ 91.03989, 22.66739 ] } },
{ "type": "Feature", "properties": { "inst name": "SONAIMURI COLLEGE", "eiin": 107413, "inst_type": "College", "district": "NOAKHALI", "thana": "SONAIMURI", "mauza": "BHANUAI", "long": 91.14506, "lat": 22.61406, "serial": 1594, "isUnique": 1, "field_11": null }, "geometry": { "type": "Point", "coordinates": [ 91.14506, 22.61406 ] } },
{ "type": "Feature", "properties": { "inst name": "KHALILUR RAHMAN DEGREE COLLEGE", "eiin": 107414, "inst_type": "College", "district": "NOAKHALI", "thana": "SONAIMURI", "mauza": "AMISHA PARA", "long": 91.03553, "lat": 22.97628, "serial": 1595, "isUnique": 1, "field_11": null }, "geometry": { "type": "Point", "coordinates": [ 91.03553, 22.97628 ] } },
{ "type": "Feature", "properties": { "inst name": "NANDIA PARA bir shrestha shahid md ruhul amin DEGREE COLLAGE", "eiin": 107415, "inst_type": "College", "district": "NOAKHALI", "thana": "SONAIMURI", "mauza": "NANDIA PARA", "long": 91.04144, "lat": 23.03919, "serial": 1596, "isUnique": 1, "field_11": null }, "geometry": { "type": "Point", "coordinates": [ 91.04144, 23.03919 ] } },
{ "type": "Feature", "properties": { "inst name": "JOYAG COLLEGE", "eiin": 107416, "inst_type": "College", "district": "NOAKHALI", "thana": "SONAIMURI", "mauza": "JAYAG", "long": 91.04661, "lat": 23.06258, "serial": 1597, "isUnique": 1, "field_11": null }, "geometry": { "type": "Point", "coordinates": [ 91.04661, 23.06258 ] } },
{ "type": "Feature", "properties": { "inst name": "CHATKHIL WOMENS COLLEGE", "eiin": 107309, "inst_type": "College", "district": "NOAKHALI", "thana": "CHATKHIL", "mauza": "CHATKHIL", "long": 90.97192, "lat": 23.06225, "serial": 1598, "isUnique": 1, "field_11": null }, "geometry": { "type": "Point", "coordinates": [ 90.97192, 23.06225 ] } },
{ "type": "Feature", "properties": { "inst name": "ABDUL WAHAB DEGREE COLLEGE", "eiin": 107311, "inst_type": "College", "district": "NOAKHALI", "thana": "CHATKHIL", "mauza": "MOZAD PARA", "long": 90.94744, "lat": 23.04736, "serial": 1599, "isUnique": 1, "field_11": null }, "geometry": { "type": "Point", "coordinates": [ 90.94744, 23.04736 ] } },
{ "type": "Feature", "properties": { "inst name": "CHATKHIL PANCHGAON MAHBUB GOVT. COLLEGE", "eiin": 107308, "inst_type": "College", "district": "NOAKHALI", "thana": "CHATKHIL", "mauza": "BARAI PARA", "long": 90.98903, "lat": 23.04289, "serial": 1600, "isUnique": 1, "field_11": null }, "geometry": { "type": "Point", "coordinates": [ 90.98903, 23.04289 ] } },
{ "type": "Feature", "properties": { "inst name": "SOMPARA COLLEGE", "eiin": 107310, "inst_type": "College", "district": "NOAKHALI", "thana": "CHATKHIL", "mauza": "GOPIRBAGH", "long": 90.93517, "lat": 22.99275, "serial": 1601, "isUnique": 1, "field_11": null }, "geometry": { "type": "Point", "coordinates": [ 90.93517, 22.99275 ] } },
{ "type": "Feature", "properties": { "inst name": "M. A. HASHEM COLLEGE", "eiin": 107256, "inst_type": "College", "district": "NOAKHALI", "thana": "BEGUMGANJ", "mauza": "ALAIAR PUR", "long": 91.18356, "lat": 22.98497, "serial": 1602, "isUnique": 1, "field_11": null }, "geometry": { "type": "Point", "coordinates": [ 91.18356, 22.98497 ] } },
{ "type": "Feature", "properties": { "inst name": "JALAL UDDIN COLLEGE", "eiin": 107254, "inst_type": "College", "district": "NOAKHALI", "thana": "BEGUMGANJ", "mauza": "UTTAR ALIPUR (KURI PARA)", "long": 91.20064, "lat": 22.92594, "serial": 1603, "isUnique": 1, "field_11": null }, "geometry": { "type": "Point", "coordinates": [ 91.20064, 22.92594 ] } },
{ "type": "Feature", "properties": { "inst name": "MAIJDEE PUBLIC COLLEGE", "eiin": 107661, "inst_type": "College", "district": "NOAKHALI", "thana": "NOAKHALI SADAR", "mauza": "JOYKRISHNAPUR", "long": 91.14272, "lat": 22.89869, "serial": 1604, "isUnique": 1, "field_11": null }, "geometry": { "type": "Point", "coordinates": [ 91.14272, 22.89869 ] } },
{ "type": "Feature", "properties": { "inst name": "NOAKHALI GOVERNMENT COLLEGE", "eiin": 107659, "inst_type": "College", "district": "NOAKHALI", "thana": "NOAKHALI SADAR", "mauza": "LAKSHMI NARAYANPUR (PART)", "long": 91.09672, "lat": 22.8555, "serial": 1605, "isUnique": 1, "field_11": null }, "geometry": { "type": "Point", "coordinates": [ 91.09672, 22.8555 ] } },
{ "type": "Feature", "properties": { "inst name": " NOAKHALI GOVT. MOHILA COLLEGE", "eiin": 107658, "inst_type": "College", "district": "NOAKHALI", "thana": "NOAKHALI SADAR", "mauza": "LAKSHI NARAANPUR (PART-A)", "long": 91.09658, "lat": 22.85786, "serial": 1606, "isUnique": 1, "field_11": null }, "geometry": { "type": "Point", "coordinates": [ 91.09658, 22.85786 ] } },
{ "type": "Feature", "properties": { "inst name": "SONAPUR COLLEGE", "eiin": 107657, "inst_type": "College", "district": "NOAKHALI", "thana": "NOAKHALI SADAR", "mauza": "SONAPUR", "long": 91.06586, "lat": 22.74839, "serial": 1607, "isUnique": 1, "field_11": null }, "geometry": { "type": "Point", "coordinates": [ 91.06586, 22.74839 ] } },
{ "type": "Feature", "properties": { "inst name": "CHAR MATUA COLLEGE", "eiin": 107665, "inst_type": "College", "district": "NOAKHALI", "thana": "NOAKHALI SADAR", "mauza": "NEWAZER DOGI", "long": 90.98281, "lat": 22.85044, "serial": 1608, "isUnique": 1, "field_11": null }, "geometry": { "type": "Point", "coordinates": [ 90.98281, 22.85044 ] } },
{ "type": "Feature", "properties": { "inst name": "BHULUA DEGREE COLLEGE", "eiin": 107664, "inst_type": "College", "district": "NOAKHALI", "thana": "NOAKHALI SADAR", "mauza": "DHANYAPUR", "long": 91.07181, "lat": 22.87872, "serial": 1609, "isUnique": 1, "field_11": null }, "geometry": { "type": "Point", "coordinates": [ 91.07181, 22.87872 ] } },
{ "type": "Feature", "properties": { "inst name": "MAJOR (RTD) ABDUL MANNAN COLLEGE", "eiin": 131927, "inst_type": "College", "district": "NOAKHALI", "thana": "NOAKHALI SADAR", "mauza": "CHAR URIYA", "long": 91.07894, "lat": 22.81289, "serial": 1610, "isUnique": 1, "field_11": null }, "geometry": { "type": "Point", "coordinates": [ 91.07894, 22.81289 ] } },
{ "type": "Feature", "properties": { "inst name": "BANDHER HAT A. M. COLLEGE", "eiin": 107660, "inst_type": "College", "district": "NOAKHALI", "thana": "NOAKHALI SADAR", "mauza": "ATASPUR", "long": 91.04519, "lat": 22.78489, "serial": 1611, "isUnique": 1, "field_11": null }, "geometry": { "type": "Point", "coordinates": [ 91.04519, 22.78489 ] } },
{ "type": "Feature", "properties": { "inst name": "GOVT. MUJIB COLLEGE", "eiin": 107359, "inst_type": "College", "district": "NOAKHALI", "thana": "COMPANIGANJ", "mauza": "CHAR PARBATI (PART)", "long": 91.27964, "lat": 22.87431, "serial": 1612, "isUnique": 1, "field_11": null }, "geometry": { "type": "Point", "coordinates": [ 91.27964, 22.87431 ] } },
{ "type": "Feature", "properties": { "inst name": "CHOWDHURY HAT COLLEGE", "eiin": 107360, "inst_type": "College", "district": "NOAKHALI", "thana": "COMPANIGANJ", "mauza": "CHAR PARBATI (PART)", "long": 91.3215, "lat": 22.90342, "serial": 1613, "isUnique": 1, "field_11": null }, "geometry": { "type": "Point", "coordinates": [ 91.3215, 22.90342 ] } },
{ "type": "Feature", "properties": { "inst name": "BAMNI COLLEGE", "eiin": 107358, "inst_type": "College", "district": "NOAKHALI", "thana": "COMPANIGANJ", "mauza": "RAMPUR", "long": 91.31089, "lat": 22.81244, "serial": 1614, "isUnique": 1, "field_11": null }, "geometry": { "type": "Point", "coordinates": [ 91.31089, 22.81244 ] } },
{ "type": "Feature", "properties": { "inst name": "SEBNAG GOVT. COLLEGE", "eiin": 107516, "inst_type": "College", "district": "NOAKHALI", "thana": "SENBAGH", "mauza": "CHANDPUR PART", "long": 91.25844, "lat": 22.86486, "serial": 1615, "isUnique": 1, "field_11": null }, "geometry": { "type": "Point", "coordinates": [ 91.25844, 22.86486 ] } },
{ "type": "Feature", "properties": { "inst name": "BALIAKANDI DEGREE COLLEGE", "eiin": 107518, "inst_type": "College", "district": "NOAKHALI", "thana": "SENBAGH", "mauza": "BALIAKANDI", "long": 91.23328, "lat": 22.98756, "serial": 1616, "isUnique": 1, "field_11": null }, "geometry": { "type": "Point", "coordinates": [ 91.23328, 22.98756 ] } },
{ "type": "Feature", "properties": { "inst name": "KANKIR HAT COLLEGE", "eiin": 107517, "inst_type": "College", "district": "NOAKHALI", "thana": "SENBAGH", "mauza": "MAJHIRKHIL", "long": 91.14208, "lat": 23.06461, "serial": 1617, "isUnique": 1, "field_11": null }, "geometry": { "type": "Point", "coordinates": [ 91.14208, 23.06461 ] } },
{ "type": "Feature", "properties": { "inst name": "HATIYA DWIP GOVT. COLLEGE", "eiin": 107464, "inst_type": "College", "district": "NOAKHALI", "thana": "HATIYA", "mauza": "CHAR ISHWAR ROY (PART 1)", "long": 91.10203, "lat": 22.54064, "serial": 1618, "isUnique": 2, "field_11": null }, "geometry": { "type": "Point", "coordinates": [ 91.10203, 22.54064 ] } },
{ "type": "Feature", "properties": { "inst name": "ASHRAFPUR RAHMANIA  DAKHIL MADRASHA", "eiin": 107648, "inst_type": "Madrasha", "district": "NOAKHALI", "thana": "KABIRHAT", "mauza": "BATAIYA", "long": 91.20481, "lat": 22.83675, "serial": 7962, "isUnique": 1, "field_11": null }, "geometry": { "type": "Point", "coordinates": [ 91.20481, 22.83675 ] } },
{ "type": "Feature", "properties": { "inst name": "CHAPRASHIR HAT A.ROB FAZIL MADRASHA", "eiin": 107612, "inst_type": "Madrasha", "district": "NOAKHALI", "thana": "KABIRHAT", "mauza": "UPARDI LAMCHHI", "long": 91.22747, "lat": 22.85689, "serial": 7963, "isUnique": 1, "field_11": null }, "geometry": { "type": "Point", "coordinates": [ 91.22747, 22.85689 ] } },
{ "type": "Feature", "properties": { "inst name": "SOUTH RAMESHWAR PUR AHAMADIA DAKHIL MADRASHA", "eiin": 107646, "inst_type": "Madrasha", "district": "NOAKHALI", "thana": "KABIRHAT", "mauza": "RAMESHWARPUR", "long": 91.21197, "lat": 22.87494, "serial": 7964, "isUnique": 1, "field_11": null }, "geometry": { "type": "Point", "coordinates": [ 91.21197, 22.87494 ] } },
{ "type": "Feature", "properties": { "inst name": "CHAR GULLA KHALI DAKHIL MADRASHA", "eiin": 107613, "inst_type": "Madrasha", "district": "NOAKHALI", "thana": "KABIRHAT", "mauza": "CHAR GULLAKHALI", "long": 91.22744, "lat": 22.87028, "serial": 7965, "isUnique": 1, "field_11": null }, "geometry": { "type": "Point", "coordinates": [ 91.22744, 22.87028 ] } },
{ "type": "Feature", "properties": { "inst name": "UTTAR NARATTAM PUR HAZI HAIDER A.DAKHIL MADRASHA", "eiin": 107641, "inst_type": "Madrasha", "district": "NOAKHALI", "thana": "KABIRHAT", "mauza": "NAROTTAMPUR", "long": 91.1775, "lat": 22.80083, "serial": 7966, "isUnique": 1, "field_11": null }, "geometry": { "type": "Point", "coordinates": [ 91.1775, 22.80083 ] } },
{ "type": "Feature", "properties": { "inst name": "CHANKHOLA ALAMIA ISLAMIA ALIM MADRASHA", "eiin": 107607, "inst_type": "Madrasha", "district": "NOAKHALI", "thana": "KABIRHAT", "mauza": "NAROTTAMPUR", "long": 91.19828, "lat": 22.81956, "serial": 7967, "isUnique": 1, "field_11": null }, "geometry": { "type": "Point", "coordinates": [ 91.19828, 22.81956 ] } },
{ "type": "Feature", "properties": { "inst name": "ABDULLAH MEARHAT HAMIDIA DAKHIL MADRASHA", "eiin": 107629, "inst_type": "Madrasha", "district": "NOAKHALI", "thana": "KABIRHAT", "mauza": "PURBA RAJURGAON", "long": 91.17214, "lat": 22.86244, "serial": 7968, "isUnique": 1, "field_11": null }, "geometry": { "type": "Point", "coordinates": [ 91.17214, 22.86244 ] } },
{ "type": "Feature", "properties": { "inst name": "CHOEMOHANI TABARKIA ISLAMIA ALIM MADRASHA", "eiin": 107457, "inst_type": "Madrasha", "district": "NOAKHALI", "thana": "HATIYA", "mauza": "GULLAKHALI (PART)", "long": 91.14086, "lat": 22.26486, "serial": 7970, "isUnique": 2, "field_11": null }, "geometry": { "type": "Point", "coordinates": [ 91.14086, 22.26486 ] } },
{ "type": "Feature", "properties": { "inst name": "CHAR KAILASH HADIA FAZIL MADRASAH", "eiin": 107452, "inst_type": "Madrasha", "district": "NOAKHALI", "thana": "HATIYA", "mauza": "CHAR KAILASH (PART)", "long": 91.14678, "lat": 22.28931, "serial": 7972, "isUnique": 1, "field_11": null }, "geometry": { "type": "Point", "coordinates": [ 91.14678, 22.28931 ] } },
{ "type": "Feature", "properties": { "inst name": "HATIYA DARUL ULUM KAMIL MADRASHA", "eiin": 107451, "inst_type": "Madrasha", "district": "NOAKHALI", "thana": "HATIYA", "mauza": "SURJYA MUKHE (PART)", "long": 91.14136, "lat": 22.28422, "serial": 7973, "isUnique": 2, "field_11": null }, "geometry": { "type": "Point", "coordinates": [ 91.14136, 22.28422 ] } },
{ "type": "Feature", "properties": { "inst name": "SUKCHAR AZAHARUL ULUM FAZIL MADRASHA", "eiin": 107454, "inst_type": "Madrasha", "district": "NOAKHALI", "thana": "HATIYA", "mauza": "CHAR KAILASH (PART)", "long": 91.14136, "lat": 22.28678, "serial": 7975, "isUnique": 1, "field_11": null }, "geometry": { "type": "Point", "coordinates": [ 91.14136, 22.28678 ] } },
{ "type": "Feature", "properties": { "inst name": "CHARKING MOHAMMADIA DAKHIL MADRASAH", "eiin": 107455, "inst_type": "Madrasha", "district": "NOAKHALI", "thana": "HATIYA", "mauza": "CHAR ISHWAR ROY (PART)", "long": 91.09269, "lat": 22.32244, "serial": 7976, "isUnique": 1, "field_11": null }, "geometry": { "type": "Point", "coordinates": [ 91.09269, 22.32244 ] } },
{ "type": "Feature", "properties": { "inst name": "KHASHER HAT MAJEDIA GIRLS DAKHIL MADRASAH", "eiin": 107461, "inst_type": "Madrasha", "district": "NOAKHALI", "thana": "HATIYA", "mauza": "CHAR ISHWAR ROY (PART-2)", "long": 91.11533, "lat": 22.31339, "serial": 7977, "isUnique": 1, "field_11": null }, "geometry": { "type": "Point", "coordinates": [ 91.11533, 22.31339 ] } },
{ "type": "Feature", "properties": { "inst name": "JAHAJMARA MOHILA DAKHIL MADRASAH", "eiin": 107462, "inst_type": "Madrasha", "district": "NOAKHALI", "thana": "HATIYA", "mauza": "CHAR BIRBIRI", "long": 91.12933, "lat": 22.31383, "serial": 7978, "isUnique": 1, "field_11": null }, "geometry": { "type": "Point", "coordinates": [ 91.12933, 22.31383 ] } },
{ "type": "Feature", "properties": { "inst name": "BIRBIRI AKBARIA DAKHIL MADRASAH", "eiin": 107446, "inst_type": "Madrasha", "district": "NOAKHALI", "thana": "HATIYA", "mauza": "CHAR BIRBIRI", "long": 91.132, "lat": 22.33008, "serial": 7979, "isUnique": 1, "field_11": null }, "geometry": { "type": "Point", "coordinates": [ 91.132, 22.33008 ] } },
{ "type": "Feature", "properties": { "inst name": "HAZI FAZIL AHMED DAKHIL MADRASAH", "eiin": 107460, "inst_type": "Madrasha", "district": "NOAKHALI", "thana": "HATIYA", "mauza": "NUTAN SUKH CHAR", "long": 91.06194, "lat": 22.15444, "serial": 7981, "isUnique": 1, "field_11": null }, "geometry": { "type": "Point", "coordinates": [ 91.06194, 22.15444 ] } },
{ "type": "Feature", "properties": { "inst name": "CHAR CHANGA ISLAMIA FAZIL MADRASAH", "eiin": 107450, "inst_type": "Madrasha", "district": "NOAKHALI", "thana": "HATIYA", "mauza": "CHAR CHENGA", "long": 91.06092, "lat": 22.43778, "serial": 7983, "isUnique": 1, "field_11": null }, "geometry": { "type": "Point", "coordinates": [ 91.06092, 22.43778 ] } },
{ "type": "Feature", "properties": { "inst name": "MAIJCHARA GANIA ISLAMIA DAKHIL MADRASAH", "eiin": 107453, "inst_type": "Madrasha", "district": "NOAKHALI", "thana": "HATIYA", "mauza": "MAIJCHARA", "long": 91.09769, "lat": 22.37008, "serial": 7984, "isUnique": 2, "field_11": null }, "geometry": { "type": "Point", "coordinates": [ 91.09769, 22.37008 ] } },
{ "type": "Feature", "properties": { "inst name": "SONADIA A.BARI DAKHIL MADRASAH", "eiin": 107459, "inst_type": "Madrasha", "district": "NOAKHALI", "thana": "HATIYA", "mauza": "SONADIA", "long": 91.06972, "lat": 22.22558, "serial": 7985, "isUnique": 1, "field_11": null }, "geometry": { "type": "Point", "coordinates": [ 91.06972, 22.22558 ] } },
{ "type": "Feature", "properties": { "inst name": "TAMARADDI AHMADIA FAZIL MADRASHA", "eiin": 107448, "inst_type": "Madrasha", "district": "NOAKHALI", "thana": "HATIYA", "mauza": "CHAR TAMARUDDIN", "long": 91.12042, "lat": 22.29131, "serial": 7987, "isUnique": 1, "field_11": null }, "geometry": { "type": "Point", "coordinates": [ 91.12042, 22.29131 ] } },
{ "type": "Feature", "properties": { "inst name": "CHAR BATA MOHILA MODEL DAKHIL MADRASHA", "eiin": 133744, "inst_type": "Madrasha", "district": "NOAKHALI", "thana": "SUBARNACHAR", "mauza": "CHAR BATA", "long": 91.08872, "lat": 22.2665, "serial": 7988, "isUnique": 2, "field_11": null }, "geometry": { "type": "Point", "coordinates": [ 91.08872, 22.2665 ] } },
{ "type": "Feature", "properties": { "inst name": "BANGLA BAZAR  DAKHIL MADRASHA", "eiin": 133743, "inst_type": "Madrasha", "district": "NOAKHALI", "thana": "SUBARNACHAR", "mauza": "DAKSHIN CHAR CLERK", "long": 91.12308, "lat": 22.62361, "serial": 7989, "isUnique": 1, "field_11": null }, "geometry": { "type": "Point", "coordinates": [ 91.12308, 22.62361 ] } },
{ "type": "Feature", "properties": { "inst name": "CHAR HASAN ISLAMIA DAKHIL MADRASHA", "eiin": 107652, "inst_type": "Madrasha", "district": "NOAKHALI", "thana": "SUBARNACHAR", "mauza": "CHAR HASAN", "long": 91.17778, "lat": 22.64517, "serial": 7990, "isUnique": 1, "field_11": null }, "geometry": { "type": "Point", "coordinates": [ 91.17778, 22.64517 ] } },
{ "type": "Feature", "properties": { "inst name": "CHAR JABBAR MAHMUDIA DAKHIL MADRASHA", "eiin": 107634, "inst_type": "Madrasha", "district": "NOAKHALI", "thana": "SUBARNACHAR", "mauza": "CHAR JABBAR", "long": 91.02847, "lat": 22.72194, "serial": 7991, "isUnique": 1, "field_11": null }, "geometry": { "type": "Point", "coordinates": [ 91.02847, 22.72194 ] } },
{ "type": "Feature", "properties": { "inst name": "ZAHAZMARA CHEWIAKHALI DAKHIL MADRASAH", "eiin": 107654, "inst_type": "Madrasha", "district": "NOAKHALI", "thana": "SUBARNACHAR", "mauza": "JAHAJMARA", "long": 91.08067, "lat": 22.70533, "serial": 7992, "isUnique": 1, "field_11": null }, "geometry": { "type": "Point", "coordinates": [ 91.08067, 22.70533 ] } },
{ "type": "Feature", "properties": { "inst name": "BAITUS SAIF ISLAMIA DAKHIL MADRASHA", "eiin": 107617, "inst_type": "Madrasha", "district": "NOAKHALI", "thana": "SUBARNACHAR", "mauza": "UTTAR CHAR BAGGA", "long": 91.05689, "lat": 22.69028, "serial": 7993, "isUnique": 1, "field_11": null }, "geometry": { "type": "Point", "coordinates": [ 91.05689, 22.69028 ] } },
{ "type": "Feature", "properties": { "inst name": "CHAR JUBILEE RABBANIA FAZIL MADRASHA", "eiin": 107624, "inst_type": "Madrasha", "district": "NOAKHALI", "thana": "SUBARNACHAR", "mauza": "CHAR JUBILEE", "long": 91.07528, "lat": 22.67292, "serial": 7994, "isUnique": 1, "field_11": null }, "geometry": { "type": "Point", "coordinates": [ 91.07528, 22.67292 ] } },
{ "type": "Feature", "properties": { "inst name": "CHAR CLARKE ISLAMIA DAKHIL MADRASAH", "eiin": 107627, "inst_type": "Madrasha", "district": "NOAKHALI", "thana": "SUBARNACHAR", "mauza": "CHAR TORABALI", "long": 91.05467, "lat": 22.65731, "serial": 7995, "isUnique": 1, "field_11": null }, "geometry": { "type": "Point", "coordinates": [ 91.05467, 22.65731 ] } },
{ "type": "Feature", "properties": { "inst name": "CHARHATA ISLAMIA ALIM MADRASHA", "eiin": 107625, "inst_type": "Madrasha", "district": "NOAKHALI", "thana": "SUBARNACHAR", "mauza": "HAJIPUR", "long": 91.09864, "lat": 22.66081, "serial": 7996, "isUnique": 1, "field_11": null }, "geometry": { "type": "Point", "coordinates": [ 91.09864, 22.66081 ] } },
{ "type": "Feature", "properties": { "inst name": "KATHALI ISLAMIA DAKHIL MADRASHA", "eiin": 131566, "inst_type": "Madrasha", "district": "NOAKHALI", "thana": "SONAIMURI", "mauza": "KATHALI", "long": 91.15694, "lat": 22.61714, "serial": 7997, "isUnique": 1, "field_11": null }, "geometry": { "type": "Point", "coordinates": [ 91.15694, 22.61714 ] } },
{ "type": "Feature", "properties": { "inst name": "UTTAR WASEKPUR MOHAMMADIA GIRLS DAKHIL MADRASHA", "eiin": 107404, "inst_type": "Madrasha", "district": "NOAKHALI", "thana": "SONAIMURI", "mauza": "WASEKPUR", "long": 91.11497, "lat": 23.04844, "serial": 7998, "isUnique": 1, "field_11": null }, "geometry": { "type": "Point", "coordinates": [ 91.11497, 23.04844 ] } },
{ "type": "Feature", "properties": { "inst name": "ABIR PARA DAKHIL MADRASHA", "eiin": 107400, "inst_type": "Madrasha", "district": "NOAKHALI", "thana": "SONAIMURI", "mauza": "ABIR PARA", "long": 91.15406, "lat": 23.00697, "serial": 7999, "isUnique": 1, "field_11": null }, "geometry": { "type": "Point", "coordinates": [ 91.15406, 23.00697 ] } },
{ "type": "Feature", "properties": { "inst name": "KHALILUR RAHAMAN KAMIL MADRASHA", "eiin": 107398, "inst_type": "Madrasha", "district": "NOAKHALI", "thana": "SONAIMURI", "mauza": "BHADRAGRAM", "long": 91.03808, "lat": 23.00372, "serial": 8000, "isUnique": 1, "field_11": null }, "geometry": { "type": "Point", "coordinates": [ 91.03808, 23.00372 ] } },
{ "type": "Feature", "properties": { "inst name": "PODIPARA ISLAMIA SENIOR FAZIL MADRASHA", "eiin": 107401, "inst_type": "Madrasha", "district": "NOAKHALI", "thana": "SONAIMURI", "mauza": "PADI PARA", "long": 91.02458, "lat": 22.99, "serial": 8001, "isUnique": 1, "field_11": null }, "geometry": { "type": "Point", "coordinates": [ 91.02458, 22.99 ] } },
{ "type": "Feature", "properties": { "inst name": "MANIKKANAGAR WOMEN  DHAKIL MADRASHA", "eiin": 107408, "inst_type": "Madrasha", "district": "NOAKHALI", "thana": "SONAIMURI", "mauza": "MANIKYANAGAR", "long": 91.02008, "lat": 23.00783, "serial": 8002, "isUnique": 1, "field_11": null }, "geometry": { "type": "Point", "coordinates": [ 91.02008, 23.00783 ] } },
{ "type": "Feature", "properties": { "inst name": "HOSSAINPUR DARUSSUNNAH ISLAMIA ALIM MADRASHA", "eiin": 107406, "inst_type": "Madrasha", "district": "NOAKHALI", "thana": "SONAIMURI", "mauza": "UTTAR MIRZANAGAR", "long": 91.03894, "lat": 23.00506, "serial": 8003, "isUnique": 1, "field_11": null }, "geometry": { "type": "Point", "coordinates": [ 91.03894, 23.00506 ] } },
{ "type": "Feature", "properties": { "inst name": "KASHIPUR MUHAMMADIA FAZIL MADRASHA", "eiin": 107395, "inst_type": "Madrasha", "district": "NOAKHALI", "thana": "SONAIMURI", "mauza": "KASHIPUR", "long": 91.02719, "lat": 22.99686, "serial": 8004, "isUnique": 1, "field_11": null }, "geometry": { "type": "Point", "coordinates": [ 91.02719, 22.99686 ] } },
{ "type": "Feature", "properties": { "inst name": "TALIMUL ISLAM DAKHIL MADRASHA", "eiin": 107412, "inst_type": "Madrasha", "district": "NOAKHALI", "thana": "SONAIMURI", "mauza": "RAJIBPUR", "long": 91.03275, "lat": 23.00833, "serial": 8005, "isUnique": 1, "field_11": null }, "geometry": { "type": "Point", "coordinates": [ 91.03275, 23.00833 ] } },
{ "type": "Feature", "properties": { "inst name": "BEGUM KHALEDA ZIA MOHILA DAKHIL MADRASHA", "eiin": 107409, "inst_type": "Madrasha", "district": "NOAKHALI", "thana": "SONAIMURI", "mauza": "BAGADIA", "long": 91.12289, "lat": 23.02547, "serial": 8006, "isUnique": 1, "field_11": null }, "geometry": { "type": "Point", "coordinates": [ 91.12289, 23.02547 ] } },
{ "type": "Feature", "properties": { "inst name": "NANDIA PARA A. U. SENIOR MADRASHA", "eiin": 107403, "inst_type": "Madrasha", "district": "NOAKHALI", "thana": "SONAIMURI", "mauza": "NANDIA PARA", "long": 91.01436, "lat": 23.01936, "serial": 8007, "isUnique": 1, "field_11": null }, "geometry": { "type": "Point", "coordinates": [ 91.01436, 23.01936 ] } },
{ "type": "Feature", "properties": { "inst name": "PITAMBER PUR MOWLAVI RAFIQ ULLAH DAKHIL MADRASHA", "eiin": 107410, "inst_type": "Madrasha", "district": "NOAKHALI", "thana": "SONAIMURI", "mauza": "PITAMBARPUR", "long": 91.04706, "lat": 23.03744, "serial": 8008, "isUnique": 1, "field_11": null }, "geometry": { "type": "Point", "coordinates": [ 91.04706, 23.03744 ] } },
{ "type": "Feature", "properties": { "inst name": "DHANNAYPUR GIRLS DAKHIL MADRASHA", "eiin": 107651, "inst_type": "Madrasha", "district": "NOAKHALI", "thana": "SONAIMURI", "mauza": "DHANYAPUR", "long": 91.04936, "lat": 23.06214, "serial": 8009, "isUnique": 1, "field_11": null }, "geometry": { "type": "Point", "coordinates": [ 91.04936, 23.06214 ] } },
{ "type": "Feature", "properties": { "inst name": "JOYAG RASHIDIA ALIM MADRASHA", "eiin": 107397, "inst_type": "Madrasha", "district": "NOAKHALI", "thana": "SONAIMURI", "mauza": "JAYAG", "long": 91.03656, "lat": 23.05686, "serial": 8010, "isUnique": 1, "field_11": null }, "geometry": { "type": "Point", "coordinates": [ 91.03656, 23.05686 ] } },
{ "type": "Feature", "properties": { "inst name": "THANAR HAT ISLAMIA ALIM MADRASAH", "eiin": 107399, "inst_type": "Madrasha", "district": "NOAKHALI", "thana": "SONAIMURI", "mauza": "MAHUTALA", "long": 91.05411, "lat": 23.00356, "serial": 8011, "isUnique": 1, "field_11": null }, "geometry": { "type": "Point", "coordinates": [ 91.05411, 23.00356 ] } },
{ "type": "Feature", "properties": { "inst name": "SONUA NAZMUL ULUM DAKHIL MADRASHA", "eiin": 107402, "inst_type": "Madrasha", "district": "NOAKHALI", "thana": "SONAIMURI", "mauza": "ENAYETPUR", "long": 91.06289, "lat": 23.00275, "serial": 8012, "isUnique": 1, "field_11": null }, "geometry": { "type": "Point", "coordinates": [ 91.06289, 23.00275 ] } },
{ "type": "Feature", "properties": { "inst name": "AMKI MOHILA ALIM MADRASHA", "eiin": 107411, "inst_type": "Madrasha", "district": "NOAKHALI", "thana": "SONAIMURI", "mauza": "AMKI", "long": 91.01256, "lat": 23.06322, "serial": 8013, "isUnique": 1, "field_11": null }, "geometry": { "type": "Point", "coordinates": [ 91.01256, 23.06322 ] } },
{ "type": "Feature", "properties": { "inst name": "SHAKTOLA SIDDIKIA ISLAMIA ALIM MADRASHA", "eiin": 107407, "inst_type": "Madrasha", "district": "NOAKHALI", "thana": "SONAIMURI", "mauza": "SAKTALA", "long": 91.04844, "lat": 23.05244, "serial": 8014, "isUnique": 1, "field_11": null }, "geometry": { "type": "Point", "coordinates": [ 91.04844, 23.05244 ] } },
{ "type": "Feature", "properties": { "inst name": "ABDULLAH HAT ISLAMIA FAZIL MADRASAH", "eiin": 107405, "inst_type": "Madrasha", "district": "NOAKHALI", "thana": "SONAIMURI", "mauza": "NATESHWAR", "long": 91.07756, "lat": 23.06233, "serial": 8015, "isUnique": 1, "field_11": null }, "geometry": { "type": "Point", "coordinates": [ 91.07756, 23.06233 ] } },
{ "type": "Feature", "properties": { "inst name": "FATEHPUR SIRAJUM MONIR DAKHIL MADRASHA", "eiin": 107294, "inst_type": "Madrasha", "district": "NOAKHALI", "thana": "CHATKHIL", "mauza": "FATEHPUR", "long": 91.14408, "lat": 22.98975, "serial": 8016, "isUnique": 1, "field_11": null }, "geometry": { "type": "Point", "coordinates": [ 91.14408, 22.98975 ] } },
{ "type": "Feature", "properties": { "inst name": "CHATKHIL KAMIL MADRASHA", "eiin": 107295, "inst_type": "Madrasha", "district": "NOAKHALI", "thana": "CHATKHIL", "mauza": "BHIMPUR (PART)", "long": 91.2475, "lat": 23.03869, "serial": 8017, "isUnique": 1, "field_11": null }, "geometry": { "type": "Point", "coordinates": [ 91.2475, 23.03869 ] } },
{ "type": "Feature", "properties": { "inst name": "KARI IBRAHIM M0HILA DAKHIL MADRASAH", "eiin": 107305, "inst_type": "Madrasha", "district": "NOAKHALI", "thana": "CHATKHIL", "mauza": "NEWAZPUR (DAULATPUR)", "long": 91.09814, "lat": 23.00036, "serial": 8018, "isUnique": 1, "field_11": null }, "geometry": { "type": "Point", "coordinates": [ 91.09814, 23.00036 ] } },
{ "type": "Feature", "properties": { "inst name": "CHATKHIL MOHILA DAKHIL MADRASA", "eiin": 131692, "inst_type": "Madrasha", "district": "NOAKHALI", "thana": "CHATKHIL", "mauza": "CHATKHIL", "long": 90.96214, "lat": 23.07689, "serial": 8019, "isUnique": 1, "field_11": null }, "geometry": { "type": "Point", "coordinates": [ 90.96214, 23.07689 ] } },
{ "type": "Feature", "properties": { "inst name": "HIRAPUR ALIM MADRASAH", "eiin": 107299, "inst_type": "Madrasha", "district": "NOAKHALI", "thana": "CHATKHIL", "mauza": "HIRAPUR", "long": 90.96947, "lat": 23.05964, "serial": 8020, "isUnique": 1, "field_11": null }, "geometry": { "type": "Point", "coordinates": [ 90.96947, 23.05964 ] } },
{ "type": "Feature", "properties": { "inst name": "ISLAMPUR HOSSAINIA DAKHIL MADRASAH", "eiin": 107302, "inst_type": "Madrasha", "district": "NOAKHALI", "thana": "CHATKHIL", "mauza": "MURAIM", "long": 90.97869, "lat": 23.11183, "serial": 8021, "isUnique": 1, "field_11": null }, "geometry": { "type": "Point", "coordinates": [ 90.97869, 23.11183 ] } },
{ "type": "Feature", "properties": { "inst name": "DOKHIN GHATL ABAG MOHILA DHAKHIL MADRASHA", "eiin": 107304, "inst_type": "Madrasha", "district": "NOAKHALI", "thana": "CHATKHIL", "mauza": "GHATLABAGH", "long": 90.97214, "lat": 23.12231, "serial": 8022, "isUnique": 1, "field_11": null }, "geometry": { "type": "Point", "coordinates": [ 90.97214, 23.12231 ] } },
{ "type": "Feature", "properties": { "inst name": "GHATLABAG KASHURBAG R.GONJ ASHRAFI D\/MADRASHA", "eiin": 107298, "inst_type": "Madrasha", "district": "NOAKHALI", "thana": "CHATKHIL", "mauza": "GHATLABAGH", "long": 90.98017, "lat": 23.11544, "serial": 8023, "isUnique": 1, "field_11": null }, "geometry": { "type": "Point", "coordinates": [ 90.98017, 23.11544 ] } },
{ "type": "Feature", "properties": { "inst name": "MOLLAKER DIGHIR PAR FAZIL MADRASHA", "eiin": 107300, "inst_type": "Madrasha", "district": "NOAKHALI", "thana": "CHATKHIL", "mauza": "PURBA KHIL PARA", "long": 90.93553, "lat": 23.03575, "serial": 8024, "isUnique": 1, "field_11": null }, "geometry": { "type": "Point", "coordinates": [ 90.93553, 23.03575 ] } },
{ "type": "Feature", "properties": { "inst name": "DAKKHIN DELIAI HASEMIA DHAKIL MADRASHA", "eiin": 107293, "inst_type": "Madrasha", "district": "NOAKHALI", "thana": "CHATKHIL", "mauza": "DELIAI", "long": 90.94142, "lat": 23.04547, "serial": 8025, "isUnique": 1, "field_11": null }, "geometry": { "type": "Point", "coordinates": [ 90.94142, 23.04547 ] } },
{ "type": "Feature", "properties": { "inst name": "FOYJUN NESA MOHILA DAKHIL MADRASAH", "eiin": 107307, "inst_type": "Madrasha", "district": "NOAKHALI", "thana": "CHATKHIL", "mauza": "NAHARKHIL", "long": 90.95558, "lat": 23.00964, "serial": 8026, "isUnique": 1, "field_11": null }, "geometry": { "type": "Point", "coordinates": [ 90.95558, 23.00964 ] } },
{ "type": "Feature", "properties": { "inst name": "SREE RAY MOHILA ALIM  MADRASAH", "eiin": 107303, "inst_type": "Madrasha", "district": "NOAKHALI", "thana": "CHATKHIL", "mauza": "PURBA KHIL PARA", "long": 90.95317, "lat": 23.00792, "serial": 8027, "isUnique": 1, "field_11": null }, "geometry": { "type": "Point", "coordinates": [ 90.95317, 23.00792 ] } },
{ "type": "Feature", "properties": { "inst name": "MOHAMMADPUR ANOWAR ALI ISLAMIA alim MADRASAH", "eiin": 107289, "inst_type": "Madrasha", "district": "NOAKHALI", "thana": "CHATKHIL", "mauza": "MOHAMMADPUR", "long": 90.99528, "lat": 23.10983, "serial": 8028, "isUnique": 1, "field_11": null }, "geometry": { "type": "Point", "coordinates": [ 90.99528, 23.10983 ] } },
{ "type": "Feature", "properties": { "inst name": "KARIHATI SALEMIA FAZIL MADRASAH", "eiin": 107291, "inst_type": "Madrasha", "district": "NOAKHALI", "thana": "CHATKHIL", "mauza": "BHARATPUR", "long": 91.01453, "lat": 23.09908, "serial": 8029, "isUnique": 1, "field_11": null }, "geometry": { "type": "Point", "coordinates": [ 91.01453, 23.09908 ] } },
{ "type": "Feature", "properties": { "inst name": "TALTALA ISLAMIA MOHILA  ALIM MADRASHA", "eiin": 107292, "inst_type": "Madrasha", "district": "NOAKHALI", "thana": "CHATKHIL", "mauza": "SATRA PARA", "long": 90.9895, "lat": 23.09433, "serial": 8030, "isUnique": 1, "field_11": null }, "geometry": { "type": "Point", "coordinates": [ 90.9895, 23.09433 ] } },
{ "type": "Feature", "properties": { "inst name": "SHADHURKHIL A I DAKHIL MADRASHA", "eiin": 107288, "inst_type": "Madrasha", "district": "NOAKHALI", "thana": "CHATKHIL", "mauza": "SADHURKHIL", "long": 90.95233, "lat": 23.02764, "serial": 8031, "isUnique": 1, "field_11": null }, "geometry": { "type": "Point", "coordinates": [ 90.95233, 23.02764 ] } },
{ "type": "Feature", "properties": { "inst name": "RUHITKHALI ISLAMIA MOHILA DAKHIL MADRASAH", "eiin": 107290, "inst_type": "Madrasha", "district": "NOAKHALI", "thana": "CHATKHIL", "mauza": "ROHITKHALI", "long": 90.9885, "lat": 23.05353, "serial": 8032, "isUnique": 1, "field_11": null }, "geometry": { "type": "Point", "coordinates": [ 90.9885, 23.05353 ] } },
{ "type": "Feature", "properties": { "inst name": "KHOWAZER BHITI FAZIL MADRASAH", "eiin": 107296, "inst_type": "Madrasha", "district": "NOAKHALI", "thana": "CHATKHIL", "mauza": "GOPIRBAGH", "long": 90.9415, "lat": 23.01014, "serial": 8033, "isUnique": 1, "field_11": null }, "geometry": { "type": "Point", "coordinates": [ 90.9415, 23.01014 ] } },
{ "type": "Feature", "properties": { "inst name": "MOMINPUR DAKHIL MADRASAH", "eiin": 107301, "inst_type": "Madrasha", "district": "NOAKHALI", "thana": "CHATKHIL", "mauza": "MAMINPUR", "long": 90.91528, "lat": 23.02292, "serial": 8034, "isUnique": 1, "field_11": null }, "geometry": { "type": "Point", "coordinates": [ 90.91528, 23.02292 ] } },
{ "type": "Feature", "properties": { "inst name": "AL-MANAR CADET MADRASAH", "eiin": 131558, "inst_type": "Madrasha", "district": "NOAKHALI", "thana": "BEGUMGANJ", "mauza": "MIR WARISHPUR", "long": 90.92542, "lat": 23.02369, "serial": 8035, "isUnique": 1, "field_11": null }, "geometry": { "type": "Point", "coordinates": [ 90.92542, 23.02369 ] } },
{ "type": "Feature", "properties": { "inst name": "MIDDLE NAZIRPUR AZIZIA ISLAMIA DAKHIL MADRASHA", "eiin": 107249, "inst_type": "Madrasha", "district": "NOAKHALI", "thana": "BEGUMGANJ", "mauza": "MADDHA NAZIRPUR (PART-2)", "long": 90.89458, "lat": 23.03139, "serial": 8036, "isUnique": 1, "field_11": null }, "geometry": { "type": "Point", "coordinates": [ 90.89458, 23.03139 ] } },
{ "type": "Feature", "properties": { "inst name": "K  .M   BoHUMoKHI  ADARSHA  mohila  ALIM   MADRASha", "eiin": 107246, "inst_type": "Madrasha", "district": "NOAKHALI", "thana": "BEGUMGANJ", "mauza": "KARIMPUR", "long": 91.10481, "lat": 22.94053, "serial": 8037, "isUnique": 1, "field_11": null }, "geometry": { "type": "Point", "coordinates": [ 91.10481, 22.94053 ] } },
{ "type": "Feature", "properties": { "inst name": "JOYNARAYaNpur ISLaMIA FAZIL degree MADRASAh", "eiin": 107225, "inst_type": "Madrasha", "district": "NOAKHALI", "thana": "BEGUMGANJ", "mauza": "MOHAMMADPUR", "long": 91.11275, "lat": 22.947, "serial": 8038, "isUnique": 1, "field_11": null }, "geometry": { "type": "Point", "coordinates": [ 91.11275, 22.947 ] } },
{ "type": "Feature", "properties": { "inst name": "AMANULLAHPUR DARUSSALAM MOHILA DAKHIL MADRASHA", "eiin": 107241, "inst_type": "Madrasha", "district": "NOAKHALI", "thana": "BEGUMGANJ", "mauza": "AMANULLAPUR", "long": 91.02919, "lat": 22.95681, "serial": 8039, "isUnique": 1, "field_11": null }, "geometry": { "type": "Point", "coordinates": [ 91.02919, 22.95681 ] } },
{ "type": "Feature", "properties": { "inst name": "BALUCHARA HASANIA ALIM MADRASAH", "eiin": 107244, "inst_type": "Madrasha", "district": "NOAKHALI", "thana": "BEGUMGANJ", "mauza": "BALU CHAR", "long": 91.02439, "lat": 22.95639, "serial": 8040, "isUnique": 1, "field_11": null }, "geometry": { "type": "Point", "coordinates": [ 91.02439, 22.95639 ] } },
{ "type": "Feature", "properties": { "inst name": "DIThPUR DARUL ULUM DAKHIL MADRASAH", "eiin": 107247, "inst_type": "Madrasha", "district": "NOAKHALI", "thana": "BEGUMGANJ", "mauza": "CHHOTA SONAIMURI", "long": 91.086, "lat": 22.89922, "serial": 8041, "isUnique": 1, "field_11": null }, "geometry": { "type": "Point", "coordinates": [ 91.086, 22.89922 ] } },
{ "type": "Feature", "properties": { "inst name": "CHANDRAGANJ  KARAMATIA   KAMIL  MADRASah", "eiin": 107228, "inst_type": "Madrasha", "district": "NOAKHALI", "thana": "BEGUMGANJ", "mauza": "MOHAMMADPUR", "long": 90.99519, "lat": 22.91714, "serial": 8042, "isUnique": 1, "field_11": null }, "geometry": { "type": "Point", "coordinates": [ 90.99519, 22.91714 ] } },
{ "type": "Feature", "properties": { "inst name": "HAJRAT UMMe HANe MOHILA DAKHIL MADRASHA", "eiin": 131554, "inst_type": "Madrasha", "district": "NOAKHALI", "thana": "BEGUMGANJ", "mauza": "CHHOTA KHANPUR", "long": 91.00058, "lat": 22.94794, "serial": 8043, "isUnique": 1, "field_11": null }, "geometry": { "type": "Point", "coordinates": [ 91.00058, 22.94794 ] } },
{ "type": "Feature", "properties": { "inst name": "KACHIHATA    ISLAMIA   DAKHIL   mADRASah", "eiin": 107396, "inst_type": "Madrasha", "district": "NOAKHALI", "thana": "BEGUMGANJ", "mauza": "KACHIHATA", "long": 91.04325, "lat": 22.96331, "serial": 8044, "isUnique": 1, "field_11": null }, "geometry": { "type": "Point", "coordinates": [ 91.04325, 22.96331 ] } },
{ "type": "Feature", "properties": { "inst name": "WEST BHABANI JIBANPUR DAKHIL MADRASAH", "eiin": 107243, "inst_type": "Madrasha", "district": "NOAKHALI", "thana": "BEGUMGANJ", "mauza": "BHABANI JIBANPUR", "long": 91.00047, "lat": 22.94761, "serial": 8045, "isUnique": 1, "field_11": null }, "geometry": { "type": "Point", "coordinates": [ 91.00047, 22.94761 ] } },
{ "type": "Feature", "properties": { "inst name": "CHhAYANI IMAMIA FAZIL MADRASah", "eiin": 107223, "inst_type": "Madrasha", "district": "NOAKHALI", "thana": "BEGUMGANJ", "mauza": "LAKSHMANPUR", "long": 91.02953, "lat": 22.97528, "serial": 8046, "isUnique": 1, "field_11": null }, "geometry": { "type": "Point", "coordinates": [ 91.02953, 22.97528 ] } },
{ "type": "Feature", "properties": { "inst name": "NITTANANDA PUR DARUL ULUM MOHILA ALIM MADRASAH.", "eiin": 107242, "inst_type": "Madrasha", "district": "NOAKHALI", "thana": "BEGUMGANJ", "mauza": "NITYANANDAPUR", "long": 91.08867, "lat": 22.93853, "serial": 8047, "isUnique": 1, "field_11": null }, "geometry": { "type": "Point", "coordinates": [ 91.08867, 22.93853 ] } },
{ "type": "Feature", "properties": { "inst name": "N.W.DURGAPUR M.A.MaTIN ISLaMIA  DAKHIL MADRASah", "eiin": 107238, "inst_type": "Madrasha", "district": "NOAKHALI", "thana": "BEGUMGANJ", "mauza": "DURGAPUR", "long": 91.01078, "lat": 22.89764, "serial": 8048, "isUnique": 1, "field_11": null }, "geometry": { "type": "Point", "coordinates": [ 91.01078, 22.89764 ] } },
{ "type": "Feature", "properties": { "inst name": "MOHAMMADIA ISLAMIA DAKHIL MADRASHA", "eiin": 107250, "inst_type": "Madrasha", "district": "NOAKHALI", "thana": "BEGUMGANJ", "mauza": "LAKSHMI NARAYANPUR", "long": 91.01186, "lat": 22.89881, "serial": 8049, "isUnique": 1, "field_11": null }, "geometry": { "type": "Point", "coordinates": [ 91.01186, 22.89881 ] } },
{ "type": "Feature", "properties": { "inst name": "EKLASHPUR  FAZIL  MADRASHA", "eiin": 107229, "inst_type": "Madrasha", "district": "NOAKHALI", "thana": "BEGUMGANJ", "mauza": "KISMAT KARIMPUR", "long": 91.13206, "lat": 22.97178, "serial": 8050, "isUnique": 1, "field_11": null }, "geometry": { "type": "Point", "coordinates": [ 91.13206, 22.97178 ] } },
{ "type": "Feature", "properties": { "inst name": "PASCHIM ANNANTAPUR ISLAMIA ALIM MADRASah", "eiin": 107245, "inst_type": "Madrasha", "district": "NOAKHALI", "thana": "BEGUMGANJ", "mauza": "ANANTAPUR", "long": 91.14769, "lat": 22.94342, "serial": 8051, "isUnique": 1, "field_11": null }, "geometry": { "type": "Point", "coordinates": [ 91.14769, 22.94342 ] } },
{ "type": "Feature", "properties": { "inst name": "HAZRAT KHADIJATUl KOBRA DAKHIL GIRLS MADRASHA", "eiin": 107248, "inst_type": "Madrasha", "district": "NOAKHALI", "thana": "BEGUMGANJ", "mauza": "EKLASHPUR (PART)", "long": 91.10181, "lat": 22.91097, "serial": 8052, "isUnique": 1, "field_11": null }, "geometry": { "type": "Point", "coordinates": [ 91.10181, 22.91097 ] } },
{ "type": "Feature", "properties": { "inst name": "RAMNAT PUR ISLAMIA DhAKIL MADRASHA", "eiin": 131559, "inst_type": "Madrasha", "district": "NOAKHALI", "thana": "BEGUMGANJ", "mauza": "RAMNATHPUR", "long": 91.10161, "lat": 22.91022, "serial": 8053, "isUnique": 1, "field_11": null }, "geometry": { "type": "Point", "coordinates": [ 91.10161, 22.91022 ] } },
{ "type": "Feature", "properties": { "inst name": "BASANTABaG ISLAMIA FAZIL MADRASah", "eiin": 107227, "inst_type": "Madrasha", "district": "NOAKHALI", "thana": "BEGUMGANJ", "mauza": "BASANTERBAGH", "long": 90.087, "lat": 22.89189, "serial": 8054, "isUnique": 1, "field_11": null }, "geometry": { "type": "Point", "coordinates": [ 90.087, 22.89189 ] } },
{ "type": "Feature", "properties": { "inst name": "MODHUPUR ISLAMIA DAKHIL MADRASha", "eiin": 131620, "inst_type": "Madrasha", "district": "NOAKHALI", "thana": "BEGUMGANJ", "mauza": "MADHUPUR", "long": 91.10706, "lat": 22.91372, "serial": 8055, "isUnique": 1, "field_11": null }, "geometry": { "type": "Point", "coordinates": [ 91.10706, 22.91372 ] } },
{ "type": "Feature", "properties": { "inst name": "UTTAR HAZIPUR ISLAMIA DAKHIL MADRASAH", "eiin": 107237, "inst_type": "Madrasha", "district": "NOAKHALI", "thana": "BEGUMGANJ", "mauza": "HAJIPUR", "long": 91.05528, "lat": 22.97461, "serial": 8056, "isUnique": 1, "field_11": null }, "geometry": { "type": "Point", "coordinates": [ 91.05528, 22.97461 ] } },
{ "type": "Feature", "properties": { "inst name": "CHOUMUHoNI ISLAMIA FAZIL degree MADRASAH", "eiin": 107239, "inst_type": "Madrasha", "district": "NOAKHALI", "thana": "BEGUMGANJ", "mauza": "MADHYA HAZIPUR", "long": 91.04989, "lat": 22.94725, "serial": 8057, "isUnique": 1, "field_11": null }, "geometry": { "type": "Point", "coordinates": [ 91.04989, 22.94725 ] } },
{ "type": "Feature", "properties": { "inst name": "BANGLA  BAZAR  MOHILA   DAKHIL  MADRASah", "eiin": 107251, "inst_type": "Madrasha", "district": "NOAKHALI", "thana": "BEGUMGANJ", "mauza": "BARUICHATAL", "long": 91.12389, "lat": 22.94708, "serial": 8058, "isUnique": 1, "field_11": null }, "geometry": { "type": "Point", "coordinates": [ 91.12389, 22.94708 ] } },
{ "type": "Feature", "properties": { "inst name": "GHATLA ALIM MADRASHA", "eiin": 107230, "inst_type": "Madrasha", "district": "NOAKHALI", "thana": "BEGUMGANJ", "mauza": "IARPUR", "long": 91.05447, "lat": 22.94328, "serial": 8059, "isUnique": 1, "field_11": null }, "geometry": { "type": "Point", "coordinates": [ 91.05447, 22.94328 ] } },
{ "type": "Feature", "properties": { "inst name": "SHOHID AHMED ALI MOHILA DAKHIL MADRASah", "eiin": 107252, "inst_type": "Madrasha", "district": "NOAKHALI", "thana": "BEGUMGANJ", "mauza": "KADIRPUR", "long": 91.16669, "lat": 22.88708, "serial": 8060, "isUnique": 1, "field_11": null }, "geometry": { "type": "Point", "coordinates": [ 91.16669, 22.88708 ] } },
{ "type": "Feature", "properties": { "inst name": "ALAIRPUR KAZIR HAT ISLAMIA DAKHIL MADRASAH", "eiin": 107232, "inst_type": "Madrasha", "district": "NOAKHALI", "thana": "BEGUMGANJ", "mauza": "ALAIAR PUR", "long": 91.16831, "lat": 22.92139, "serial": 8061, "isUnique": 1, "field_11": null }, "geometry": { "type": "Point", "coordinates": [ 91.16831, 22.92139 ] } },
{ "type": "Feature", "properties": { "inst name": "KUTUB PUR  ISLAMIA  ALIM   MADRASHA", "eiin": 107233, "inst_type": "Madrasha", "district": "NOAKHALI", "thana": "BEGUMGANJ", "mauza": "KUTUBPUR", "long": 91.18642, "lat": 22.89369, "serial": 8062, "isUnique": 1, "field_11": null }, "geometry": { "type": "Point", "coordinates": [ 91.18642, 22.89369 ] } },
{ "type": "Feature", "properties": { "inst name": "MIR AHMaDPUR FAZIL MADRASaH", "eiin": 107224, "inst_type": "Madrasha", "district": "NOAKHALI", "thana": "BEGUMGANJ", "mauza": "MIR AHMADPUR", "long": 91.16639, "lat": 22.90819, "serial": 8063, "isUnique": 1, "field_11": null }, "geometry": { "type": "Point", "coordinates": [ 91.16639, 22.90819 ] } },
{ "type": "Feature", "properties": { "inst name": "MIRWARISHPUR alim MADRASAH", "eiin": 107226, "inst_type": "Madrasha", "district": "NOAKHALI", "thana": "BEGUMGANJ", "mauza": "MIR WARISHPUR", "long": 91.17228, "lat": 22.96378, "serial": 8064, "isUnique": 1, "field_11": null }, "geometry": { "type": "Point", "coordinates": [ 91.17228, 22.96378 ] } },
{ "type": "Feature", "properties": { "inst name": "RAJGoNJ DARUL ULUM FAZIL MADRASah", "eiin": 107231, "inst_type": "Madrasha", "district": "NOAKHALI", "thana": "BEGUMGANJ", "mauza": "ALADINAGAR", "long": 90.10583, "lat": 22.95989, "serial": 8065, "isUnique": 1, "field_11": null }, "geometry": { "type": "Point", "coordinates": [ 90.10583, 22.95989 ] } },
{ "type": "Feature", "properties": { "inst name": "BAKIPUR SIDDIKIA DAKHIL MADRASah", "eiin": 107235, "inst_type": "Madrasha", "district": "NOAKHALI", "thana": "BEGUMGANJ", "mauza": "BAKIPUR", "long": 91.05222, "lat": 22.91456, "serial": 8066, "isUnique": 1, "field_11": null }, "geometry": { "type": "Point", "coordinates": [ 91.05222, 22.91456 ] } },
{ "type": "Feature", "properties": { "inst name": "ISLAMPUR dAKHIL MADRASah", "eiin": 107240, "inst_type": "Madrasha", "district": "NOAKHALI", "thana": "BEGUMGANJ", "mauza": "BABUNAGAR", "long": 91.18369, "lat": 22.95378, "serial": 8067, "isUnique": 1, "field_11": null }, "geometry": { "type": "Point", "coordinates": [ 91.18369, 22.95378 ] } },
{ "type": "Feature", "properties": { "inst name": "DARUL FALAH FAZIL MADRASHA", "eiin": 107234, "inst_type": "Madrasha", "district": "NOAKHALI", "thana": "BEGUMGANJ", "mauza": "BARA KHANPUR", "long": 91.19597, "lat": 22.95033, "serial": 8068, "isUnique": 1, "field_11": null }, "geometry": { "type": "Point", "coordinates": [ 91.19597, 22.95033 ] } },
{ "type": "Feature", "properties": { "inst name": "UTTAR SHARIFPUR KARAMOTIA DAKHIL MADRASAH", "eiin": 107236, "inst_type": "Madrasha", "district": "NOAKHALI", "thana": "BEGUMGANJ", "mauza": "BARA SHARIFPUR", "long": 91.12714, "lat": 22.88369, "serial": 8069, "isUnique": 1, "field_11": null }, "geometry": { "type": "Point", "coordinates": [ 91.12714, 22.88369 ] } },
{ "type": "Feature", "properties": { "inst name": "DARUL FALAH GIRLS DAKHIL MADRASHA", "eiin": 107222, "inst_type": "Madrasha", "district": "NOAKHALI", "thana": "BEGUMGANJ", "mauza": "DAKSHIN SONAPUR", "long": 91.13106, "lat": 22.9015, "serial": 8070, "isUnique": 1, "field_11": null }, "geometry": { "type": "Point", "coordinates": [ 91.13106, 22.9015 ] } },
{ "type": "Feature", "properties": { "inst name": "AL MADRASHATUD DEENIA DAKHIL MADRASHA", "eiin": 107621, "inst_type": "Madrasha", "district": "NOAKHALI", "thana": "NOAKHALI SADAR", "mauza": "HARINARAYANPUR", "long": 91.09725, "lat": 22.86125, "serial": 8071, "isUnique": 1, "field_11": null }, "geometry": { "type": "Point", "coordinates": [ 91.09725, 22.86125 ] } },
{ "type": "Feature", "properties": { "inst name": "KARAMOTIA KAMIL MADRASHA", "eiin": 107618, "inst_type": "Madrasha", "district": "NOAKHALI", "thana": "NOAKHALI SADAR", "mauza": "SONAPUR", "long": 91.09653, "lat": 22.85378, "serial": 8072, "isUnique": 1, "field_11": null }, "geometry": { "type": "Point", "coordinates": [ 91.09653, 22.85378 ] } },
{ "type": "Feature", "properties": { "inst name": "NOAKHALI ISLAMIA KAMIL MADRASHA", "eiin": 107619, "inst_type": "Madrasha", "district": "NOAKHALI", "thana": "NOAKHALI SADAR", "mauza": "SONAPUR", "long": 91.09767, "lat": 22.85058, "serial": 8073, "isUnique": 1, "field_11": null }, "geometry": { "type": "Point", "coordinates": [ 91.09767, 22.85058 ] } },
{ "type": "Feature", "properties": { "inst name": "UNDER CHAR RAHMANIA DAKHIL MADRASHA", "eiin": 107637, "inst_type": "Madrasha", "district": "NOAKHALI", "thana": "NOAKHALI SADAR", "mauza": "ANDERCHAR", "long": 91.09914, "lat": 22.83292, "serial": 8074, "isUnique": 1, "field_11": null }, "geometry": { "type": "Point", "coordinates": [ 91.09914, 22.83292 ] } },
{ "type": "Feature", "properties": { "inst name": "EAST MAIJ CHARA BANGLA BAZAR DAKHIL MADRASHA", "eiin": 107609, "inst_type": "Madrasha", "district": "NOAKHALI", "thana": "NOAKHALI SADAR", "mauza": "PURBA MAIJ CHAR", "long": 91.09892, "lat": 22.82753, "serial": 8075, "isUnique": 1, "field_11": null }, "geometry": { "type": "Point", "coordinates": [ 91.09892, 22.82753 ] } },
{ "type": "Feature", "properties": { "inst name": "H.A.JANAKALLAN ALIM  MADRASA", "eiin": 131666, "inst_type": "Madrasha", "district": "NOAKHALI", "thana": "NOAKHALI SADAR", "mauza": "PURBA MAIJ CHAR", "long": 90.97944, "lat": 22.77975, "serial": 8076, "isUnique": 1, "field_11": null }, "geometry": { "type": "Point", "coordinates": [ 90.97944, 22.77975 ] } },
{ "type": "Feature", "properties": { "inst name": "SAFIPUR GIRL'S DAKHIL MADRASHA", "eiin": 107650, "inst_type": "Madrasha", "district": "NOAKHALI", "thana": "NOAKHALI SADAR", "mauza": "SAFIPUR", "long": 91.13508, "lat": 22.83817, "serial": 8077, "isUnique": 1, "field_11": null }, "geometry": { "type": "Point", "coordinates": [ 91.13508, 22.83817 ] } },
{ "type": "Feature", "properties": { "inst name": "NOTUNHAT BOBAR KANDI ISLAMIA DAKHIL MADRASHA", "eiin": 107626, "inst_type": "Madrasha", "district": "NOAKHALI", "thana": "NOAKHALI SADAR", "mauza": "BOBARKANDI", "long": 91.10119, "lat": 22.83258, "serial": 8078, "isUnique": 1, "field_11": null }, "geometry": { "type": "Point", "coordinates": [ 91.10119, 22.83258 ] } },
{ "type": "Feature", "properties": { "inst name": "BAGA SALA PIR M. D MADRASHA", "eiin": 107643, "inst_type": "Madrasha", "district": "NOAKHALI", "thana": "NOAKHALI SADAR", "mauza": "MANARKHIL", "long": 91.08706, "lat": 22.84889, "serial": 8079, "isUnique": 1, "field_11": null }, "geometry": { "type": "Point", "coordinates": [ 91.08706, 22.84889 ] } },
{ "type": "Feature", "properties": { "inst name": "HAZRAT KHADIJA KUBRA (R) MOHILA DAKHIL MADRASHA", "eiin": 107608, "inst_type": "Madrasha", "district": "NOAKHALI", "thana": "NOAKHALI SADAR", "mauza": "LAKSHMI NARAYANPUR", "long": 90.98228, "lat": 22.85083, "serial": 8080, "isUnique": 1, "field_11": null }, "geometry": { "type": "Point", "coordinates": [ 90.98228, 22.85083 ] } },
{ "type": "Feature", "properties": { "inst name": "MUJIBUL HAQUE ISLAMIA DAKHIL MADRASHA", "eiin": 107639, "inst_type": "Madrasha", "district": "NOAKHALI", "thana": "NOAKHALI SADAR", "mauza": "RAMANANDI", "long": 90.99711, "lat": 22.85908, "serial": 8081, "isUnique": 1, "field_11": null }, "geometry": { "type": "Point", "coordinates": [ 90.99711, 22.85908 ] } },
{ "type": "Feature", "properties": { "inst name": "KHALIFAR HAT HAMEDIA FAZIL MADRASHA", "eiin": 107614, "inst_type": "Madrasha", "district": "NOAKHALI", "thana": "NOAKHALI SADAR", "mauza": "BARAIPUR", "long": 90.98342, "lat": 22.85825, "serial": 8082, "isUnique": 1, "field_11": null }, "geometry": { "type": "Point", "coordinates": [ 90.98342, 22.85825 ] } },
{ "type": "Feature", "properties": { "inst name": "KRIPALPUR ISLAMIA ALIM  MADRASHA", "eiin": 107615, "inst_type": "Madrasha", "district": "NOAKHALI", "thana": "NOAKHALI SADAR", "mauza": "KRIPALPUR", "long": 90.99294, "lat": 22.8485, "serial": 8083, "isUnique": 1, "field_11": null }, "geometry": { "type": "Point", "coordinates": [ 90.99294, 22.8485 ] } },
{ "type": "Feature", "properties": { "inst name": "OBAIDIA SULTANIA DARUSSUNAT DAKHIL MADRASAH", "eiin": 107610, "inst_type": "Madrasha", "district": "NOAKHALI", "thana": "NOAKHALI SADAR", "mauza": "BHATERTEK", "long": 91.02631, "lat": 22.86575, "serial": 8084, "isUnique": 1, "field_11": null }, "geometry": { "type": "Point", "coordinates": [ 91.02631, 22.86575 ] } },
{ "type": "Feature", "properties": { "inst name": "SOUTH SULLUKIA NOMANIA ISLAMIA DAKHILA MADRASHA", "eiin": 107636, "inst_type": "Madrasha", "district": "NOAKHALI", "thana": "NOAKHALI SADAR", "mauza": "DAKSHIN SULUKIA", "long": 91.11375, "lat": 22.74889, "serial": 8085, "isUnique": 1, "field_11": null }, "geometry": { "type": "Point", "coordinates": [ 91.11375, 22.74889 ] } },
{ "type": "Feature", "properties": { "inst name": "MOHABBATPUR MODINATUL ULUM DAKHIL MADRASHA", "eiin": 107628, "inst_type": "Madrasha", "district": "NOAKHALI", "thana": "NOAKHALI SADAR", "mauza": "DAKSHIN SULUKIA", "long": 91.02775, "lat": 22.78994, "serial": 8086, "isUnique": 1, "field_11": null }, "geometry": { "type": "Point", "coordinates": [ 91.02775, 22.78994 ] } },
{ "type": "Feature", "properties": { "inst name": "NURUL ULUM SIDDIQIA DAKHIL MADRASHA", "eiin": 107631, "inst_type": "Madrasha", "district": "NOAKHALI", "thana": "NOAKHALI SADAR", "mauza": "EWAZBALIA", "long": 91.06606, "lat": 22.74906, "serial": 8087, "isUnique": 1, "field_11": null }, "geometry": { "type": "Point", "coordinates": [ 91.06606, 22.74906 ] } },
{ "type": "Feature", "properties": { "inst name": "NANDANPUR ISLAMIA DAKHIL MADRASAH", "eiin": 107653, "inst_type": "Madrasha", "district": "NOAKHALI", "thana": "NOAKHALI SADAR", "mauza": "NANDANPUR", "long": 91.04622, "lat": 22.83303, "serial": 8088, "isUnique": 1, "field_11": null }, "geometry": { "type": "Point", "coordinates": [ 91.04622, 22.83303 ] } },
{ "type": "Feature", "properties": { "inst name": "MAJOR MANNAN DARUL ULUM DAKHIL MADRASHA", "eiin": 107644, "inst_type": "Madrasha", "district": "NOAKHALI", "thana": "NOAKHALI SADAR", "mauza": "EWAZBALIA", "long": 91.04978, "lat": 22.74072, "serial": 8089, "isUnique": 1, "field_11": null }, "geometry": { "type": "Point", "coordinates": [ 91.04978, 22.74072 ] } },
{ "type": "Feature", "properties": { "inst name": "RAHMANIA DAKHIL MADRASHA", "eiin": 107635, "inst_type": "Madrasha", "district": "NOAKHALI", "thana": "NOAKHALI SADAR", "mauza": "GOPINATHPUR", "long": 91.04356, "lat": 22.82225, "serial": 8090, "isUnique": 1, "field_11": null }, "geometry": { "type": "Point", "coordinates": [ 91.04356, 22.82225 ] } },
{ "type": "Feature", "properties": { "inst name": "SUJAPUR MAHILA dakhil  MADRASHA", "eiin": 107647, "inst_type": "Madrasha", "district": "NOAKHALI", "thana": "NOAKHALI SADAR", "mauza": "PASCHIM SUJAPUR", "long": 91.06808, "lat": 22.79594, "serial": 8091, "isUnique": 1, "field_11": null }, "geometry": { "type": "Point", "coordinates": [ 91.06808, 22.79594 ] } },
{ "type": "Feature", "properties": { "inst name": "SAIDUL ABRAR GIRLS ALIM MADRASHA", "eiin": 107649, "inst_type": "Madrasha", "district": "NOAKHALI", "thana": "NOAKHALI SADAR", "mauza": "PURBA CHAR ELAHI", "long": 91.15158, "lat": 22.86333, "serial": 8092, "isUnique": 1, "field_11": null }, "geometry": { "type": "Point", "coordinates": [ 91.15158, 22.86333 ] } },
{ "type": "Feature", "properties": { "inst name": "ASWADIA NURUL ULUM FARUKIA DAKHIL MADRASAH", "eiin": 107620, "inst_type": "Madrasha", "district": "NOAKHALI", "thana": "NOAKHALI SADAR", "mauza": "ASHWADIA", "long": 91.15133, "lat": 22.86231, "serial": 8093, "isUnique": 1, "field_11": null }, "geometry": { "type": "Point", "coordinates": [ 91.15133, 22.86231 ] } },
{ "type": "Feature", "properties": { "inst name": "GORAPUR ISLIMIA FAZIL MADRASHA", "eiin": 107623, "inst_type": "Madrasha", "district": "NOAKHALI", "thana": "NOAKHALI SADAR", "mauza": "GORAPUR", "long": 91.11744, "lat": 22.84583, "serial": 8094, "isUnique": 1, "field_11": null }, "geometry": { "type": "Point", "coordinates": [ 91.11744, 22.84583 ] } },
{ "type": "Feature", "properties": { "inst name": "CHAR CHOWNIA SULTANIA ISLAMIA DAKHIL MADRASHA", "eiin": 107642, "inst_type": "Madrasha", "district": "NOAKHALI", "thana": "NOAKHALI SADAR", "mauza": "CHANDRA BALLABH", "long": 91.04894, "lat": 22.86686, "serial": 8095, "isUnique": 1, "field_11": null }, "geometry": { "type": "Point", "coordinates": [ 91.04894, 22.86686 ] } },
{ "type": "Feature", "properties": { "inst name": "CHOWDHUYR  HAT  ANTAZIA  ISLAMIA  MODEL dakhil  MADRASA", "eiin": 107357, "inst_type": "Madrasha", "district": "NOAKHALI", "thana": "COMPANIGANJ", "mauza": "CHAR PARBATI (PART)", "long": 91.31286, "lat": 22.87906, "serial": 8096, "isUnique": 2, "field_11": null }, "geometry": { "type": "Point", "coordinates": [ 91.31286, 22.87906 ] } },
{ "type": "Feature", "properties": { "inst name": "RUPNAGAR TALIMUL QURAN DAKHIL MADRASA", "eiin": 131626, "inst_type": "Madrasha", "district": "NOAKHALI", "thana": "COMPANIGANJ", "mauza": "KAKRA CHAR (PART)", "long": 91.31286, "lat": 22.87906, "serial": 8097, "isUnique": 2, "field_11": null }, "geometry": { "type": "Point", "coordinates": [ 91.31286, 22.87906 ] } },
{ "type": "Feature", "properties": { "inst name": "EAST CHARPARBATI MADINATUL ULUM ISLAMIA DAKHIL MADRASHA", "eiin": 107353, "inst_type": "Madrasha", "district": "NOAKHALI", "thana": "COMPANIGANJ", "mauza": "CHAR PARBATI (PART)", "long": 91.31214, "lat": 22.90544, "serial": 8098, "isUnique": 1, "field_11": null }, "geometry": { "type": "Point", "coordinates": [ 91.31214, 22.90544 ] } },
{ "type": "Feature", "properties": { "inst name": "CHAR HAJARI MOHILA DAKHIL MADRASA", "eiin": 131628, "inst_type": "Madrasha", "district": "NOAKHALI", "thana": "COMPANIGANJ", "mauza": "CHAR HAZARI (PART)", "long": 91.31789, "lat": 22.90133, "serial": 8099, "isUnique": 1, "field_11": null }, "geometry": { "type": "Point", "coordinates": [ 91.31789, 22.90133 ] } },
{ "type": "Feature", "properties": { "inst name": "ABU MAZIRHAT A. SAYIDA DAKHIL MADRASHA", "eiin": 107352, "inst_type": "Madrasha", "district": "NOAKHALI", "thana": "COMPANIGANJ", "mauza": "CHAR HAZARI (PART)", "long": 91.322, "lat": 22.86517, "serial": 8100, "isUnique": 1, "field_11": null }, "geometry": { "type": "Point", "coordinates": [ 91.322, 22.86517 ] } },
{ "type": "Feature", "properties": { "inst name": "HAZARI HAT ALIM MADRASHA", "eiin": 107347, "inst_type": "Madrasha", "district": "NOAKHALI", "thana": "COMPANIGANJ", "mauza": "CHAR HAZARI (PART)", "long": 91.29194, "lat": 22.86967, "serial": 8101, "isUnique": 1, "field_11": null }, "geometry": { "type": "Point", "coordinates": [ 91.29194, 22.86967 ] } },
{ "type": "Feature", "properties": { "inst name": "BASURHAT ISLAMIA FAZIL MADRASHA", "eiin": 107345, "inst_type": "Madrasha", "district": "NOAKHALI", "thana": "COMPANIGANJ", "mauza": "CHAR PARBATI (PART)", "long": 91.29147, "lat": 22.8795, "serial": 8102, "isUnique": 1, "field_11": null }, "geometry": { "type": "Point", "coordinates": [ 91.29147, 22.8795 ] } },
{ "type": "Feature", "properties": { "inst name": "SAYED HAFEZ ASGAR ALI DAKHIL MADRASHA", "eiin": 107351, "inst_type": "Madrasha", "district": "NOAKHALI", "thana": "COMPANIGANJ", "mauza": "CHAR FAKIRA", "long": 91.27406, "lat": 22.81767, "serial": 8103, "isUnique": 1, "field_11": null }, "geometry": { "type": "Point", "coordinates": [ 91.27406, 22.81767 ] } },
{ "type": "Feature", "properties": { "inst name": "FATEMATUZ  ZOHRA rA  BAHUMUKHI  MAHILA DAKHIL MADRASAH", "eiin": 107356, "inst_type": "Madrasha", "district": "NOAKHALI", "thana": "COMPANIGANJ", "mauza": "KAKRA CHAR (PART)", "long": 91.27775, "lat": 22.86992, "serial": 8104, "isUnique": 1, "field_11": null }, "geometry": { "type": "Point", "coordinates": [ 91.27775, 22.86992 ] } },
{ "type": "Feature", "properties": { "inst name": "MOHAMMADIA ISLAMIA DAKHIL MADRASAH", "eiin": 107354, "inst_type": "Madrasha", "district": "NOAKHALI", "thana": "COMPANIGANJ", "mauza": "KAKRA CHAR (PART)", "long": 91.24686, "lat": 22.80764, "serial": 8105, "isUnique": 1, "field_11": null }, "geometry": { "type": "Point", "coordinates": [ 91.24686, 22.80764 ] } },
{ "type": "Feature", "properties": { "inst name": "JAMIA SHARAFATIA ISLAMIA FAZIL MADRASHA", "eiin": 107349, "inst_type": "Madrasha", "district": "NOAKHALI", "thana": "COMPANIGANJ", "mauza": "MADHYA MUSAPUR", "long": 91.28656, "lat": 22.86406, "serial": 8106, "isUnique": 1, "field_11": null }, "geometry": { "type": "Point", "coordinates": [ 91.28656, 22.86406 ] } },
{ "type": "Feature", "properties": { "inst name": "RONGMALA DARUSSUNNAH MODEL ALIM MADRASHA", "eiin": 107344, "inst_type": "Madrasha", "district": "NOAKHALI", "thana": "COMPANIGANJ", "mauza": "RAMPUR", "long": 91.27097, "lat": 22.81861, "serial": 8107, "isUnique": 1, "field_11": null }, "geometry": { "type": "Point", "coordinates": [ 91.27097, 22.81861 ] } },
{ "type": "Feature", "properties": { "inst name": "BAMNI ASSIRIA  FAZIL MADRASHA", "eiin": 107346, "inst_type": "Madrasha", "district": "NOAKHALI", "thana": "COMPANIGANJ", "mauza": "RAMPUR", "long": 91.31275, "lat": 22.80886, "serial": 8108, "isUnique": 1, "field_11": null }, "geometry": { "type": "Point", "coordinates": [ 91.31275, 22.80886 ] } },
{ "type": "Feature", "properties": { "inst name": "BHUIYAN SELINA AKHTER MULTILATERAL MOHILA  dakhil MADRASHA", "eiin": 107355, "inst_type": "Madrasha", "district": "NOAKHALI", "thana": "COMPANIGANJ", "mauza": "RAMPUR", "long": 91.31244, "lat": 22.82489, "serial": 8109, "isUnique": 1, "field_11": null }, "geometry": { "type": "Point", "coordinates": [ 91.31244, 22.82489 ] } },
{ "type": "Feature", "properties": { "inst name": "SHAHZADPUR ISLAMIA DAKHIL MADRASHA", "eiin": 107348, "inst_type": "Madrasha", "district": "NOAKHALI", "thana": "COMPANIGANJ", "mauza": "SAHAZADPUR", "long": 91.2645, "lat": 22.87814, "serial": 8110, "isUnique": 1, "field_11": null }, "geometry": { "type": "Point", "coordinates": [ 91.2645, 22.87814 ] } },
{ "type": "Feature", "properties": { "inst name": "MANDAR TOLI DARUSSUNNA  ISLAMIA DAKHIL MADRASHA", "eiin": 107616, "inst_type": "Madrasha", "district": "NOAKHALI", "thana": "NOAKHALI SADAR", "mauza": "MANDARTALI", "long": 91.29264, "lat": 22.89344, "serial": 8111, "isUnique": 1, "field_11": null }, "geometry": { "type": "Point", "coordinates": [ 91.29264, 22.89344 ] } },
{ "type": "Feature", "properties": { "inst name": "SENBAG FAZIL MADRASHA", "eiin": 107499, "inst_type": "Madrasha", "district": "NOAKHALI", "thana": "SENBAGH", "mauza": "BABUPUR ARJUNTALA", "long": 91.13844, "lat": 23.04703, "serial": 8112, "isUnique": 1, "field_11": null }, "geometry": { "type": "Point", "coordinates": [ 91.13844, 23.04703 ] } },
{ "type": "Feature", "properties": { "inst name": "AZIZIA GIRLS DAKHIL MADRASHA", "eiin": 107512, "inst_type": "Madrasha", "district": "NOAKHALI", "thana": "SENBAGH", "mauza": "KAZIRKHIL", "long": 91.20794, "lat": 22.93028, "serial": 8113, "isUnique": 1, "field_11": null }, "geometry": { "type": "Point", "coordinates": [ 91.20794, 22.93028 ] } },
{ "type": "Feature", "properties": { "inst name": "JOYNAGAR WAZEDIA ALIM MADRASHA", "eiin": 107497, "inst_type": "Madrasha", "district": "NOAKHALI", "thana": "SENBAGH", "mauza": "KAZIRKHIL", "long": 91.16244, "lat": 22.47156, "serial": 8114, "isUnique": 1, "field_11": null }, "geometry": { "type": "Point", "coordinates": [ 91.16244, 22.47156 ] } },
{ "type": "Feature", "properties": { "inst name": "ENAYETPUR RAHMATIA ALIM MADRASAH", "eiin": 107508, "inst_type": "Madrasha", "district": "NOAKHALI", "thana": "SENBAGH", "mauza": "ENAYETPUR", "long": 91.22161, "lat": 23.13956, "serial": 8115, "isUnique": 1, "field_11": null }, "geometry": { "type": "Point", "coordinates": [ 91.22161, 23.13956 ] } },
{ "type": "Feature", "properties": { "inst name": "MOIZDIPUR ASHRAFUL ULUM DAKHIL MADRASHA", "eiin": 107510, "inst_type": "Madrasha", "district": "NOAKHALI", "thana": "SENBAGH", "mauza": "MAJDIPUR", "long": 91.21333, "lat": 23.01061, "serial": 8116, "isUnique": 1, "field_11": null }, "geometry": { "type": "Point", "coordinates": [ 91.21333, 23.01061 ] } },
{ "type": "Feature", "properties": { "inst name": "KANKIR HAT FAZIL MADRASHA", "eiin": 107505, "inst_type": "Madrasha", "district": "NOAKHALI", "thana": "SENBAGH", "mauza": "BIRKOT", "long": 91.24447, "lat": 23.00978, "serial": 8117, "isUnique": 1, "field_11": null }, "geometry": { "type": "Point", "coordinates": [ 91.24447, 23.00978 ] } },
{ "type": "Feature", "properties": { "inst name": "KALYANDI FAIZUL ULUM DAKHIL MADRASHA", "eiin": 107507, "inst_type": "Madrasha", "district": "NOAKHALI", "thana": "SENBAGH", "mauza": "MOHAMMADPUR (PART)", "long": 91.23375, "lat": 23.01303, "serial": 8118, "isUnique": 1, "field_11": null }, "geometry": { "type": "Point", "coordinates": [ 91.23375, 23.01303 ] } },
{ "type": "Feature", "properties": { "inst name": "RAZARAMPUR BASHIRIA ALIM MADRASHA", "eiin": 107509, "inst_type": "Madrasha", "district": "NOAKHALI", "thana": "SENBAGH", "mauza": "RAJARAMPUR", "long": 91.20119, "lat": 23.04131, "serial": 8119, "isUnique": 1, "field_11": null }, "geometry": { "type": "Point", "coordinates": [ 91.20119, 23.04131 ] } },
{ "type": "Feature", "properties": { "inst name": "ESFAQUL HAQUE MANNA ALIM MADRASHA", "eiin": 131640, "inst_type": "Madrasha", "district": "NOAKHALI", "thana": "SENBAGH", "mauza": "BARA CHARIGAON", "long": 91.20233, "lat": 23.04011, "serial": 8120, "isUnique": 1, "field_11": null }, "geometry": { "type": "Point", "coordinates": [ 91.20233, 23.04011 ] } },
{ "type": "Feature", "properties": { "inst name": "NABIPUR FAYEJIA DAKHIL  MADRASAH", "eiin": 107502, "inst_type": "Madrasha", "district": "NOAKHALI", "thana": "SENBAGH", "mauza": "NABIPUR", "long": 91.22617, "lat": 22.95358, "serial": 8121, "isUnique": 1, "field_11": null }, "geometry": { "type": "Point", "coordinates": [ 91.22617, 22.95358 ] } },
{ "type": "Feature", "properties": { "inst name": "KUTUBAR HAT DAKHIL MADRASah", "eiin": 107503, "inst_type": "Madrasha", "district": "NOAKHALI", "thana": "SENBAGH", "mauza": "DEBISINGPUR", "long": 91.25697, "lat": 22.946, "serial": 8122, "isUnique": 1, "field_11": null }, "geometry": { "type": "Point", "coordinates": [ 91.25697, 22.946 ] } },
{ "type": "Feature", "properties": { "inst name": "BURIRCHAR AHMADIA ALIM MADRASHA", "eiin": 107449, "inst_type": "Madrasha", "district": "NOAKHALI", "thana": "HATIYA", "mauza": "BURIR CHAR", "long": 91.14086, "lat": 22.26486, "serial": 8125, "isUnique": 2, "field_11": null }, "geometry": { "type": "Point", "coordinates": [ 91.14086, 22.26486 ] } },
{ "type": "Feature", "properties": { "inst name": "JAHAJMARA SERAJUL ULUM ALIM MADRASAH", "eiin": 107456, "inst_type": "Madrasha", "district": "NOAKHALI", "thana": "HATIYA", "mauza": "JAHAJMARA", "long": 91.12931, "lat": 22.31383, "serial": 8132, "isUnique": 1, "field_11": null }, "geometry": { "type": "Point", "coordinates": [ 91.12931, 22.31383 ] } },
{ "type": "Feature", "properties": { "inst name": "NOLCHIRA SYED AHMAD DAKHIL MADRASAH", "eiin": 107458, "inst_type": "Madrasha", "district": "NOAKHALI", "thana": "HATIYA", "mauza": "KAWNIA", "long": 91.12153, "lat": 22.35403, "serial": 8134, "isUnique": 2, "field_11": null }, "geometry": { "type": "Point", "coordinates": [ 91.12153, 22.35403 ] } },
{ "type": "Feature", "properties": { "inst name": "KABIRHAT MODEAL JUNIOR HIGH SCHOOL", "eiin": 131250, "inst_type": "School", "district": "NOAKHALI", "thana": "KABIRHAT", "mauza": "JONADPUR", "long": 91.91859, "lat": 23.20945, "serial": 21088, "isUnique": 1, "field_11": null }, "geometry": { "type": "Point", "coordinates": [ 91.91859, 23.20945 ] } },
{ "type": "Feature", "properties": { "inst name": "KABIR HAT HIGH SCHOOL", "eiin": 107549, "inst_type": "School", "district": "NOAKHALI", "thana": "KABIRHAT", "mauza": "ENAYET NAGAR", "long": 91.9798, "lat": 23.11999, "serial": 21089, "isUnique": 1, "field_11": null }, "geometry": { "type": "Point", "coordinates": [ 91.9798, 23.11999 ] } },
{ "type": "Feature", "properties": { "inst name": "BHUIYAR HAT HIGH SCHOOL", "eiin": 107553, "inst_type": "School", "district": "NOAKHALI", "thana": "KABIRHAT", "mauza": "DAKSHIN GOSHBAG", "long": 91.93895, "lat": 23.17829, "serial": 21090, "isUnique": 1, "field_11": null }, "geometry": { "type": "Point", "coordinates": [ 91.93895, 23.17829 ] } },
{ "type": "Feature", "properties": { "inst name": "BATAIYA MOUDUD AHAMMED HIGH SCHOOL", "eiin": 107566, "inst_type": "School", "district": "NOAKHALI", "thana": "KABIRHAT", "mauza": "BATAIYA", "long": 91.20175, "lat": 22.83728, "serial": 21091, "isUnique": 1, "field_11": null }, "geometry": { "type": "Point", "coordinates": [ 91.20175, 22.83728 ] } },
{ "type": "Feature", "properties": { "inst name": "OTERHAT HIGH SCHOOL", "eiin": 107530, "inst_type": "School", "district": "NOAKHALI", "thana": "KABIRHAT", "mauza": "RAMDI", "long": 91.20406, "lat": 22.8365, "serial": 21092, "isUnique": 1, "field_11": null }, "geometry": { "type": "Point", "coordinates": [ 91.20406, 22.8365 ] } },
{ "type": "Feature", "properties": { "inst name": "CHAPRASHIR HAT HIGH SCHOOL", "eiin": 107666, "inst_type": "School", "district": "NOAKHALI", "thana": "KABIRHAT", "mauza": "UPARDI LAMCHHI", "long": 91.20303, "lat": 22.83725, "serial": 21093, "isUnique": 1, "field_11": null }, "geometry": { "type": "Point", "coordinates": [ 91.20303, 22.83725 ] } },
{ "type": "Feature", "properties": { "inst name": "LAMCHI PROSAD HIGH SCHOOL", "eiin": 107573, "inst_type": "School", "district": "NOAKHALI", "thana": "KABIRHAT", "mauza": "LAMCHHI PRASAD", "long": 91.22983, "lat": 22.86333, "serial": 21094, "isUnique": 1, "field_11": null }, "geometry": { "type": "Point", "coordinates": [ 91.22983, 22.86333 ] } },
{ "type": "Feature", "properties": { "inst name": "BANGA BANDHU SHEK MUJIBUR RAHMAN JUNIOR HIGH SCHOOL", "eiin": 107592, "inst_type": "School", "district": "NOAKHALI", "thana": "KABIRHAT", "mauza": "UTTAR JAGADANANDA", "long": 91.23939, "lat": 22.81703, "serial": 21095, "isUnique": 1, "field_11": null }, "geometry": { "type": "Point", "coordinates": [ 91.23939, 22.81703 ] } },
{ "type": "Feature", "properties": { "inst name": "JANATA BAZAR JUNIOR HIGH SCHOOL", "eiin": 107600, "inst_type": "School", "district": "NOAKHALI", "thana": "KABIRHAT", "mauza": "CHHOTA RAMPUR", "long": 91.24144, "lat": 22.81578, "serial": 21096, "isUnique": 1, "field_11": null }, "geometry": { "type": "Point", "coordinates": [ 91.24144, 22.81578 ] } },
{ "type": "Feature", "properties": { "inst name": "NABA GRAM HIGH SCHOOL", "eiin": 131271, "inst_type": "School", "district": "NOAKHALI", "thana": "KABIRHAT", "mauza": "NABAGRAM", "long": 91.22031, "lat": 22.80186, "serial": 21097, "isUnique": 1, "field_11": null }, "geometry": { "type": "Point", "coordinates": [ 91.22031, 22.80186 ] } },
{ "type": "Feature", "properties": { "inst name": "SAUDIA  BAZAR  JUNIOR  HIGH  SCHOOL", "eiin": 107595, "inst_type": "School", "district": "NOAKHALI", "thana": "KABIRHAT", "mauza": "NARASINHAPUR", "long": 91.21536, "lat": 22.79628, "serial": 21098, "isUnique": 1, "field_11": null }, "geometry": { "type": "Point", "coordinates": [ 91.21536, 22.79628 ] } },
{ "type": "Feature", "properties": { "inst name": "UTTAR RAMESHWARPUR JR.HIGH SCHOOL", "eiin": 107561, "inst_type": "School", "district": "NOAKHALI", "thana": "KABIRHAT", "mauza": "RAMESHWARPUR", "long": 91.22814, "lat": 22.79311, "serial": 21099, "isUnique": 1, "field_11": null }, "geometry": { "type": "Point", "coordinates": [ 91.22814, 22.79311 ] } },
{ "type": "Feature", "properties": { "inst name": "MOSAREF HOSSAIN JUNIOR HIGH SCHOOL", "eiin": 107588, "inst_type": "School", "district": "NOAKHALI", "thana": "KABIRHAT", "mauza": "NARASINHAPUR", "long": 91.14075, "lat": 22.81897, "serial": 21100, "isUnique": 1, "field_11": null }, "geometry": { "type": "Point", "coordinates": [ 91.14075, 22.81897 ] } },
{ "type": "Feature", "properties": { "inst name": "RAMESHWARPUR  M.M HIGH SCHOOL", "eiin": 107531, "inst_type": "School", "district": "NOAKHALI", "thana": "KABIRHAT", "mauza": "RAMESHWARPUR", "long": 91.23703, "lat": 22.77683, "serial": 21101, "isUnique": 1, "field_11": null }, "geometry": { "type": "Point", "coordinates": [ 91.23703, 22.77683 ] } },
{ "type": "Feature", "properties": { "inst name": "NOLUA BHUIYAr  HAT HIGH SCHOOL", "eiin": 107594, "inst_type": "School", "district": "NOAKHALI", "thana": "KABIRHAT", "mauza": "NALUA", "long": 91.15603, "lat": 22.71978, "serial": 21102, "isUnique": 1, "field_11": null }, "geometry": { "type": "Point", "coordinates": [ 91.15603, 22.71978 ] } },
{ "type": "Feature", "properties": { "inst name": "ABDUR  RAHIM  HIGH SCHOOL", "eiin": 107597, "inst_type": "School", "district": "NOAKHALI", "thana": "KABIRHAT", "mauza": "PURBA LAMCHHI", "long": 91.2245, "lat": 22.8345, "serial": 21103, "isUnique": 1, "field_11": null }, "geometry": { "type": "Point", "coordinates": [ 91.2245, 22.8345 ] } },
{ "type": "Feature", "properties": { "inst name": "GOSHBAG  KADERIA  HIGH SCHOOL", "eiin": 107560, "inst_type": "School", "district": "NOAKHALI", "thana": "KABIRHAT", "mauza": "GHOSHBAGH(PART-3)", "long": 91.21708, "lat": 22.81403, "serial": 21104, "isUnique": 1, "field_11": null }, "geometry": { "type": "Point", "coordinates": [ 91.21708, 22.81403 ] } },
{ "type": "Feature", "properties": { "inst name": "TAJUL ISLAM MODEL ACADEMY HIGH SCHOOL", "eiin": 107586, "inst_type": "School", "district": "NOAKHALI", "thana": "KABIRHAT", "mauza": "MANINAGAR", "long": 91.22364, "lat": 22.84458, "serial": 21105, "isUnique": 1, "field_11": null }, "geometry": { "type": "Point", "coordinates": [ 91.22364, 22.84458 ] } },
{ "type": "Feature", "properties": { "inst name": "SADAR NAROTTAMPUR HIGH SCHOOL", "eiin": 107550, "inst_type": "School", "district": "NOAKHALI", "thana": "KABIRHAT", "mauza": "NAROTTAMPUR", "long": 91.2195, "lat": 22.81047, "serial": 21106, "isUnique": 1, "field_11": null }, "geometry": { "type": "Point", "coordinates": [ 91.2195, 22.81047 ] } },
{ "type": "Feature", "properties": { "inst name": "KARAM BOX ADARSHA HIGH SCHOOL", "eiin": 107526, "inst_type": "School", "district": "NOAKHALI", "thana": "KABIRHAT", "mauza": "PHALAHARI", "long": 91.1405, "lat": 22.77706, "serial": 21107, "isUnique": 1, "field_11": null }, "geometry": { "type": "Point", "coordinates": [ 91.1405, 22.77706 ] } },
{ "type": "Feature", "properties": { "inst name": "MEARHAT HIGH SCHOOL", "eiin": 107528, "inst_type": "School", "district": "NOAKHALI", "thana": "KABIRHAT", "mauza": "PURBA RAJURGAON", "long": 91.19803, "lat": 22.86472, "serial": 21108, "isUnique": 1, "field_11": null }, "geometry": { "type": "Point", "coordinates": [ 91.19803, 22.86472 ] } },
{ "type": "Feature", "properties": { "inst name": "BANDATTA HIGH SCHOOL", "eiin": 107558, "inst_type": "School", "district": "NOAKHALI", "thana": "KABIRHAT", "mauza": "BARA RAMDEBPUR", "long": 91.17336, "lat": 22.86403, "serial": 21109, "isUnique": 1, "field_11": null }, "geometry": { "type": "Point", "coordinates": [ 91.17336, 22.86403 ] } },
{ "type": "Feature", "properties": { "inst name": "KALAMUNSHI HIGH SCHOOL", "eiin": 107571, "inst_type": "School", "district": "NOAKHALI", "thana": "KABIRHAT", "mauza": "SUNDALPUR", "long": 91.17061, "lat": 22.85148, "serial": 21110, "isUnique": 1, "field_11": null }, "geometry": { "type": "Point", "coordinates": [ 91.17061, 22.85148 ] } },
{ "type": "Feature", "properties": { "inst name": "A GONI GIRLS HIGH SCHOOL \/SAGORIA", "eiin": 131363, "inst_type": "School", "district": "NOAKHALI", "thana": "HATIYA", "mauza": "BURIR CHAR", "long": 91.12556, "lat": 22.29136, "serial": 21115, "isUnique": 2, "field_11": null }, "geometry": { "type": "Point", "coordinates": [ 91.12556, 22.29136 ] } },
{ "type": "Feature", "properties": { "inst name": "HATIYA JANAKALLAN SHIKKAH TRUST  HIGH SCHOOL", "eiin": 131272, "inst_type": "School", "district": "NOAKHALI", "thana": "HATIYA", "mauza": "BHUIYAR CHAR", "long": 91.13308, "lat": 22.19808, "serial": 21117, "isUnique": 2, "field_11": null }, "geometry": { "type": "Point", "coordinates": [ 91.13308, 22.19808 ] } },
{ "type": "Feature", "properties": { "inst name": "CHAR LATIYA JUNIOR HIGH SCHOOL", "eiin": 107427, "inst_type": "School", "district": "NOAKHALI", "thana": "HATIYA", "mauza": "CHAR ISHWAR ROY (PART 1)", "long": 91.13914, "lat": 22.24817, "serial": 21118, "isUnique": 1, "field_11": null }, "geometry": { "type": "Point", "coordinates": [ 91.13914, 22.24817 ] } },
{ "type": "Feature", "properties": { "inst name": "HATIYA UNION MODEL PILOT HIGH SCHOOL", "eiin": 107421, "inst_type": "School", "district": "NOAKHALI", "thana": "HATIYA", "mauza": "CHAR ISHWAR ROY (PART 1)", "long": 91.13394, "lat": 22.19725, "serial": 21119, "isUnique": 1, "field_11": null }, "geometry": { "type": "Point", "coordinates": [ 91.13394, 22.19725 ] } },
{ "type": "Feature", "properties": { "inst name": "A. M HIGH SCHOOL", "eiin": 107431, "inst_type": "School", "district": "NOAKHALI", "thana": "HATIYA", "mauza": "CHAR ISHWAR ROY (PART 1)", "long": 91.12322, "lat": 22.36236, "serial": 21120, "isUnique": 1, "field_11": null }, "geometry": { "type": "Point", "coordinates": [ 91.12322, 22.36236 ] } },
{ "type": "Feature", "properties": { "inst name": "OSKHALI K.S.S GOVT. HIGH SCHOOL", "eiin": 107419, "inst_type": "School", "district": "NOAKHALI", "thana": "HATIYA", "mauza": "CHAR ISHWAR ROY (PART 1)", "long": 91.10203, "lat": 22.54064, "serial": 21121, "isUnique": 2, "field_11": null }, "geometry": { "type": "Point", "coordinates": [ 91.10203, 22.54064 ] } },
{ "type": "Feature", "properties": { "inst name": "NANDA KUMAR JUNIOR GIRLS HIGH SCHOOL", "eiin": 107439, "inst_type": "School", "district": "NOAKHALI", "thana": "HATIYA", "mauza": "CHAR ISHWAR ROY (PART 1)", "long": 91.16308, "lat": 22.30675, "serial": 21122, "isUnique": 1, "field_11": null }, "geometry": { "type": "Point", "coordinates": [ 91.16308, 22.30675 ] } },
{ "type": "Feature", "properties": { "inst name": "AZMERI BEGUM HIGH  SCHOOL", "eiin": 107430, "inst_type": "School", "district": "NOAKHALI", "thana": "HATIYA", "mauza": "REHANIA", "long": 91.13528, "lat": 22.32589, "serial": 21123, "isUnique": 2, "field_11": null }, "geometry": { "type": "Point", "coordinates": [ 91.13528, 22.32589 ] } },
{ "type": "Feature", "properties": { "inst name": "CHAR KING GIRLS HIGH SCHOOL", "eiin": 107438, "inst_type": "School", "district": "NOAKHALI", "thana": "HATIYA", "mauza": "CHAR ISHWAR ROY (PART-2)", "long": 91.16372, "lat": 22.28381, "serial": 21124, "isUnique": 1, "field_11": null }, "geometry": { "type": "Point", "coordinates": [ 91.16372, 22.28381 ] } },
{ "type": "Feature", "properties": { "inst name": "BOALIYA HIGH  SCHOOL", "eiin": 107432, "inst_type": "School", "district": "NOAKHALI", "thana": "HATIYA", "mauza": "CHAR ISHWAR ROY (PART-2)", "long": 91.14553, "lat": 22.2875, "serial": 21125, "isUnique": 1, "field_11": null }, "geometry": { "type": "Point", "coordinates": [ 91.14553, 22.2875 ] } },
{ "type": "Feature", "properties": { "inst name": "HATIYA TOWN GOVT GIRLS HIGH SCHOOL", "eiin": 107420, "inst_type": "School", "district": "NOAKHALI", "thana": "HATIYA", "mauza": "CHAR ISHWAR ROY (PART)", "long": 91.09806, "lat": 22.3615, "serial": 21128, "isUnique": 1, "field_11": null }, "geometry": { "type": "Point", "coordinates": [ 91.09806, 22.3615 ] } },
{ "type": "Feature", "properties": { "inst name": "BIRBIRI CENTRE BAZAR HIGH SCHOOL", "eiin": 107441, "inst_type": "School", "district": "NOAKHALI", "thana": "HATIYA", "mauza": "CHAR BIRBIRI", "long": 91.09708, "lat": 22.36786, "serial": 21129, "isUnique": 2, "field_11": null }, "geometry": { "type": "Point", "coordinates": [ 91.09708, 22.36786 ] } },
{ "type": "Feature", "properties": { "inst name": "MAIJDEE  HIGH SCHOOL", "eiin": 107417, "inst_type": "School", "district": "NOAKHALI", "thana": "HATIYA", "mauza": "CHAR CHENGA", "long": 91.06553, "lat": 22.15394, "serial": 21132, "isUnique": 1, "field_11": null }, "geometry": { "type": "Point", "coordinates": [ 91.06553, 22.15394 ] } },
{ "type": "Feature", "properties": { "inst name": "SONADIA ADARSH  HIGH SCHOOL", "eiin": 107443, "inst_type": "School", "district": "NOAKHALI", "thana": "HATIYA", "mauza": "SONADIA", "long": 91.05994, "lat": 22.11992, "serial": 21133, "isUnique": 1, "field_11": null }, "geometry": { "type": "Point", "coordinates": [ 91.05994, 22.11992 ] } },
{ "type": "Feature", "properties": { "inst name": "SUKCHAR UNION BANG BANDHU HIGH SCHOOL", "eiin": 107437, "inst_type": "School", "district": "NOAKHALI", "thana": "HATIYA", "mauza": "CHAR TAMARUDDIN", "long": 91.07267, "lat": 22.228, "serial": 21135, "isUnique": 1, "field_11": null }, "geometry": { "type": "Point", "coordinates": [ 91.07267, 22.228 ] } },
{ "type": "Feature", "properties": { "inst name": "JOREKHALI HIGH SCHOOL", "eiin": 107435, "inst_type": "School", "district": "NOAKHALI", "thana": "HATIYA", "mauza": "CHAR TAMARUDDIN", "long": 91.08158, "lat": 22.38819, "serial": 21137, "isUnique": 2, "field_11": null }, "geometry": { "type": "Point", "coordinates": [ 91.08158, 22.38819 ] } },
{ "type": "Feature", "properties": { "inst name": "HAZI MOSHAREF HOSSAN  HIGH SCHOOL", "eiin": 107602, "inst_type": "School", "district": "NOAKHALI", "thana": "SUBARNACHAR", "mauza": "CHAR BATA", "long": 91.13189, "lat": 22.33164, "serial": 21138, "isUnique": 2, "field_11": null }, "geometry": { "type": "Point", "coordinates": [ 91.13189, 22.33164 ] } },
{ "type": "Feature", "properties": { "inst name": "CHAR BATA GIRLS HIGH SCHOOL", "eiin": 107521, "inst_type": "School", "district": "NOAKHALI", "thana": "SUBARNACHAR", "mauza": "CHAR BATA", "long": 91.141, "lat": 22.28167, "serial": 21139, "isUnique": 2, "field_11": null }, "geometry": { "type": "Point", "coordinates": [ 91.141, 22.28167 ] } },
{ "type": "Feature", "properties": { "inst name": "CHAR BATA  SOWDAGORHAT  HIGH SCHOOL", "eiin": 107601, "inst_type": "School", "district": "NOAKHALI", "thana": "SUBARNACHAR", "mauza": "CHAR BATA", "long": 91.07592, "lat": 22.29172, "serial": 21140, "isUnique": 2, "field_11": null }, "geometry": { "type": "Point", "coordinates": [ 91.07592, 22.29172 ] } },
{ "type": "Feature", "properties": { "inst name": "KERAMOTPUR M.S. HIGH SCHOOL", "eiin": 107584, "inst_type": "School", "district": "NOAKHALI", "thana": "SUBARNACHAR", "mauza": "KERAMATPUR", "long": 91.11731, "lat": 22.62658, "serial": 21141, "isUnique": 1, "field_11": null }, "geometry": { "type": "Point", "coordinates": [ 91.11731, 22.62658 ] } },
{ "type": "Feature", "properties": { "inst name": "LORD LEONARD CHESHIRE HIGH SCHOOL", "eiin": 107585, "inst_type": "School", "district": "NOAKHALI", "thana": "SUBARNACHAR", "mauza": "CHAR CLERK", "long": 91.12694, "lat": 22.63578, "serial": 21142, "isUnique": 1, "field_11": null }, "geometry": { "type": "Point", "coordinates": [ 91.12694, 22.63578 ] } },
{ "type": "Feature", "properties": { "inst name": "CHAR HASAN BHUIYARHAT HIGH SCHOOL", "eiin": 107523, "inst_type": "School", "district": "NOAKHALI", "thana": "NOAKHALI SADAR", "mauza": "CHAR SALLA", "long": 91.18044, "lat": 22.67856, "serial": 21143, "isUnique": 1, "field_11": null }, "geometry": { "type": "Point", "coordinates": [ 91.18044, 22.67856 ] } },
{ "type": "Feature", "properties": { "inst name": "ABDULLAH MIAR HAT JUNIOR HIGH SCHOOL", "eiin": 107606, "inst_type": "School", "district": "NOAKHALI", "thana": "SUBARNACHAR", "mauza": "CHAR RASHID", "long": 91.13103, "lat": 22.63372, "serial": 21144, "isUnique": 1, "field_11": null }, "geometry": { "type": "Point", "coordinates": [ 91.13103, 22.63372 ] } },
{ "type": "Feature", "properties": { "inst name": "CHAR JABBAR UNION JUNIOR HIGH SCHOOL", "eiin": 131289, "inst_type": "School", "district": "NOAKHALI", "thana": "SUBARNACHAR", "mauza": "PASCHIM CHAR JABBAR", "long": 91.20644, "lat": 22.66689, "serial": 21145, "isUnique": 1, "field_11": null }, "geometry": { "type": "Point", "coordinates": [ 91.20644, 22.66689 ] } },
{ "type": "Feature", "properties": { "inst name": "CHAR RASHID HIGH SCHOOL", "eiin": 131280, "inst_type": "School", "district": "NOAKHALI", "thana": "SUBARNACHAR", "mauza": "CHAR RASHID", "long": 91.18081, "lat": 22.64836, "serial": 21146, "isUnique": 1, "field_11": null }, "geometry": { "type": "Point", "coordinates": [ 91.18081, 22.64836 ] } },
{ "type": "Feature", "properties": { "inst name": "JUBLIE HABIB ULLAH MIAR HAT HIGH SCHOOL", "eiin": 107589, "inst_type": "School", "district": "NOAKHALI", "thana": "SUBARNACHAR", "mauza": "DAKSHIN KANCHAPIA", "long": 91.04631, "lat": 22.72458, "serial": 21147, "isUnique": 1, "field_11": null }, "geometry": { "type": "Point", "coordinates": [ 91.04631, 22.72458 ] } },
{ "type": "Feature", "properties": { "inst name": "PANKHAR BAGAR JUNIOR HIGH SCHOOL", "eiin": 107532, "inst_type": "School", "district": "NOAKHALI", "thana": "SUBARNACHAR", "mauza": "CHAR JUBILEE", "long": 91.02811, "lat": 22.70564, "serial": 21148, "isUnique": 1, "field_11": null }, "geometry": { "type": "Point", "coordinates": [ 91.02811, 22.70564 ] } },
{ "type": "Feature", "properties": { "inst name": "SHAHID JOYNAL ABEDIN HIGH SCHOOL", "eiin": 107562, "inst_type": "School", "district": "NOAKHALI", "thana": "SUBARNACHAR", "mauza": "PASCHIM CHAR JUBILEE", "long": 91.01289, "lat": 22.73181, "serial": 21149, "isUnique": 1, "field_11": null }, "geometry": { "type": "Point", "coordinates": [ 91.01289, 22.73181 ] } },
{ "type": "Feature", "properties": { "inst name": "CHAR  CLERK  HIGH SCHOOL", "eiin": 107563, "inst_type": "School", "district": "NOAKHALI", "thana": "SUBARNACHAR", "mauza": "CHAR TORABALI", "long": 91.0895, "lat": 22.63219, "serial": 21150, "isUnique": 1, "field_11": null }, "geometry": { "type": "Point", "coordinates": [ 91.0895, 22.63219 ] } },
{ "type": "Feature", "properties": { "inst name": "CHARBATA R.G. HIGH SCHOOL", "eiin": 107551, "inst_type": "School", "district": "NOAKHALI", "thana": "SUBARNACHAR", "mauza": "CHAR BATA", "long": 91.11681, "lat": 22.6576, "serial": 21151, "isUnique": 1, "field_11": null }, "geometry": { "type": "Point", "coordinates": [ 91.11681, 22.6576 ] } },
{ "type": "Feature", "properties": { "inst name": "SOMIRHAT MADHAMIC GIRLS SCHOOL", "eiin": 107596, "inst_type": "School", "district": "NOAKHALI", "thana": "SUBARNACHAR", "mauza": "HAJIPUR", "long": 91.11681, "lat": 22.65767, "serial": 21152, "isUnique": 1, "field_11": null }, "geometry": { "type": "Point", "coordinates": [ 91.11681, 22.65767 ] } },
{ "type": "Feature", "properties": { "inst name": "MAHBU8EN NESA GIRLS HIGH SCHOOL", "eiin": 107385, "inst_type": "School", "district": "NOAKHALI", "thana": "SONAIMURI", "mauza": "UTTAR SONAPUR", "long": 91.23753, "lat": 22.64058, "serial": 21153, "isUnique": 1, "field_11": null }, "geometry": { "type": "Point", "coordinates": [ 91.23753, 22.64058 ] } },
{ "type": "Feature", "properties": { "inst name": "SONAIMURI GIRLS HIGH SCHOOL", "eiin": 107382, "inst_type": "School", "district": "NOAKHALI", "thana": "SONAIMURI", "mauza": "PASCHIM SONAIMURI", "long": 91.15425, "lat": 22.61953, "serial": 21154, "isUnique": 1, "field_11": null }, "geometry": { "type": "Point", "coordinates": [ 91.15425, 22.61953 ] } },
{ "type": "Feature", "properties": { "inst name": "SONAIMURI MODEL HIGH SCHOOL", "eiin": 107373, "inst_type": "School", "district": "NOAKHALI", "thana": "SONAIMURI", "mauza": "PASCHIM SONAIMURI", "long": 91.14839, "lat": 22.59611, "serial": 21155, "isUnique": 1, "field_11": null }, "geometry": { "type": "Point", "coordinates": [ 91.14839, 22.59611 ] } },
{ "type": "Feature", "properties": { "inst name": "AMBER NAGAR HIGH SCHOOL", "eiin": 107391, "inst_type": "School", "district": "NOAKHALI", "thana": "SONAIMURI", "mauza": "AMBARNAGAR", "long": 91.07497, "lat": 23.00706, "serial": 21156, "isUnique": 1, "field_11": null }, "geometry": { "type": "Point", "coordinates": [ 91.07497, 23.00706 ] } },
{ "type": "Feature", "properties": { "inst name": "WASEKPUR HIGH SCHOOL", "eiin": 107379, "inst_type": "School", "district": "NOAKHALI", "thana": "SONAIMURI", "mauza": "WASEKPUR", "long": 91.09406, "lat": 23.04086, "serial": 21157, "isUnique": 1, "field_11": null }, "geometry": { "type": "Point", "coordinates": [ 91.09406, 23.04086 ] } },
{ "type": "Feature", "properties": { "inst name": "ABIRPARA MADHYAMIC  BIDYA NIKETAN", "eiin": 107378, "inst_type": "School", "district": "NOAKHALI", "thana": "SONAIMURI", "mauza": "ABIR PARA", "long": 91.09769, "lat": 23.03653, "serial": 21158, "isUnique": 1, "field_11": null }, "geometry": { "type": "Point", "coordinates": [ 91.09769, 23.03653 ] } },
{ "type": "Feature", "properties": { "inst name": "AMISHA PARA KRISHAK HIGH SCHOOL", "eiin": 107376, "inst_type": "School", "district": "NOAKHALI", "thana": "SONAIMURI", "mauza": "DAKSHIN KAICHERBAGH", "long": 91.10078, "lat": 23.03808, "serial": 21159, "isUnique": 1, "field_11": null }, "geometry": { "type": "Point", "coordinates": [ 91.10078, 23.03808 ] } },
{ "type": "Feature", "properties": { "inst name": "KESHAR KHIL GIRLS HIGH SCHOOL", "eiin": 107390, "inst_type": "School", "district": "NOAKHALI", "thana": "SONAIMURI", "mauza": "MANIKYANAGAR", "long": 91.17689, "lat": 22.99825, "serial": 21160, "isUnique": 1, "field_11": null }, "geometry": { "type": "Point", "coordinates": [ 91.17689, 22.99825 ] } },
{ "type": "Feature", "properties": { "inst name": "SOHEED MUKTTIZODHA IDEAL HIGH SCHOOL", "eiin": 131291, "inst_type": "School", "district": "NOAKHALI", "thana": "SONAIMURI", "mauza": "NAYA RAJARAMPUR", "long": 91.16278, "lat": 22.98936, "serial": 21161, "isUnique": 1, "field_11": null }, "geometry": { "type": "Point", "coordinates": [ 91.16278, 22.98936 ] } },
{ "type": "Feature", "properties": { "inst name": "NAZRUL ACADEMY HIGH SCHOOL", "eiin": 107386, "inst_type": "School", "district": "NOAKHALI", "thana": "SONAIMURI", "mauza": "PADI PARA", "long": 91.00439, "lat": 22.99606, "serial": 21162, "isUnique": 1, "field_11": null }, "geometry": { "type": "Point", "coordinates": [ 91.00439, 22.99606 ] } },
{ "type": "Feature", "properties": { "inst name": "KASHIPUR MULTILATERAL HIGH SCHOOL", "eiin": 107375, "inst_type": "School", "district": "NOAKHALI", "thana": "SONAIMURI", "mauza": "KASHIPUR", "long": 91.00847, "lat": 22.995, "serial": 21163, "isUnique": 1, "field_11": null }, "geometry": { "type": "Point", "coordinates": [ 91.00847, 22.995 ] } },
{ "type": "Feature", "properties": { "inst name": "RAJIBPUR HIGH SCHOOL", "eiin": 107367, "inst_type": "School", "district": "NOAKHALI", "thana": "SONAIMURI", "mauza": "RAJIBPUR", "long": 91.03675, "lat": 22.97436, "serial": 21164, "isUnique": 1, "field_11": null }, "geometry": { "type": "Point", "coordinates": [ 91.03675, 22.97436 ] } },
{ "type": "Feature", "properties": { "inst name": "RASHIDPUR HIGH SCHOOL", "eiin": 107389, "inst_type": "School", "district": "NOAKHALI", "thana": "SONAIMURI", "mauza": "RASHIDPUR", "long": 91.15206, "lat": 23.01783, "serial": 21165, "isUnique": 1, "field_11": null }, "geometry": { "type": "Point", "coordinates": [ 91.15206, 23.01783 ] } },
{ "type": "Feature", "properties": { "inst name": "BAZRA ML HIGH SCHOOL", "eiin": 107374, "inst_type": "School", "district": "NOAKHALI", "thana": "SONAIMURI", "mauza": "PURBA CHANDPUR", "long": 91.13464, "lat": 23.02533, "serial": 21166, "isUnique": 1, "field_11": null }, "geometry": { "type": "Point", "coordinates": [ 91.13464, 23.02533 ] } },
{ "type": "Feature", "properties": { "inst name": "BHUIYAR BAZAR HANUFA KHATUN HIGH SCHOOL", "eiin": 107365, "inst_type": "School", "district": "NOAKHALI", "thana": "SONAIMURI", "mauza": "SAHARPAR", "long": 91.15178, "lat": 23.01822, "serial": 21167, "isUnique": 1, "field_11": null }, "geometry": { "type": "Point", "coordinates": [ 91.15178, 23.01822 ] } },
{ "type": "Feature", "properties": { "inst name": "KHALILUR RAHMAN HIGH SCHOOL", "eiin": 107370, "inst_type": "School", "district": "NOAKHALI", "thana": "SONAIMURI", "mauza": "BRAJERGAON", "long": 91.12358, "lat": 23.02753, "serial": 21168, "isUnique": 1, "field_11": null }, "geometry": { "type": "Point", "coordinates": [ 91.12358, 23.02753 ] } },
{ "type": "Feature", "properties": { "inst name": "AMIRABAD HIGH SCHOOL", "eiin": 107368, "inst_type": "School", "district": "NOAKHALI", "thana": "SONAIMURI", "mauza": "AMIRABAD", "long": 91.10222, "lat": 23.01483, "serial": 21169, "isUnique": 1, "field_11": null }, "geometry": { "type": "Point", "coordinates": [ 91.10222, 23.01483 ] } },
{ "type": "Feature", "properties": { "inst name": "NANDIA PARA HIGH SCHOOL", "eiin": 107383, "inst_type": "School", "district": "NOAKHALI", "thana": "SONAIMURI", "mauza": "NANDIA PARA", "long": 91.09914, "lat": 22.99144, "serial": 21170, "isUnique": 1, "field_11": null }, "geometry": { "type": "Point", "coordinates": [ 91.09914, 22.99144 ] } },
{ "type": "Feature", "properties": { "inst name": "BIR SRESTHA SHAHID RUHUL AMIN ACADEMY", "eiin": 107363, "inst_type": "School", "district": "NOAKHALI", "thana": "SONAIMURI", "mauza": "BIRCRESTOO RUHUL AMINNAGAR", "long": 91.0925, "lat": 23.02336, "serial": 21171, "isUnique": 1, "field_11": null }, "geometry": { "type": "Point", "coordinates": [ 91.0925, 23.02336 ] } },
{ "type": "Feature", "properties": { "inst name": "PITAMBER PUR HIGH SCHOOL", "eiin": 107371, "inst_type": "School", "district": "NOAKHALI", "thana": "SONAIMURI", "mauza": "PITAMBARPUR", "long": 91.124, "lat": 23.06197, "serial": 21172, "isUnique": 1, "field_11": null }, "geometry": { "type": "Point", "coordinates": [ 91.124, 23.06197 ] } },
{ "type": "Feature", "properties": { "inst name": "MUHURIGONJ ABDUL MATIN PATOWARI  HIGH SCHOOL", "eiin": 107392, "inst_type": "School", "district": "NOAKHALI", "thana": "SONAIMURI", "mauza": "DURGA DAULATPUR", "long": 91.03192, "lat": 23.01278, "serial": 21173, "isUnique": 1, "field_11": null }, "geometry": { "type": "Point", "coordinates": [ 91.03192, 23.01278 ] } },
{ "type": "Feature", "properties": { "inst name": "KISHALOY BIDDANIKATON", "eiin": 131281, "inst_type": "School", "district": "NOAKHALI", "thana": "SONAIMURI", "mauza": "KEGHNA", "long": 91.00925, "lat": 23.04144, "serial": 21174, "isUnique": 1, "field_11": null }, "geometry": { "type": "Point", "coordinates": [ 91.00925, 23.04144 ] } },
{ "type": "Feature", "properties": { "inst name": "C.B.L SCHOOl", "eiin": 131328, "inst_type": "School", "district": "NOAKHALI", "thana": "SONAIMURI", "mauza": "KEGHNA", "long": 91.02653, "lat": 23.03567, "serial": 21175, "isUnique": 1, "field_11": null }, "geometry": { "type": "Point", "coordinates": [ 91.02653, 23.03567 ] } },
{ "type": "Feature", "properties": { "inst name": "GANDHI MEMORIAL INSTITUTE", "eiin": 107372, "inst_type": "School", "district": "NOAKHALI", "thana": "SONAIMURI", "mauza": "JAYAG", "long": 91.03994, "lat": 23.03744, "serial": 21176, "isUnique": 1, "field_11": null }, "geometry": { "type": "Point", "coordinates": [ 91.03994, 23.03744 ] } },
{ "type": "Feature", "properties": { "inst name": "JOYAG  BOHUMUKHI HIGH SCHOOL", "eiin": 107377, "inst_type": "School", "district": "NOAKHALI", "thana": "SONAIMURI", "mauza": "JAYAG", "long": 91.04169, "lat": 23.039, "serial": 21177, "isUnique": 1, "field_11": null }, "geometry": { "type": "Point", "coordinates": [ 91.04169, 23.039 ] } },
{ "type": "Feature", "properties": { "inst name": "PALLI MANGAL HIGH SCHOOL", "eiin": 107380, "inst_type": "School", "district": "NOAKHALI", "thana": "SONAIMURI", "mauza": "JUNADPUR", "long": 91.01406, "lat": 23.04089, "serial": 21178, "isUnique": 1, "field_11": null }, "geometry": { "type": "Point", "coordinates": [ 91.01406, 23.04089 ] } },
{ "type": "Feature", "properties": { "inst name": "KALIKAPUR HIGH SCHOOL", "eiin": 107362, "inst_type": "School", "district": "NOAKHALI", "thana": "SONAIMURI", "mauza": "UTTAR KALIKAPUR", "long": 91.04981, "lat": 23.06492, "serial": 21179, "isUnique": 1, "field_11": null }, "geometry": { "type": "Point", "coordinates": [ 91.04981, 23.06492 ] } },
{ "type": "Feature", "properties": { "inst name": "SONAPUR ALI AKBAR HIGH SCHOOL", "eiin": 107387, "inst_type": "School", "district": "NOAKHALI", "thana": "SONAIMURI", "mauza": "DHANYAPUR", "long": 91.00558, "lat": 23.06475, "serial": 21180, "isUnique": 1, "field_11": null }, "geometry": { "type": "Point", "coordinates": [ 91.00558, 23.06475 ] } },
{ "type": "Feature", "properties": { "inst name": "UDAYAN SCHOOL", "eiin": 131317, "inst_type": "School", "district": "NOAKHALI", "thana": "SONAIMURI", "mauza": "KEGHNA", "long": 91.01194, "lat": 23.06358, "serial": 21181, "isUnique": 1, "field_11": null }, "geometry": { "type": "Point", "coordinates": [ 91.01194, 23.06358 ] } },
{ "type": "Feature", "properties": { "inst name": "THANAR HAT HIGH SCHOOL", "eiin": 107388, "inst_type": "School", "district": "NOAKHALI", "thana": "SONAIMURI", "mauza": "MAHUTALA", "long": 91.06703, "lat": 23.02181, "serial": 21182, "isUnique": 1, "field_11": null }, "geometry": { "type": "Point", "coordinates": [ 91.06703, 23.02181 ] } },
{ "type": "Feature", "properties": { "inst name": "FLORA SHIKKHA NIKETON", "eiin": 131364, "inst_type": "School", "district": "NOAKHALI", "thana": "SONAIMURI", "mauza": "HATGAON", "long": 91.02753, "lat": 23.08806, "serial": 21183, "isUnique": 1, "field_11": null }, "geometry": { "type": "Point", "coordinates": [ 91.02753, 23.08806 ] } },
{ "type": "Feature", "properties": { "inst name": "IDEAL KINDER GARTEN", "eiin": 131295, "inst_type": "School", "district": "NOAKHALI", "thana": "SONAIMURI", "mauza": "KEGHNA", "long": 91.02658, "lat": 23.08831, "serial": 21184, "isUnique": 1, "field_11": null }, "geometry": { "type": "Point", "coordinates": [ 91.02658, 23.08831 ] } },
{ "type": "Feature", "properties": { "inst name": "RUBIRHAT BANGABANDHU HIGH SCHOOL", "eiin": 107364, "inst_type": "School", "district": "NOAKHALI", "thana": "SONAIMURI", "mauza": "PANCH BARIA", "long": 91.10517, "lat": 22.99669, "serial": 21185, "isUnique": 1, "field_11": null }, "geometry": { "type": "Point", "coordinates": [ 91.10517, 22.99669 ] } },
{ "type": "Feature", "properties": { "inst name": "NADONA ADARSHA HIGH SCHOOL", "eiin": 107384, "inst_type": "School", "district": "NOAKHALI", "thana": "SONAIMURI", "mauza": "KALUAI", "long": 91.01272, "lat": 23.06489, "serial": 21186, "isUnique": 1, "field_11": null }, "geometry": { "type": "Point", "coordinates": [ 91.01272, 23.06489 ] } },