{
"type": "FeatureCollection",
"crs": { "type": "name", "properties": { "name": "urn:ogc:def:crs:OGC:1.3:CRS84" } },
"features": [
{ "type": "Feature", "properties": { "inst name": "MOHIUDDIN AHMED MoHILA DEGREE COLLeGE", "eiin": 102817, "inst_type": "College", "district": "PIROJPUR", "thana": "MATHBARIA", "mauza": "DAKSHIN MITHAKHALI", "long": 89.957733, "lat": 22.291832, "serial": 1754, "isUnique": 1, "field_11": null, "field_12": null }, "geometry": { "type": "Point", "coordinates": [ 89.957733, 22.291832 ] } },
{ "type": "Feature", "properties": { "inst name": "BHANDARIA  MOJIDA  BEGUM   MOHILA  COLLEGE", "eiin": 102684, "inst_type": "College", "district": "PIROJPUR", "thana": "BHANDARIA", "mauza": "BHANDARIA", "long": 90.06964, "lat": 22.48394, "serial": 1755, "isUnique": 1, "field_11": null, "field_12": null }, "geometry": { "type": "Point", "coordinates": [ 90.06964, 22.48394 ] } },
{ "type": "Feature", "properties": { "inst name": "BHANDARIA GOVT. COLLEGE", "eiin": 102683, "inst_type": "College", "district": "PIROJPUR", "thana": "BHANDARIA", "mauza": "BHANDARIA", "long": 90.06281, "lat": 22.49075, "serial": 1756, "isUnique": 1, "field_11": null, "field_12": null }, "geometry": { "type": "Point", "coordinates": [ 90.06281, 22.49075 ] } },
{ "type": "Feature", "properties": { "inst name": "AMAN ULLAH COLLAGE", "eiin": 102682, "inst_type": "College", "district": "PIROJPUR", "thana": "BHANDARIA", "mauza": "RADHANAGAR", "long": 90.12331, "lat": 22.48619, "serial": 1757, "isUnique": 1, "field_11": null, "field_12": null }, "geometry": { "type": "Point", "coordinates": [ 90.12331, 22.48619 ] } },
{ "type": "Feature", "properties": { "inst name": "MANIK MIAH MOHABIDAALAYA", "eiin": 102681, "inst_type": "College", "district": "PIROJPUR", "thana": "BHANDARIA", "mauza": "ATARKHALI", "long": 90.02056, "lat": 22.41544, "serial": 1758, "isUnique": 1, "field_11": null, "field_12": null }, "geometry": { "type": "Point", "coordinates": [ 90.02056, 22.41544 ] } },
{ "type": "Feature", "properties": { "inst name": "KAUKHALI MOHILA DEGREE COLLEGE", "eiin": 102720, "inst_type": "College", "district": "PIROJPUR", "thana": "KAWKHALI", "mauza": "ASPADDI", "long": 90.09528, "lat": 22.63553, "serial": 1759, "isUnique": 1, "field_11": null, "field_12": null }, "geometry": { "type": "Point", "coordinates": [ 90.09528, 22.63553 ] } },
{ "type": "Feature", "properties": { "inst name": "KAUKHALI  MAHABIDYALAYA", "eiin": 102721, "inst_type": "College", "district": "PIROJPUR", "thana": "KAWKHALI", "mauza": "ASPADDI", "long": 90.05764, "lat": 22.593, "serial": 1760, "isUnique": 1, "field_11": null, "field_12": null }, "geometry": { "type": "Point", "coordinates": [ 90.05764, 22.593 ] } },
{ "type": "Feature", "properties": { "inst name": "MIRUKHALI COLLEGE", "eiin": 102816, "inst_type": "College", "district": "PIROJPUR", "thana": "MATHBARIA", "mauza": "NAPITKHALI", "long": 89.91411, "lat": 22.3625, "serial": 1761, "isUnique": 1, "field_11": null, "field_12": null }, "geometry": { "type": "Point", "coordinates": [ 89.91411, 22.3625 ] } },
{ "type": "Feature", "properties": { "inst name": "SHAHDAT HOSSIAN COLLAGE", "eiin": 102818, "inst_type": "College", "district": "PIROJPUR", "thana": "MATHBARIA", "mauza": "SAPLEZA", "long": 89.94569, "lat": 22.351, "serial": 1762, "isUnique": 1, "field_11": null, "field_12": null }, "geometry": { "type": "Point", "coordinates": [ 89.94569, 22.351 ] } },
{ "type": "Feature", "properties": { "inst name": "MATHBARIA  GOVT. COLLEGE", "eiin": 102819, "inst_type": "College", "district": "PIROJPUR", "thana": "MATHBARIA", "mauza": "NEW MARKET & COLLEGE AREA", "long": 89.88383, "lat": 22.27878, "serial": 1763, "isUnique": 1, "field_11": null, "field_12": null }, "geometry": { "type": "Point", "coordinates": [ 89.88383, 22.27878 ] } },
{ "type": "Feature", "properties": { "inst name": "DR. RUSTUM ALI FARAJI DEGREE COLLEGE", "eiin": 102820, "inst_type": "College", "district": "PIROJPUR", "thana": "MATHBARIA", "mauza": "UTTAR SONAKHALI", "long": 89.99367, "lat": 22.35456, "serial": 1764, "isUnique": 1, "field_11": null, "field_12": null }, "geometry": { "type": "Point", "coordinates": [ 89.99367, 22.35456 ] } },
{ "type": "Feature", "properties": { "inst name": "SAFA DEGREE COLLAGE", "eiin": 102821, "inst_type": "College", "district": "PIROJPUR", "thana": "MATHBARIA", "mauza": "DHANISAFA", "long": 90.01369, "lat": 22.35147, "serial": 1765, "isUnique": 1, "field_11": null, "field_12": null }, "geometry": { "type": "Point", "coordinates": [ 90.01369, 22.35147 ] } },
{ "type": "Feature", "properties": { "inst name": "BANGABANDHU SK. MUJIBUR RAHMAN COLLEGE", "eiin": 131952, "inst_type": "College", "district": "PIROJPUR", "thana": "MATHBARIA", "mauza": "CHHOTA SAULA", "long": 89.92581, "lat": 22.19025, "serial": 1766, "isUnique": 1, "field_11": null, "field_12": null }, "geometry": { "type": "Point", "coordinates": [ 89.92581, 22.19025 ] } },
{ "type": "Feature", "properties": { "inst name": "MATIBHANGA DEGREE COLLEGE", "eiin": 102889, "inst_type": "College", "district": "PIROJPUR", "thana": "NAZIRPUR UPAZILA", "mauza": "MATIBHANGA", "long": 90.04433, "lat": 22.80753, "serial": 1767, "isUnique": 1, "field_11": null, "field_12": null }, "geometry": { "type": "Point", "coordinates": [ 90.04433, 22.80753 ] } },
{ "type": "Feature", "properties": { "inst name": "BAITHAKATA COLLEGE", "eiin": 102890, "inst_type": "College", "district": "PIROJPUR", "thana": "NAZIRPUR UPAZILA", "mauza": "MUGARJHOR", "long": 90.00344, "lat": 22.83142, "serial": 1768, "isUnique": 1, "field_11": null, "field_12": null }, "geometry": { "type": "Point", "coordinates": [ 90.00344, 22.83142 ] } },
{ "type": "Feature", "properties": { "inst name": "SHAHID JANANI MAHILA MAHABIDHALAY", "eiin": 102891, "inst_type": "College", "district": "PIROJPUR", "thana": "NAZIRPUR UPAZILA", "mauza": "DIGHIA", "long": 90.02719, "lat": 22.79564, "serial": 1769, "isUnique": 1, "field_11": null, "field_12": null }, "geometry": { "type": "Point", "coordinates": [ 90.02719, 22.79564 ] } },
{ "type": "Feature", "properties": { "inst name": "NAZIRPUR SHAHID ZIA MAhABIDdALAY", "eiin": 102892, "inst_type": "College", "district": "PIROJPUR", "thana": "NAZIRPUR UPAZILA", "mauza": "CHHOTA BUICHAKATI", "long": 89.93958, "lat": 22.73031, "serial": 1770, "isUnique": 1, "field_11": null, "field_12": null }, "geometry": { "type": "Point", "coordinates": [ 89.93958, 22.73031 ] } },
{ "type": "Feature", "properties": { "inst name": "GHOSHKATHI MOHAVIDYALAYA", "eiin": 102893, "inst_type": "College", "district": "PIROJPUR", "thana": "NAZIRPUR UPAZILA", "mauza": "DAKSHIN GHOSHKATI", "long": 89.89211, "lat": 22.70122, "serial": 1771, "isUnique": 1, "field_11": null, "field_12": null }, "geometry": { "type": "Point", "coordinates": [ 89.89211, 22.70122 ] } },
{ "type": "Feature", "properties": { "inst name": "RAJKUMAR SANSKRITI COLLEGE", "eiin": 102722, "inst_type": "College", "district": "PIROJPUR", "thana": "KAWKHALI", "mauza": "GANDHARBBA", "long": 89.92339, "lat": 22.69456, "serial": 1772, "isUnique": 1, "field_11": null, "field_12": null }, "geometry": { "type": "Point", "coordinates": [ 89.92339, 22.69456 ] } },
{ "type": "Feature", "properties": { "inst name": "RAJBARI degree COLLEGE", "eiin": 103078, "inst_type": "College", "district": "PIROJPUR", "thana": "NESARABAD (SWARUPKATI)", "mauza": "BYASKATI", "long": 90.05575, "lat": 22.76608, "serial": 1773, "isUnique": 1, "field_11": null, "field_12": null }, "geometry": { "type": "Point", "coordinates": [ 90.05575, 22.76608 ] } },
{ "type": "Feature", "properties": { "inst name": "ALHAJ ABDUR RAHMAN COLLEGE", "eiin": 103079, "inst_type": "College", "district": "PIROJPUR", "thana": "NESARABAD (SWARUPKATI)", "mauza": "BALDIA", "long": 90.06625, "lat": 22.69278, "serial": 1774, "isUnique": 1, "field_11": null, "field_12": null }, "geometry": { "type": "Point", "coordinates": [ 90.06625, 22.69278 ] } },
{ "type": "Feature", "properties": { "inst name": "FAZILA RAHMAN MOHILA COLLEGE", "eiin": 103080, "inst_type": "College", "district": "PIROJPUR", "thana": "NESARABAD (SWARUPKATI)", "mauza": "KAURIKHARA", "long": 90.06453, "lat": 22.77881, "serial": 1775, "isUnique": 1, "field_11": null, "field_12": null }, "geometry": { "type": "Point", "coordinates": [ 90.06453, 22.77881 ] } },
{ "type": "Feature", "properties": { "inst name": "SHAHID SMRITY COLLAGE", "eiin": 103081, "inst_type": "College", "district": "PIROJPUR", "thana": "NESARABAD (SWARUPKATI)", "mauza": "PASCHIM JAGANNATHKATI", "long": 90.05558, "lat": 22.72542, "serial": 1776, "isUnique": 1, "field_11": null, "field_12": null }, "geometry": { "type": "Point", "coordinates": [ 90.05558, 22.72542 ] } },
{ "type": "Feature", "properties": { "inst name": "GOVT.SWARUPKATHI COLLEGE", "eiin": 103082, "inst_type": "College", "district": "PIROJPUR", "thana": "NESARABAD (SWARUPKATI)", "mauza": "PURBA SOHAGDAL", "long": 90.06564, "lat": 22.7035, "serial": 1777, "isUnique": 1, "field_11": null, "field_12": null }, "geometry": { "type": "Point", "coordinates": [ 90.06564, 22.7035 ] } },
{ "type": "Feature", "properties": { "inst name": "KABIGURU RABINDRANATH DEGREE COLLAGE", "eiin": 103083, "inst_type": "College", "district": "PIROJPUR", "thana": "NESARABAD (SWARUPKATI)", "mauza": "RAJAPUR BRAHMANKATI", "long": 90.06633, "lat": 22.68714, "serial": 1778, "isUnique": 1, "field_11": null, "field_12": null }, "geometry": { "type": "Point", "coordinates": [ 90.06633, 22.68714 ] } },
{ "type": "Feature", "properties": { "inst name": "SANATAN SANSKRITE COLLAGE", "eiin": 103085, "inst_type": "College", "district": "PIROJPUR", "thana": "NESARABAD (SWARUPKATI)", "mauza": "URIBUNIA", "long": 90.04756, "lat": 22.79922, "serial": 1779, "isUnique": 1, "field_11": null, "field_12": null }, "geometry": { "type": "Point", "coordinates": [ 90.04756, 22.79922 ] } },
{ "type": "Feature", "properties": { "inst name": "PASHCHIM SOHAGDAL SHAHEED SMRITI B.M degree.COLLEGE", "eiin": 131984, "inst_type": "College", "district": "PIROJPUR", "thana": "NESARABAD (SWARUPKATI)", "mauza": "PASCHIM SOHAGDAL", "long": 90.08725, "lat": 22.75797, "serial": 1780, "isUnique": 1, "field_11": null, "field_12": null }, "geometry": { "type": "Point", "coordinates": [ 90.08725, 22.75797 ] } },
{ "type": "Feature", "properties": { "inst name": "AFTABUDDIN COLLEGE", "eiin": 102954, "inst_type": "College", "district": "PIROJPUR", "thana": "PIROJPUR SADAR", "mauza": "MACHIMPUR (UTTER)", "long": 89.92847, "lat": 22.649, "serial": 1781, "isUnique": 1, "field_11": null, "field_12": null }, "geometry": { "type": "Point", "coordinates": [ 89.92847, 22.649 ] } },
{ "type": "Feature", "properties": { "inst name": "GOVT  .  SUHRAWARDY  COLLEGE   PIROJPUR", "eiin": 102955, "inst_type": "College", "district": "PIROJPUR", "thana": "PIROJPUR SADAR", "mauza": "MUKTARKATI", "long": 89.93372, "lat": 22.61772, "serial": 1782, "isUnique": 1, "field_11": null, "field_12": null }, "geometry": { "type": "Point", "coordinates": [ 89.93372, 22.61772 ] } },
{ "type": "Feature", "properties": { "inst name": "PIROJPUR GOVERNMENT MAHILA COLLEGE", "eiin": 102956, "inst_type": "College", "district": "PIROJPUR", "thana": "PIROJPUR SADAR", "mauza": "MACHIMPUR (UTTER)", "long": 89.95217, "lat": 22.67544, "serial": 1783, "isUnique": 1, "field_11": null, "field_12": null }, "geometry": { "type": "Point", "coordinates": [ 89.95217, 22.67544 ] } },
{ "type": "Feature", "properties": { "inst name": "TEJDASKATHI COLLEGE", "eiin": 102957, "inst_type": "College", "district": "PIROJPUR", "thana": "PIROJPUR SADAR", "mauza": "TONA", "long": 89.99472, "lat": 22.51308, "serial": 1784, "isUnique": 2, "field_11": null, "field_12": null }, "geometry": { "type": "Point", "coordinates": [ 89.99472, 22.51308 ] } },
{ "type": "Feature", "properties": { "inst name": "ZIANAGAR DEGREE COLLEGE", "eiin": 102986, "inst_type": "College", "district": "PIROJPUR", "thana": "ZIANAGAR", "mauza": "INDURKANI", "long": 89.9265, "lat": 22.48103, "serial": 1785, "isUnique": 1, "field_11": null, "field_12": null }, "geometry": { "type": "Point", "coordinates": [ 89.9265, 22.48103 ] } },
{ "type": "Feature", "properties": { "inst name": "K.C. TECHINCAL & BUSINESS NANAGEMENT COLLAGE", "eiin": 133059, "inst_type": "College", "district": "PIROJPUR", "thana": "ZIANAGAR", "mauza": "CHANDIPUR", "long": 89.9675, "lat": 22.53844, "serial": 1786, "isUnique": 1, "field_11": null, "field_12": null }, "geometry": { "type": "Point", "coordinates": [ 89.9675, 22.53844 ] } },
{ "type": "Feature", "properties": { "inst name": "BHANDARIA Shahabuddin FAZIL  MADRASAH", "eiin": 102653, "inst_type": "Madrasha", "district": "PIROJPUR", "thana": "BHANDARIA", "mauza": "BHANDARIA", "long": 90.57961, "lat": 22.45022, "serial": 8638, "isUnique": 2, "field_11": null, "field_12": null }, "geometry": { "type": "Point", "coordinates": [ 90.57961, 22.45022 ] } },
{ "type": "Feature", "properties": { "inst name": "DHAWA BAITUL AMAN DAKHIL MADRASHA", "eiin": 102680, "inst_type": "Madrasha", "district": "PIROJPUR", "thana": "BHANDARIA", "mauza": "DHAOA", "long": 90.05814, "lat": 22.46275, "serial": 8639, "isUnique": 1, "field_11": null, "field_12": null }, "geometry": { "type": "Point", "coordinates": [ 90.05814, 22.46275 ] } },
{ "type": "Feature", "properties": { "inst name": "DAKKHIN GAZIPUR DAKHIL MADRASAH", "eiin": 102663, "inst_type": "Madrasha", "district": "PIROJPUR", "thana": "BHANDARIA", "mauza": "GAZIPUR", "long": 90.06172, "lat": 22.48789, "serial": 8640, "isUnique": 1, "field_11": null, "field_12": null }, "geometry": { "type": "Point", "coordinates": [ 90.06172, 22.48789 ] } },
{ "type": "Feature", "properties": { "inst name": "DHAWA NALKATA DAKHIL MADRASHA", "eiin": 102668, "inst_type": "Madrasha", "district": "PIROJPUR", "thana": "BHANDARIA", "mauza": "DHAOA", "long": 90.0265, "lat": 22.46356, "serial": 8641, "isUnique": 1, "field_11": null, "field_12": null }, "geometry": { "type": "Point", "coordinates": [ 90.0265, 22.46356 ] } },
{ "type": "Feature", "properties": { "inst name": "PASHARIBUNIA  W. A. DAKHIL MADRASHA", "eiin": 102647, "inst_type": "Madrasha", "district": "PIROJPUR", "thana": "BHANDARIA", "mauza": "PURBA PASURIBUNIA", "long": 90.03625, "lat": 22.48169, "serial": 8642, "isUnique": 1, "field_11": null, "field_12": null }, "geometry": { "type": "Point", "coordinates": [ 90.03625, 22.48169 ] } },
{ "type": "Feature", "properties": { "inst name": "PASHARI BUNIA N M KARIGARI DAKHIL MADRASHA", "eiin": 102649, "inst_type": "Madrasha", "district": "PIROJPUR", "thana": "BHANDARIA", "mauza": "PURBA PASURIBUNIA", "long": 90.00167, "lat": 22.45903, "serial": 8643, "isUnique": 1, "field_11": null, "field_12": null }, "geometry": { "type": "Point", "coordinates": [ 90.00167, 22.45903 ] } },
{ "type": "Feature", "properties": { "inst name": "RAJPASHA BALIKA DAKHIL MADRASHA", "eiin": 102645, "inst_type": "Madrasha", "district": "PIROJPUR", "thana": "BHANDARIA", "mauza": "RAJAPASHA", "long": 89.99847, "lat": 22.448, "serial": 8644, "isUnique": 1, "field_11": null, "field_12": null }, "geometry": { "type": "Point", "coordinates": [ 89.99847, 22.448 ] } },
{ "type": "Feature", "properties": { "inst name": "RAJPASHA DARUS SARIAT DAKHIL MADRASHA", "eiin": 102673, "inst_type": "Madrasha", "district": "PIROJPUR", "thana": "BHANDARIA", "mauza": "RAJAPASHA", "long": 90.02064, "lat": 22.44519, "serial": 8645, "isUnique": 1, "field_11": null, "field_12": null }, "geometry": { "type": "Point", "coordinates": [ 90.02064, 22.44519 ] } },
{ "type": "Feature", "properties": { "inst name": "PAshchim RAJPASHA DAKHIL MADRASHA", "eiin": 102670, "inst_type": "Madrasha", "district": "PIROJPUR", "thana": "BHANDARIA", "mauza": "BHANDARIA", "long": 90.03622, "lat": 22.47256, "serial": 8646, "isUnique": 1, "field_11": null, "field_12": null }, "geometry": { "type": "Point", "coordinates": [ 90.03622, 22.47256 ] } },
{ "type": "Feature", "properties": { "inst name": "UTTAR DHAWA AL HAJ KASHEMIA ALIM MADRASA", "eiin": 102664, "inst_type": "Madrasha", "district": "PIROJPUR", "thana": "BHANDARIA", "mauza": "DHAOA", "long": 90.00681, "lat": 22.43758, "serial": 8647, "isUnique": 1, "field_11": null, "field_12": null }, "geometry": { "type": "Point", "coordinates": [ 90.00681, 22.43758 ] } },
{ "type": "Feature", "properties": { "inst name": "CHARAIL ABDUL ALI ALIM MADRASAH", "eiin": 102646, "inst_type": "Madrasha", "district": "PIROJPUR", "thana": "BHANDARIA", "mauza": "DAKSHIN CHARAIL", "long": 90.10789, "lat": 22.48156, "serial": 8648, "isUnique": 1, "field_11": null, "field_12": null }, "geometry": { "type": "Point", "coordinates": [ 90.10789, 22.48156 ] } },
{ "type": "Feature", "properties": { "inst name": "GOURIPUR HAZI LAHAz UDDIN DAKHIL MADRASHA", "eiin": 102675, "inst_type": "Madrasha", "district": "PIROJPUR", "thana": "BHANDARIA", "mauza": "GAURIPUR", "long": 90.10831, "lat": 22.48361, "serial": 8649, "isUnique": 1, "field_11": null, "field_12": null }, "geometry": { "type": "Point", "coordinates": [ 90.10831, 22.48361 ] } },
{ "type": "Feature", "properties": { "inst name": "PURBO MATIBANGIA MONTAZIA DAKHIL MADRASHA", "eiin": 102648, "inst_type": "Madrasha", "district": "PIROJPUR", "thana": "BHANDARIA", "mauza": "MATIBHANGA", "long": 90.12422, "lat": 22.48872, "serial": 8650, "isUnique": 1, "field_11": null, "field_12": null }, "geometry": { "type": "Point", "coordinates": [ 90.12422, 22.48872 ] } },
{ "type": "Feature", "properties": { "inst name": "NAYAKHALI MATIVANGA ALIM MADRASHA", "eiin": 102652, "inst_type": "Madrasha", "district": "PIROJPUR", "thana": "BHANDARIA", "mauza": "NAYAKHALI", "long": 90.09047, "lat": 22.46622, "serial": 8651, "isUnique": 1, "field_11": null, "field_12": null }, "geometry": { "type": "Point", "coordinates": [ 90.09047, 22.46622 ] } },
{ "type": "Feature", "properties": { "inst name": "PAIKKHALI MOMENIA ALIM MADRASHA", "eiin": 102656, "inst_type": "Madrasha", "district": "PIROJPUR", "thana": "BHANDARIA", "mauza": "PAIKKHALI", "long": 90.09819, "lat": 22.45714, "serial": 8652, "isUnique": 1, "field_11": null, "field_12": null }, "geometry": { "type": "Point", "coordinates": [ 90.09819, 22.45714 ] } },
{ "type": "Feature", "properties": { "inst name": "PURBO MATIVANGA S. N. GIRLS DAKHIL MADRASA", "eiin": 102666, "inst_type": "Madrasha", "district": "PIROJPUR", "thana": "BHANDARIA", "mauza": "MATIBHANGA", "long": 90.10964, "lat": 22.46331, "serial": 8653, "isUnique": 1, "field_11": null, "field_12": null }, "geometry": { "type": "Point", "coordinates": [ 90.10964, 22.46331 ] } },
{ "type": "Feature", "properties": { "inst name": "MAFSAR UL ULUM DAKHIL MADRASHA", "eiin": 102678, "inst_type": "Madrasha", "district": "PIROJPUR", "thana": "BHANDARIA", "mauza": "RADHANAGAR", "long": 90.08417, "lat": 22.45911, "serial": 8654, "isUnique": 1, "field_11": null, "field_12": null }, "geometry": { "type": "Point", "coordinates": [ 90.08417, 22.45911 ] } },
{ "type": "Feature", "properties": { "inst name": "ATOR KHALI ISLAMIA ALIM MADRASA", "eiin": 102657, "inst_type": "Madrasha", "district": "PIROJPUR", "thana": "BHANDARIA", "mauza": "ATARKHALI", "long": 90.09767, "lat": 22.45569, "serial": 8655, "isUnique": 1, "field_11": null, "field_12": null }, "geometry": { "type": "Point", "coordinates": [ 90.09767, 22.45569 ] } },
{ "type": "Feature", "properties": { "inst name": "EKRI NESARIA DAKHIL MADRASHA", "eiin": 102661, "inst_type": "Madrasha", "district": "PIROJPUR", "thana": "BHANDARIA", "mauza": "IKRI", "long": 90.01181, "lat": 22.42775, "serial": 8656, "isUnique": 1, "field_11": null, "field_12": null }, "geometry": { "type": "Point", "coordinates": [ 90.01181, 22.42775 ] } },
{ "type": "Feature", "properties": { "inst name": "B. P. M. DAKHIL MADRASA", "eiin": 102662, "inst_type": "Madrasha", "district": "PIROJPUR", "thana": "BHANDARIA", "mauza": "PASCHIM PASURIBUNIA", "long": 89.98411, "lat": 22.45033, "serial": 8657, "isUnique": 1, "field_11": null, "field_12": null }, "geometry": { "type": "Point", "coordinates": [ 89.98411, 22.45033 ] } },
{ "type": "Feature", "properties": { "inst name": "SHINGHKHALI DAKHIL MADRASHA", "eiin": 102654, "inst_type": "Madrasha", "district": "PIROJPUR", "thana": "BHANDARIA", "mauza": "BETAGI SINGHAKHALI", "long": 89.99172, "lat": 22.41172, "serial": 8658, "isUnique": 1, "field_11": null, "field_12": null }, "geometry": { "type": "Point", "coordinates": [ 89.99172, 22.41172 ] } },
{ "type": "Feature", "properties": { "inst name": "CHARKHALI  DAKHIL  MADRASaH", "eiin": 131748, "inst_type": "Madrasha", "district": "PIROJPUR", "thana": "BHANDARIA", "mauza": "CHAR KHALI", "long": 90.05778, "lat": 22.48672, "serial": 8659, "isUnique": 1, "field_11": null, "field_12": null }, "geometry": { "type": "Point", "coordinates": [ 90.05778, 22.48672 ] } },
{ "type": "Feature", "properties": { "inst name": "ISLAMIA DAKHIL BALIKA MADRSHA", "eiin": 102677, "inst_type": "Madrasha", "district": "PIROJPUR", "thana": "BHANDARIA", "mauza": "CHAUARIA", "long": 89.99336, "lat": 22.46308, "serial": 8660, "isUnique": 1, "field_11": null, "field_12": null }, "geometry": { "type": "Point", "coordinates": [ 89.99336, 22.46308 ] } },
{ "type": "Feature", "properties": { "inst name": "DASKHIN SHEAL KHATI ALIM MADRASAH", "eiin": 102658, "inst_type": "Madrasha", "district": "PIROJPUR", "thana": "BHANDARIA", "mauza": "NUDMULLA", "long": 89.99964, "lat": 22.45111, "serial": 8661, "isUnique": 1, "field_11": null, "field_12": null }, "geometry": { "type": "Point", "coordinates": [ 89.99964, 22.45111 ] } },
{ "type": "Feature", "properties": { "inst name": "NADMULA DAKHIL MADRASAH", "eiin": 102660, "inst_type": "Madrasha", "district": "PIROJPUR", "thana": "BHANDARIA", "mauza": "NUDMULLA", "long": 90.01831, "lat": 22.48003, "serial": 8662, "isUnique": 1, "field_11": null, "field_12": null }, "geometry": { "type": "Point", "coordinates": [ 90.01831, 22.48003 ] } },
{ "type": "Feature", "properties": { "inst name": "ISLAMEA GIRLS DHAKIL MADRASAH", "eiin": 102667, "inst_type": "Madrasha", "district": "PIROJPUR", "thana": "BHANDARIA", "mauza": "NUDMULLA", "long": 90.05575, "lat": 22.481, "serial": 8663, "isUnique": 1, "field_11": null, "field_12": null }, "geometry": { "type": "Point", "coordinates": [ 90.05575, 22.481 ] } },
{ "type": "Feature", "properties": { "inst name": "GOLBUNIA NESARIA DAKHIL MADRASAH", "eiin": 102671, "inst_type": "Madrasha", "district": "PIROJPUR", "thana": "BHANDARIA", "mauza": "GOLBUNIA", "long": 90.05469, "lat": 22.48483, "serial": 8664, "isUnique": 1, "field_11": null, "field_12": null }, "geometry": { "type": "Point", "coordinates": [ 90.05469, 22.48483 ] } },
{ "type": "Feature", "properties": { "inst name": "HORIN PALA SIDDIkIA NESAHRIA DAKHIL MADRASAH", "eiin": 102665, "inst_type": "Madrasha", "district": "PIROJPUR", "thana": "BHANDARIA", "mauza": "JUNIA", "long": 90.01756, "lat": 22.479, "serial": 8665, "isUnique": 1, "field_11": null, "field_12": null }, "geometry": { "type": "Point", "coordinates": [ 90.01756, 22.479 ] } },
{ "type": "Feature", "properties": { "inst name": "JUNIA ISLAMIM DAKHIL MADRASHA", "eiin": 102676, "inst_type": "Madrasha", "district": "PIROJPUR", "thana": "BHANDARIA", "mauza": "JUNIA", "long": 90.02406, "lat": 22.47528, "serial": 8666, "isUnique": 1, "field_11": null, "field_12": null }, "geometry": { "type": "Point", "coordinates": [ 90.02406, 22.47528 ] } },
{ "type": "Feature", "properties": { "inst name": "PASCHIM GOLBUNIA GIRLS DAKHIL MADRASAH", "eiin": 102679, "inst_type": "Madrasha", "district": "PIROJPUR", "thana": "BHANDARIA", "mauza": "JUNIA", "long": 89.94503, "lat": 22.38578, "serial": 8667, "isUnique": 1, "field_11": null, "field_12": null }, "geometry": { "type": "Point", "coordinates": [ 89.94503, 22.38578 ] } },
{ "type": "Feature", "properties": { "inst name": "TELIKHALI ISLAMIA FAZIL MADRASA", "eiin": 102651, "inst_type": "Madrasha", "district": "PIROJPUR", "thana": "BHANDARIA", "mauza": "TELIKHALI", "long": 89.96875, "lat": 22.42178, "serial": 8668, "isUnique": 1, "field_11": null, "field_12": null }, "geometry": { "type": "Point", "coordinates": [ 89.96875, 22.42178 ] } },
{ "type": "Feature", "properties": { "inst name": "DARUSSUNNAT  ZAMIA ISLAMIA SENIOR FAZIL MADRASAH", "eiin": 102707, "inst_type": "Madrasha", "district": "PIROJPUR", "thana": "KAWKHALI", "mauza": "SHIALKATI", "long": 90.09264, "lat": 22.60153, "serial": 8669, "isUnique": 1, "field_11": null, "field_12": null }, "geometry": { "type": "Point", "coordinates": [ 90.09264, 22.60153 ] } },
{ "type": "Feature", "properties": { "inst name": "BIJOY NAGAR ISLAMIA ALIM MADRASAH", "eiin": 102708, "inst_type": "Madrasha", "district": "PIROJPUR", "thana": "KAWKHALI", "mauza": "BIJOYNAGAR", "long": 90.03672, "lat": 22.63656, "serial": 8670, "isUnique": 1, "field_11": null, "field_12": null }, "geometry": { "type": "Point", "coordinates": [ 90.03672, 22.63656 ] } },
{ "type": "Feature", "properties": { "inst name": "SHAPLEZA JAITUNIA DAKHIL MADRASAH", "eiin": 102709, "inst_type": "Madrasha", "district": "PIROJPUR", "thana": "KAWKHALI", "mauza": "JOLAGATI", "long": 90.06261, "lat": 22.62922, "serial": 8671, "isUnique": 1, "field_11": null, "field_12": null }, "geometry": { "type": "Point", "coordinates": [ 90.06261, 22.62922 ] } },
{ "type": "Feature", "properties": { "inst name": "NANGULI NESARA FIZIL MADRASAH", "eiin": 102710, "inst_type": "Madrasha", "district": "PIROJPUR", "thana": "KAWKHALI", "mauza": "NANGULI", "long": 90.02881, "lat": 22.62094, "serial": 8672, "isUnique": 1, "field_11": null, "field_12": null }, "geometry": { "type": "Point", "coordinates": [ 90.02881, 22.62094 ] } },
{ "type": "Feature", "properties": { "inst name": "JOLAGATI  ISLAMIA fazil MADRASHA", "eiin": 102711, "inst_type": "Madrasha", "district": "PIROJPUR", "thana": "KAWKHALI", "mauza": "JOLAGATI", "long": 90.04475, "lat": 22.54833, "serial": 8673, "isUnique": 1, "field_11": null, "field_12": null }, "geometry": { "type": "Point", "coordinates": [ 90.04475, 22.54833 ] } },
{ "type": "Feature", "properties": { "inst name": "SAPTAGRAM SAMMILANI ISLAMIA DAKHI MADRASAH", "eiin": 102712, "inst_type": "Madrasha", "district": "PIROJPUR", "thana": "KAWKHALI", "mauza": "AIRAN JHAPARSI", "long": 90.04919, "lat": 22.57519, "serial": 8674, "isUnique": 1, "field_11": null, "field_12": null }, "geometry": { "type": "Point", "coordinates": [ 90.04919, 22.57519 ] } },
{ "type": "Feature", "properties": { "inst name": "PANCHAGRAM SAMMILANI ISLAMIA DAKHIL MADRASAH", "eiin": 102713, "inst_type": "Madrasha", "district": "PIROJPUR", "thana": "KAWKHALI", "mauza": "KANTHALIA", "long": 90.03792, "lat": 22.58169, "serial": 8675, "isUnique": 1, "field_11": null, "field_12": null }, "geometry": { "type": "Point", "coordinates": [ 90.03792, 22.58169 ] } },
{ "type": "Feature", "properties": { "inst name": "KOWKHALI NESARIA DAKHIL MADRASAH", "eiin": 102714, "inst_type": "Madrasha", "district": "PIROJPUR", "thana": "KAWKHALI", "mauza": "KEUNDIA MADHUKATI", "long": 90.03525, "lat": 22.54444, "serial": 8676, "isUnique": 1, "field_11": null, "field_12": null }, "geometry": { "type": "Point", "coordinates": [ 90.03525, 22.54444 ] } },
{ "type": "Feature", "properties": { "inst name": "PAR SATURIA SALEKIA DAKHIL MADRASAH", "eiin": 102716, "inst_type": "Madrasha", "district": "PIROJPUR", "thana": "KAWKHALI", "mauza": "CHIRA PARA PARSATURA", "long": 90.09417, "lat": 22.62158, "serial": 8677, "isUnique": 1, "field_11": null, "field_12": null }, "geometry": { "type": "Point", "coordinates": [ 90.09417, 22.62158 ] } },
{ "type": "Feature", "properties": { "inst name": "BETKA MAHMUDA DAKHIL MADRASAH", "eiin": 102717, "inst_type": "Madrasha", "district": "PIROJPUR", "thana": "KAWKHALI", "mauza": "BETKA", "long": 90.05192, "lat": 22.55158, "serial": 8678, "isUnique": 1, "field_11": null, "field_12": null }, "geometry": { "type": "Point", "coordinates": [ 90.05192, 22.55158 ] } },
{ "type": "Feature", "properties": { "inst name": "R. S. D. M. DAKHIL MADRASAH", "eiin": 102718, "inst_type": "Madrasha", "district": "PIROJPUR", "thana": "KAWKHALI", "mauza": "DHABRI", "long": 90.09825, "lat": 22.60575, "serial": 8679, "isUnique": 1, "field_11": null, "field_12": null }, "geometry": { "type": "Point", "coordinates": [ 90.09825, 22.60575 ] } },
{ "type": "Feature", "properties": { "inst name": "KOWKHALI KANDREO ALIM MADRASAH", "eiin": 102719, "inst_type": "Madrasha", "district": "PIROJPUR", "thana": "KAWKHALI", "mauza": "CHIRA PARA PARSATURA", "long": 90.07439, "lat": 22.59956, "serial": 8680, "isUnique": 1, "field_11": null, "field_12": null }, "geometry": { "type": "Point", "coordinates": [ 90.07439, 22.59956 ] } },
{ "type": "Feature", "properties": { "inst name": "DHANISHAFA SALEHIA FAZIL MADRASA", "eiin": 102769, "inst_type": "Madrasha", "district": "PIROJPUR", "thana": "MATHBARIA", "mauza": "DHANISAFA", "long": 89.95006, "lat": 22.22478, "serial": 8681, "isUnique": 1, "field_11": null, "field_12": null }, "geometry": { "type": "Point", "coordinates": [ 89.95006, 22.22478 ] } },
{ "type": "Feature", "properties": { "inst name": "KAKRABUNIA GIRLS ALIM MADRASA", "eiin": 102770, "inst_type": "Madrasha", "district": "PIROJPUR", "thana": "MATHBARIA", "mauza": "GHOSHER TIKIKATA", "long": 89.95022, "lat": 22.33933, "serial": 8682, "isUnique": 1, "field_11": null, "field_12": null }, "geometry": { "type": "Point", "coordinates": [ 89.95022, 22.33933 ] } },
{ "type": "Feature", "properties": { "inst name": "JAREPERCHAR ALHAJ A. GANI DAKHIL MADRASAH", "eiin": 102771, "inst_type": "Madrasha", "district": "PIROJPUR", "thana": "MATHBARIA", "mauza": "JARIPER CHAR", "long": 89.88136, "lat": 22.2635, "serial": 8683, "isUnique": 1, "field_11": null, "field_12": null }, "geometry": { "type": "Point", "coordinates": [ 89.88136, 22.2635 ] } },
{ "type": "Feature", "properties": { "inst name": "DAUDKHALI FAZIL MADRASA", "eiin": 102772, "inst_type": "Madrasha", "district": "PIROJPUR", "thana": "MATHBARIA", "mauza": "DAUDKHALI", "long": 89.88711, "lat": 22.25481, "serial": 8684, "isUnique": 1, "field_11": null, "field_12": null }, "geometry": { "type": "Point", "coordinates": [ 89.88711, 22.25481 ] } },
{ "type": "Feature", "properties": { "inst name": "BETMORE ASHRAFUL ULUM FAJIL MADRASA", "eiin": 102773, "inst_type": "Madrasha", "district": "PIROJPUR", "thana": "MATHBARIA", "mauza": "BETMORE RAJPARA", "long": 89.96092, "lat": 22.31597, "serial": 8685, "isUnique": 1, "field_11": null, "field_12": null }, "geometry": { "type": "Point", "coordinates": [ 89.96092, 22.31597 ] } },
{ "type": "Feature", "properties": { "inst name": "SHAPLEZA NESARIA ALIM MADRASHA", "eiin": 102775, "inst_type": "Madrasha", "district": "PIROJPUR", "thana": "MATHBARIA", "mauza": "BHAIJORA", "long": 89.96633, "lat": 22.35767, "serial": 8686, "isUnique": 1, "field_11": null, "field_12": null }, "geometry": { "type": "Point", "coordinates": [ 89.96633, 22.35767 ] } },
{ "type": "Feature", "properties": { "inst name": "TIKIKATA NURIA FAZIL MADRASHA", "eiin": 102779, "inst_type": "Madrasha", "district": "PIROJPUR", "thana": "MATHBARIA", "mauza": "SENER TIKIKATA", "long": 89.93447, "lat": 22.27997, "serial": 8688, "isUnique": 1, "field_11": null, "field_12": null }, "geometry": { "type": "Point", "coordinates": [ 89.93447, 22.27997 ] } },
{ "type": "Feature", "properties": { "inst name": "HARZEE NOLBUNIA IS. DAKHIL MADRASHA", "eiin": 102780, "inst_type": "Madrasha", "district": "PIROJPUR", "thana": "MATHBARIA", "mauza": "HARJI NALBUNIA", "long": 90.05039, "lat": 22.34669, "serial": 8689, "isUnique": 1, "field_11": null, "field_12": null }, "geometry": { "type": "Point", "coordinates": [ 90.05039, 22.34669 ] } },
{ "type": "Feature", "properties": { "inst name": "PATHAKATA DAKHIL MADRASHA", "eiin": 102781, "inst_type": "Madrasha", "district": "PIROJPUR", "thana": "MATHBARIA", "mauza": "PATAKATA", "long": 89.91447, "lat": 22.27039, "serial": 8690, "isUnique": 1, "field_11": null, "field_12": null }, "geometry": { "type": "Point", "coordinates": [ 89.91447, 22.27039 ] } },
{ "type": "Feature", "properties": { "inst name": "TAFALBARIA HASANIA SR.ALIM MADRASHA", "eiin": 102782, "inst_type": "Madrasha", "district": "PIROJPUR", "thana": "MATHBARIA", "mauza": "TAFALBARIA", "long": 89.90353, "lat": 22.20731, "serial": 8691, "isUnique": 1, "field_11": null, "field_12": null }, "geometry": { "type": "Point", "coordinates": [ 89.90353, 22.20731 ] } },
{ "type": "Feature", "properties": { "inst name": "JHATIBUNI ISLAMIA DAKHIL MADRASHA", "eiin": 102783, "inst_type": "Madrasha", "district": "PIROJPUR", "thana": "MATHBARIA", "mauza": "SAPLEZA", "long": 89.89264, "lat": 22.224, "serial": 8692, "isUnique": 1, "field_11": null, "field_12": null }, "geometry": { "type": "Point", "coordinates": [ 89.89264, 22.224 ] } },
{ "type": "Feature", "properties": { "inst name": "PASCHIM MITHAKHALI NASARIA DAKHIL MADRASAH", "eiin": 102784, "inst_type": "Madrasha", "district": "PIROJPUR", "thana": "MATHBARIA", "mauza": "UTTAR MITHAKHALI", "long": 89.95581, "lat": 22.27478, "serial": 8693, "isUnique": 1, "field_11": null, "field_12": null }, "geometry": { "type": "Point", "coordinates": [ 89.95581, 22.27478 ] } },
{ "type": "Feature", "properties": { "inst name": "BARA MASUA DAKHIL MADRASHA", "eiin": 102785, "inst_type": "Madrasha", "district": "PIROJPUR", "thana": "MATHBARIA", "mauza": "KHEJURBARIA", "long": 90.00294, "lat": 22.32606, "serial": 8694, "isUnique": 1, "field_11": null, "field_12": null }, "geometry": { "type": "Point", "coordinates": [ 90.00294, 22.32606 ] } },
{ "type": "Feature", "properties": { "inst name": "MATHBARIA MOMENIA DAKHIL MADRASAH", "eiin": 102786, "inst_type": "Madrasha", "district": "PIROJPUR", "thana": "MATHBARIA", "mauza": "MADHYA MITHAKHALI", "long": 89.98614, "lat": 22.31842, "serial": 8695, "isUnique": 1, "field_11": null, "field_12": null }, "geometry": { "type": "Point", "coordinates": [ 89.98614, 22.31842 ] } },
{ "type": "Feature", "properties": { "inst name": "MITHA KHALI GUDIGHATA alim  MADRASAh", "eiin": 102787, "inst_type": "Madrasha", "district": "PIROJPUR", "thana": "MATHBARIA", "mauza": "DAKSHIN MITHAKHALI", "long": 89.92678, "lat": 22.18103, "serial": 8696, "isUnique": 1, "field_11": null, "field_12": null }, "geometry": { "type": "Point", "coordinates": [ 89.92678, 22.18103 ] } },
{ "type": "Feature", "properties": { "inst name": "GULISHA KHALI SALEHIA SenIOR (ALIM) MADRASAH", "eiin": 102789, "inst_type": "Madrasha", "district": "PIROJPUR", "thana": "MATHBARIA", "mauza": "GULISHAKHALI", "long": 89.91531, "lat": 22.31433, "serial": 8698, "isUnique": 1, "field_11": null, "field_12": null }, "geometry": { "type": "Point", "coordinates": [ 89.91531, 22.31433 ] } },
{ "type": "Feature", "properties": { "inst name": "NAGRABHANGA DAKHIL MADRASAH", "eiin": 102790, "inst_type": "Madrasha", "district": "PIROJPUR", "thana": "MATHBARIA", "mauza": "NAGRABHANGA", "long": 89.89742, "lat": 22.30731, "serial": 8699, "isUnique": 1, "field_11": null, "field_12": null }, "geometry": { "type": "Point", "coordinates": [ 89.89742, 22.30731 ] } },
{ "type": "Feature", "properties": { "inst name": "CHOTTO SINGA NESARIA DHAKIL MADRASHA", "eiin": 102791, "inst_type": "Madrasha", "district": "PIROJPUR", "thana": "MATHBARIA", "mauza": "SINGA", "long": 89.95208, "lat": 22.28928, "serial": 8700, "isUnique": 1, "field_11": null, "field_12": null }, "geometry": { "type": "Point", "coordinates": [ 89.95208, 22.28928 ] } },
{ "type": "Feature", "properties": { "inst name": "TUSHKHALI N.S. DAKHIL MADRASAH", "eiin": 102792, "inst_type": "Madrasha", "district": "PIROJPUR", "thana": "MATHBARIA", "mauza": "TUSHKHALI", "long": 89.93564, "lat": 22.33589, "serial": 8701, "isUnique": 1, "field_11": null, "field_12": null }, "geometry": { "type": "Point", "coordinates": [ 89.93564, 22.33589 ] } },
{ "type": "Feature", "properties": { "inst name": "UTTAR HALTA NESARIA DAKHIL MADRASHA", "eiin": 102793, "inst_type": "Madrasha", "district": "PIROJPUR", "thana": "MATHBARIA", "mauza": "UTTAR HALTA", "long": 89.96667, "lat": 22.32167, "serial": 8702, "isUnique": 1, "field_11": null, "field_12": null }, "geometry": { "type": "Point", "coordinates": [ 89.96667, 22.32167 ] } },
{ "type": "Feature", "properties": { "inst name": "KAKRABUNIA ISLAMIA DAKHIL MADRASAH", "eiin": 102794, "inst_type": "Madrasha", "district": "PIROJPUR", "thana": "MATHBARIA", "mauza": "GHOSHER TIKIKATA", "long": 89.9805, "lat": 22.22539, "serial": 8703, "isUnique": 1, "field_11": null, "field_12": null }, "geometry": { "type": "Point", "coordinates": [ 89.9805, 22.22539 ] } },
{ "type": "Feature", "properties": { "inst name": "TAFALBARIA HAKIMIA MOHILA  ALIM MADRASAH", "eiin": 102796, "inst_type": "Madrasha", "district": "PIROJPUR", "thana": "MATHBARIA", "mauza": "TAFALBARIA", "long": 89.98136, "lat": 22.33883, "serial": 8704, "isUnique": 1, "field_11": null, "field_12": null }, "geometry": { "type": "Point", "coordinates": [ 89.98136, 22.33883 ] } },
{ "type": "Feature", "properties": { "inst name": "CHOTO SAWLA S.H. DAKHIL MADRASHA", "eiin": 102797, "inst_type": "Madrasha", "district": "PIROJPUR", "thana": "MATHBARIA", "mauza": "DEBIPUR", "long": 89.98419, "lat": 22.26686, "serial": 8705, "isUnique": 1, "field_11": null, "field_12": null }, "geometry": { "type": "Point", "coordinates": [ 89.98419, 22.26686 ] } },
{ "type": "Feature", "properties": { "inst name": "KHAER GHATI CHARA HAMIDIA DAKHIL MADRASHA", "eiin": 102798, "inst_type": "Madrasha", "district": "PIROJPUR", "thana": "MATHBARIA", "mauza": "KHAR GHATICHORA", "long": 89.91697, "lat": 22.36083, "serial": 8706, "isUnique": 1, "field_11": null, "field_12": null }, "geometry": { "type": "Point", "coordinates": [ 89.91697, 22.36083 ] } },
{ "type": "Feature", "properties": { "inst name": "BADURA D.S.H. DAKHIL MADRASHA", "eiin": 102799, "inst_type": "Madrasha", "district": "PIROJPUR", "thana": "MATHBARIA", "mauza": "NAGRABHANGA", "long": 90.00692, "lat": 22.25825, "serial": 8707, "isUnique": 1, "field_11": null, "field_12": null }, "geometry": { "type": "Point", "coordinates": [ 90.00692, 22.25825 ] } },
{ "type": "Feature", "properties": { "inst name": "DAKKHIN AMRAGACHIA NEHAL UDDIN DAKHIL MADRASAH", "eiin": 102800, "inst_type": "Madrasha", "district": "PIROJPUR", "thana": "MATHBARIA", "mauza": "AMRAGACHHIA HOGALPATI", "long": 90.01858, "lat": 22.30539, "serial": 8708, "isUnique": 1, "field_11": null, "field_12": null }, "geometry": { "type": "Point", "coordinates": [ 90.01858, 22.30539 ] } },
{ "type": "Feature", "properties": { "inst name": "UTTER MANIKKHALI MUNSHI A.KARIM GIRLS MADRASA", "eiin": 102801, "inst_type": "Madrasha", "district": "PIROJPUR", "thana": "MATHBARIA", "mauza": "AMRAGACHHIA HOGALPATI", "long": 89.93139, "lat": 22.19283, "serial": 8709, "isUnique": 1, "field_11": null, "field_12": null }, "geometry": { "type": "Point", "coordinates": [ 89.93139, 22.19283 ] } },
{ "type": "Feature", "properties": { "inst name": "MATHBARIA TIKIKATA AB. WHAB GIRLS ALIM  MADRASAH", "eiin": 102802, "inst_type": "Madrasha", "district": "PIROJPUR", "thana": "MATHBARIA", "mauza": "DAKSHIN MITHAKHALI", "long": 90.00264, "lat": 22.39317, "serial": 8710, "isUnique": 1, "field_11": null, "field_12": null }, "geometry": { "type": "Point", "coordinates": [ 90.00264, 22.39317 ] } },
{ "type": "Feature", "properties": { "inst name": "ALGI GIRLS DHAKHIL MADRASAH", "eiin": 102803, "inst_type": "Madrasha", "district": "PIROJPUR", "thana": "MATHBARIA", "mauza": "ALGI", "long": 90.02931, "lat": 22.33153, "serial": 8711, "isUnique": 1, "field_11": null, "field_12": null }, "geometry": { "type": "Point", "coordinates": [ 90.02931, 22.33153 ] } },
{ "type": "Feature", "properties": { "inst name": "SHAPLEZA LAYLA MALEKIA BALIKA DAKHIL MADRASAH", "eiin": 102804, "inst_type": "Madrasha", "district": "PIROJPUR", "thana": "MATHBARIA", "mauza": "SAPLEZA", "long": 89.99042, "lat": 22.35542, "serial": 8712, "isUnique": 1, "field_11": null, "field_12": null }, "geometry": { "type": "Point", "coordinates": [ 89.99042, 22.35542 ] } },
{ "type": "Feature", "properties": { "inst name": "SURJOMONI HASANIA DAKHIL MADRASAH", "eiin": 102805, "inst_type": "Madrasha", "district": "PIROJPUR", "thana": "MATHBARIA", "mauza": "SENER TIKIKATA", "long": 89.91531, "lat": 22.22883, "serial": 8713, "isUnique": 1, "field_11": null, "field_12": null }, "geometry": { "type": "Point", "coordinates": [ 89.91531, 22.22883 ] } },
{ "type": "Feature", "properties": { "inst name": "JANKHALI ULUBARIA H.DAKHIL MADRASA", "eiin": 102806, "inst_type": "Madrasha", "district": "PIROJPUR", "thana": "MATHBARIA", "mauza": "NUJAMIA GHOPKHALI", "long": 89.92192, "lat": 22.26158, "serial": 8714, "isUnique": 1, "field_11": null, "field_12": null }, "geometry": { "type": "Point", "coordinates": [ 89.92192, 22.26158 ] } },
{ "type": "Feature", "properties": { "inst name": "MADHA DEBATRA N  ISLAM DAKHIL MADRASHA", "eiin": 102807, "inst_type": "Madrasha", "district": "PIROJPUR", "thana": "MATHBARIA", "mauza": "NAGRABHANGA", "long": 89.9545, "lat": 22.284, "serial": 8715, "isUnique": 1, "field_11": null, "field_12": null }, "geometry": { "type": "Point", "coordinates": [ 89.9545, 22.284 ] } },
{ "type": "Feature", "properties": { "inst name": "MADDHA BARA SHOWLA ISLAMIA DAKHIL MADRASAH", "eiin": 102808, "inst_type": "Madrasha", "district": "PIROJPUR", "thana": "MATHBARIA", "mauza": "BARA SAULA", "long": 89.97919, "lat": 22.35078, "serial": 8716, "isUnique": 1, "field_11": null, "field_12": null }, "geometry": { "type": "Point", "coordinates": [ 89.97919, 22.35078 ] } },
{ "type": "Feature", "properties": { "inst name": "TUSHKHALI ISLAMIA DAKHIL MADRASHA", "eiin": 102809, "inst_type": "Madrasha", "district": "PIROJPUR", "thana": "MATHBARIA", "mauza": "TUSHKHALI", "long": 89.91431, "lat": 22.20817, "serial": 8717, "isUnique": 1, "field_11": null, "field_12": null }, "geometry": { "type": "Point", "coordinates": [ 89.91431, 22.20817 ] } },
{ "type": "Feature", "properties": { "inst name": "TEARKHALI HARUNIA DAKHIL MADRASHA", "eiin": 102810, "inst_type": "Madrasha", "district": "PIROJPUR", "thana": "MATHBARIA", "mauza": "DAKSHIN HALTA", "long": 89.975, "lat": 22.28103, "serial": 8718, "isUnique": 1, "field_11": null, "field_12": null }, "geometry": { "type": "Point", "coordinates": [ 89.975, 22.28103 ] } },
{ "type": "Feature", "properties": { "inst name": "SHALEHIA PARCHIM CHOTO MASUA DAKHIL MADRASA", "eiin": 102811, "inst_type": "Madrasha", "district": "PIROJPUR", "thana": "MATHBARIA", "mauza": "TUSHKHALI", "long": 89.87978, "lat": 22.2615, "serial": 8719, "isUnique": 1, "field_11": null, "field_12": null }, "geometry": { "type": "Point", "coordinates": [ 89.87978, 22.2615 ] } },
{ "type": "Feature", "properties": { "inst name": "FULJHURI WAZEDIA DAKHIL MADRASHA", "eiin": 102812, "inst_type": "Madrasha", "district": "PIROJPUR", "thana": "MATHBARIA", "mauza": "PHULJHURI", "long": 90.03864, "lat": 22.34456, "serial": 8720, "isUnique": 1, "field_11": null, "field_12": null }, "geometry": { "type": "Point", "coordinates": [ 90.03864, 22.34456 ] } },
{ "type": "Feature", "properties": { "inst name": "NEZAMIA GHOPKHALI ENSANIA DAKHIL MADRASHA", "eiin": 102813, "inst_type": "Madrasha", "district": "PIROJPUR", "thana": "MATHBARIA", "mauza": "NUJAMIA GHOPKHALI", "long": 89.99433, "lat": 22.37158, "serial": 8721, "isUnique": 1, "field_11": null, "field_12": null }, "geometry": { "type": "Point", "coordinates": [ 89.99433, 22.37158 ] } },
{ "type": "Feature", "properties": { "inst name": "BEGUM SHEKH FAZILATUNNESA MOHILA KAMIL MADRASHA", "eiin": 102814, "inst_type": "Madrasha", "district": "PIROJPUR", "thana": "MATHBARIA", "mauza": "BANSHBUNIA", "long": 89.93511, "lat": 22.34817, "serial": 8722, "isUnique": 1, "field_11": null, "field_12": null }, "geometry": { "type": "Point", "coordinates": [ 89.93511, 22.34817 ] } },
{ "type": "Feature", "properties": { "inst name": "NURUN ALA NUR ISLAMIA DAKHIL MADRASAH", "eiin": 102815, "inst_type": "Madrasha", "district": "PIROJPUR", "thana": "MATHBARIA", "mauza": "MIRUKHALI KHAS", "long": 90.01447, "lat": 22.22956, "serial": 8723, "isUnique": 1, "field_11": null, "field_12": null }, "geometry": { "type": "Point", "coordinates": [ 90.01447, 22.22956 ] } },
{ "type": "Feature", "properties": { "inst name": "MONOHARPUR MOHAMMADIA DAKHIL MADRASHA", "eiin": 102875, "inst_type": "Madrasha", "district": "PIROJPUR", "thana": "NAZIRPUR UPAZILA", "mauza": "MANOHARPUR", "long": 89.94917, "lat": 22.69014, "serial": 8724, "isUnique": 2, "field_11": null, "field_12": null }, "geometry": { "type": "Point", "coordinates": [ 89.94917, 22.69014 ] } },
{ "type": "Feature", "properties": { "inst name": "LABUJIL BUNIA ISLAMIA FAZIL MADRASHA", "eiin": 102876, "inst_type": "Madrasha", "district": "PIROJPUR", "thana": "NAZIRPUR UPAZILA", "mauza": "KUMARKHALI", "long": 89.94917, "lat": 22.69014, "serial": 8725, "isUnique": 2, "field_11": null, "field_12": null }, "geometry": { "type": "Point", "coordinates": [ 89.94917, 22.69014 ] } },
{ "type": "Feature", "properties": { "inst name": "SABDUL KHAN HAT ISLAMIA DAKHIL MADRASHA", "eiin": 102877, "inst_type": "Madrasha", "district": "PIROJPUR", "thana": "NAZIRPUR UPAZILA", "mauza": "CHALITABARI", "long": 89.97878, "lat": 22.77544, "serial": 8726, "isUnique": 1, "field_11": null, "field_12": null }, "geometry": { "type": "Point", "coordinates": [ 89.97878, 22.77544 ] } },
{ "type": "Feature", "properties": { "inst name": "S.M. DARUSSUNNAT DAKHIL MADRASHA", "eiin": 102878, "inst_type": "Madrasha", "district": "PIROJPUR", "thana": "NAZIRPUR UPAZILA", "mauza": "BAKSHI", "long": 89.99414, "lat": 22.85781, "serial": 8728, "isUnique": 1, "field_11": null, "field_12": null }, "geometry": { "type": "Point", "coordinates": [ 89.99414, 22.85781 ] } },
{ "type": "Feature", "properties": { "inst name": "DUMARIA NESARIA SENIOR (ALIM) MADRASAH", "eiin": 102880, "inst_type": "Madrasha", "district": "PIROJPUR", "thana": "NAZIRPUR UPAZILA", "mauza": "BIL DUMURIA", "long": 90.02508, "lat": 22.82889, "serial": 8729, "isUnique": 1, "field_11": null, "field_12": null }, "geometry": { "type": "Point", "coordinates": [ 90.02508, 22.82889 ] } },
{ "type": "Feature", "properties": { "inst name": "BAITHAKATA BAZAR SALEHIA DAKHIL MADRASHA", "eiin": 102881, "inst_type": "Madrasha", "district": "PIROJPUR", "thana": "NAZIRPUR UPAZILA", "mauza": "MUGARJHOR", "long": 90.01436, "lat": 22.79297, "serial": 8730, "isUnique": 1, "field_11": null, "field_12": null }, "geometry": { "type": "Point", "coordinates": [ 90.01436, 22.79297 ] } },
{ "type": "Feature", "properties": { "inst name": "DUMORIA NESARIA GIRLS ALIM MADRASHA", "eiin": 102882, "inst_type": "Madrasha", "district": "PIROJPUR", "thana": "NAZIRPUR UPAZILA", "mauza": "BIL DUMURIA", "long": 89.95586, "lat": 22.76211, "serial": 8731, "isUnique": 2, "field_11": null, "field_12": null }, "geometry": { "type": "Point", "coordinates": [ 89.95586, 22.76211 ] } },
{ "type": "Feature", "properties": { "inst name": "MADDHYA KALARDOANIA DAKHIL MADRASHA", "eiin": 102883, "inst_type": "Madrasha", "district": "PIROJPUR", "thana": "NAZIRPUR UPAZILA", "mauza": "KALARDOANI", "long": 89.95586, "lat": 22.76211, "serial": 8732, "isUnique": 2, "field_11": null, "field_12": null }, "geometry": { "type": "Point", "coordinates": [ 89.95586, 22.76211 ] } },
{ "type": "Feature", "properties": { "inst name": "AMTALA  ISLAMIA DHAKIL MADRASHA", "eiin": 102887, "inst_type": "Madrasha", "district": "PIROJPUR", "thana": "NAZIRPUR UPAZILA", "mauza": "GODARA", "long": 89.92864, "lat": 22.70172, "serial": 8733, "isUnique": 1, "field_11": null, "field_12": null }, "geometry": { "type": "Point", "coordinates": [ 89.92864, 22.70172 ] } },
{ "type": "Feature", "properties": { "inst name": "RAGHUNATHPUR DARUL MILLAT MOHILA DAKHIL MADRASHA.", "eiin": 102888, "inst_type": "Madrasha", "district": "PIROJPUR", "thana": "NAZIRPUR UPAZILA", "mauza": "RAGHUNATHPUR", "long": 90.00381, "lat": 22.83564, "serial": 8734, "isUnique": 1, "field_11": null, "field_12": null }, "geometry": { "type": "Point", "coordinates": [ 90.00381, 22.83564 ] } },
{ "type": "Feature", "properties": { "inst name": "MUGARJORE GIRLS DAKHIL MADRASHA", "eiin": 102884, "inst_type": "Madrasha", "district": "PIROJPUR", "thana": "NAZIRPUR UPAZILA", "mauza": "MUGARJHOR", "long": 90.00989, "lat": 22.72814, "serial": 8735, "isUnique": 1, "field_11": null, "field_12": null }, "geometry": { "type": "Point", "coordinates": [ 90.00989, 22.72814 ] } },
{ "type": "Feature", "properties": { "inst name": "PATIKEL BARI DORGAH SHORIF DAKHIL MADRASAH", "eiin": 103058, "inst_type": "Madrasha", "district": "PIROJPUR", "thana": "NESARABAD (SWARUPKATI)", "mauza": "PAITKALBARI", "long": 90.05722, "lat": 22.80656, "serial": 8736, "isUnique": 1, "field_11": null, "field_12": null }, "geometry": { "type": "Point", "coordinates": [ 90.05722, 22.80656 ] } },
{ "type": "Feature", "properties": { "inst name": "NANDUHAR DARUSSUNNAT ISLAMIA DAKHIL MASRASAH", "eiin": 103059, "inst_type": "Madrasha", "district": "PIROJPUR", "thana": "NESARABAD (SWARUPKATI)", "mauza": "NANDUHAR", "long": 90.09125, "lat": 22.75775, "serial": 8737, "isUnique": 1, "field_11": null, "field_12": null }, "geometry": { "type": "Point", "coordinates": [ 90.09125, 22.75775 ] } },
{ "type": "Feature", "properties": { "inst name": "MAHMUD KATI DAKHIL MADRASAH", "eiin": 103061, "inst_type": "Madrasha", "district": "PIROJPUR", "thana": "NESARABAD (SWARUPKATI)", "mauza": "MOHAMUDKATI", "long": 90.10572, "lat": 22.73247, "serial": 8738, "isUnique": 1, "field_11": null, "field_12": null }, "geometry": { "type": "Point", "coordinates": [ 90.10572, 22.73247 ] } },
{ "type": "Feature", "properties": { "inst name": "GUAREKHA RABBANIA DHAKIL MADRASAH", "eiin": 103062, "inst_type": "Madrasha", "district": "PIROJPUR", "thana": "NESARABAD (SWARUPKATI)", "mauza": "GUAREKHA", "long": 90.05078, "lat": 22.78839, "serial": 8739, "isUnique": 1, "field_11": null, "field_12": null }, "geometry": { "type": "Point", "coordinates": [ 90.05078, 22.78839 ] } },
{ "type": "Feature", "properties": { "inst name": "ISLAMPUR SENIOR MADRASHA", "eiin": 103063, "inst_type": "Madrasha", "district": "PIROJPUR", "thana": "NESARABAD (SWARUPKATI)", "mauza": "BISHNUKATI", "long": 90.08117, "lat": 22.75289, "serial": 8740, "isUnique": 1, "field_11": null, "field_12": null }, "geometry": { "type": "Point", "coordinates": [ 90.08117, 22.75289 ] } },
{ "type": "Feature", "properties": { "inst name": "AURIA ISLAMIA HOSAINIA DAKHIL  MADRASAH", "eiin": 103065, "inst_type": "Madrasha", "district": "PIROJPUR", "thana": "NESARABAD (SWARUPKATI)", "mauza": "HAURIA", "long": 90.05844, "lat": 22.70172, "serial": 8741, "isUnique": 1, "field_11": null, "field_12": null }, "geometry": { "type": "Point", "coordinates": [ 90.05844, 22.70172 ] } },
{ "type": "Feature", "properties": { "inst name": "UTTAR PASCHIM SOHAGDAL NESARIA DAKHIL MADRASHA", "eiin": 103066, "inst_type": "Madrasha", "district": "PIROJPUR", "thana": "NESARABAD (SWARUPKATI)", "mauza": "PASCHIM SOHAGDAL", "long": 90.09808, "lat": 22.77089, "serial": 8742, "isUnique": 1, "field_11": null, "field_12": null }, "geometry": { "type": "Point", "coordinates": [ 90.09808, 22.77089 ] } },
{ "type": "Feature", "properties": { "inst name": "BARAIBARI NESARiA ALIM MADRASAH", "eiin": 103068, "inst_type": "Madrasha", "district": "PIROJPUR", "thana": "NESARABAD (SWARUPKATI)", "mauza": "CHINABUNIA", "long": 90.13319, "lat": 22.74228, "serial": 8743, "isUnique": 1, "field_11": null, "field_12": null }, "geometry": { "type": "Point", "coordinates": [ 90.13319, 22.74228 ] } },
{ "type": "Feature", "properties": { "inst name": "CHAMI MOSLEMIA DAKHIL MADRASHA", "eiin": 103070, "inst_type": "Madrasha", "district": "PIROJPUR", "thana": "NESARABAD (SWARUPKATI)", "mauza": "BALDIA", "long": 90.01294, "lat": 22.68311, "serial": 8744, "isUnique": 1, "field_11": null, "field_12": null }, "geometry": { "type": "Point", "coordinates": [ 90.01294, 22.68311 ] } },
{ "type": "Feature", "properties": { "inst name": "GONMAN SOHAGDAL SALEHIA FAZIL MADRASHA", "eiin": 103071, "inst_type": "Madrasha", "district": "PIROJPUR", "thana": "NESARABAD (SWARUPKATI)", "mauza": "PURBA SOHAGDAL", "long": 90.06997, "lat": 22.71731, "serial": 8745, "isUnique": 1, "field_11": null, "field_12": null }, "geometry": { "type": "Point", "coordinates": [ 90.06997, 22.71731 ] } },
{ "type": "Feature", "properties": { "inst name": "BINNA NESARIA DAKHIL MADRASAH", "eiin": 103073, "inst_type": "Madrasha", "district": "PIROJPUR", "thana": "NESARABAD (SWARUPKATI)", "mauza": "BALDIA", "long": 90.11619, "lat": 22.74503, "serial": 8746, "isUnique": 1, "field_11": null, "field_12": null }, "geometry": { "type": "Point", "coordinates": [ 90.11619, 22.74503 ] } },
{ "type": "Feature", "properties": { "inst name": "BAYSKATHI PATIKEL BARI NESARIA DAKHIL MADRASAH", "eiin": 103074, "inst_type": "Madrasha", "district": "PIROJPUR", "thana": "NESARABAD (SWARUPKATI)", "mauza": "PAITKALBARI", "long": 90.06936, "lat": 22.75203, "serial": 8747, "isUnique": 1, "field_11": null, "field_12": null }, "geometry": { "type": "Point", "coordinates": [ 90.06936, 22.75203 ] } },
{ "type": "Feature", "properties": { "inst name": "DUBI ALIM MADRASHA", "eiin": 103075, "inst_type": "Madrasha", "district": "PIROJPUR", "thana": "NESARABAD (SWARUPKATI)", "mauza": "RAJABARI", "long": 90.05319, "lat": 22.73694, "serial": 8748, "isUnique": 1, "field_11": null, "field_12": null }, "geometry": { "type": "Point", "coordinates": [ 90.05319, 22.73694 ] } },
{ "type": "Feature", "properties": { "inst name": "UTTAR KARFA HANIFIA DAKHIL MADRASHA", "eiin": 103076, "inst_type": "Madrasha", "district": "PIROJPUR", "thana": "NESARABAD (SWARUPKATI)", "mauza": "KARFA", "long": 90.06697, "lat": 22.79939, "serial": 8749, "isUnique": 1, "field_11": null, "field_12": null }, "geometry": { "type": "Point", "coordinates": [ 90.06697, 22.79939 ] } },
{ "type": "Feature", "properties": { "inst name": "SHAPTAGRAM SAMMILANI WOMEN DAKHIL MADRASHA", "eiin": 103077, "inst_type": "Madrasha", "district": "PIROJPUR", "thana": "NESARABAD (SWARUPKATI)", "mauza": "PASCHIM SARENGAKATI", "long": 90.08608, "lat": 22.73406, "serial": 8750, "isUnique": 1, "field_11": null, "field_12": null }, "geometry": { "type": "Point", "coordinates": [ 90.08608, 22.73406 ] } },
{ "type": "Feature", "properties": { "inst name": "PURBO  AKALAM DAKHIL MADRASAH", "eiin": 131679, "inst_type": "Madrasha", "district": "PIROJPUR", "thana": "NESARABAD (SWARUPKATI)", "mauza": "UTTAR SARSHNA(PART)", "long": 90.10194, "lat": 22.74233, "serial": 8752, "isUnique": 1, "field_11": null, "field_12": null }, "geometry": { "type": "Point", "coordinates": [ 90.10194, 22.74233 ] } },
{ "type": "Feature", "properties": { "inst name": "KHANaKUNIARY P. E. R.  FAZIL MADRASAH", "eiin": 102932, "inst_type": "Madrasha", "district": "PIROJPUR", "thana": "PIROJPUR SADAR", "mauza": "KHANAKUNIARI", "long": 89.99778, "lat": 22.50794, "serial": 8753, "isUnique": 1, "field_11": null, "field_12": null }, "geometry": { "type": "Point", "coordinates": [ 89.99778, 22.50794 ] } },
{ "type": "Feature", "properties": { "inst name": "DURGAPUR CHUNGAPASHA NESARIA ALIM MADRASAH", "eiin": 102933, "inst_type": "Madrasha", "district": "PIROJPUR", "thana": "PIROJPUR SADAR", "mauza": "DURGAPUR", "long": 89.95936, "lat": 22.68361, "serial": 8754, "isUnique": 1, "field_11": null, "field_12": null }, "geometry": { "type": "Point", "coordinates": [ 89.95936, 22.68361 ] } },
{ "type": "Feature", "properties": { "inst name": "BAINKHALI SALIHIA DAKHIL MADRASAH", "eiin": 102934, "inst_type": "Madrasha", "district": "PIROJPUR", "thana": "PIROJPUR SADAR", "mauza": "BAINKHALI", "long": 90.00869, "lat": 22.63536, "serial": 8755, "isUnique": 1, "field_11": null, "field_12": null }, "geometry": { "type": "Point", "coordinates": [ 90.00869, 22.63536 ] } },
{ "type": "Feature", "properties": { "inst name": "A.K.BRAHMMANKATI NESARIA DAKHIL MADRASA", "eiin": 102936, "inst_type": "Madrasha", "district": "PIROJPUR", "thana": "PIROJPUR SADAR", "mauza": "BRAHMMANKATI", "long": 89.99403, "lat": 22.66614, "serial": 8756, "isUnique": 1, "field_11": null, "field_12": null }, "geometry": { "type": "Point", "coordinates": [ 89.99403, 22.66614 ] } },
{ "type": "Feature", "properties": { "inst name": "CHALNA NAMAJPUR NESARIA ALIM MADRASA", "eiin": 102937, "inst_type": "Madrasha", "district": "PIROJPUR", "thana": "PIROJPUR SADAR", "mauza": "NAMAJPUR", "long": 90.00917, "lat": 22.54036, "serial": 8757, "isUnique": 1, "field_11": null, "field_12": null }, "geometry": { "type": "Point", "coordinates": [ 90.00917, 22.54036 ] } },
{ "type": "Feature", "properties": { "inst name": "JUZKHOLA AHMADIA HAFIZIA DAKHIL MADRASA", "eiin": 102938, "inst_type": "Madrasha", "district": "PIROJPUR", "thana": "PIROJPUR SADAR", "mauza": "BARA JUJKHOLA", "long": 89.94403, "lat": 22.61272, "serial": 8758, "isUnique": 1, "field_11": null, "field_12": null }, "geometry": { "type": "Point", "coordinates": [ 89.94403, 22.61272 ] } },
{ "type": "Feature", "properties": { "inst name": "GAJIPUR NESARIA FAJIL MADRASA", "eiin": 102941, "inst_type": "Madrasha", "district": "PIROJPUR", "thana": "PIROJPUR SADAR", "mauza": "UTTAR GAZIPUR", "long": 89.98528, "lat": 22.63703, "serial": 8759, "isUnique": 1, "field_11": null, "field_12": null }, "geometry": { "type": "Point", "coordinates": [ 89.98528, 22.63703 ] } },
{ "type": "Feature", "properties": { "inst name": "DAKHIN RANIPUR S.M. DAKHIL MADRASA", "eiin": 102942, "inst_type": "Madrasha", "district": "PIROJPUR", "thana": "PIROJPUR SADAR", "mauza": "DAKSHIN RANIPUR", "long": 90.01208, "lat": 22.524, "serial": 8760, "isUnique": 1, "field_11": null, "field_12": null }, "geometry": { "type": "Point", "coordinates": [ 90.01208, 22.524 ] } },
{ "type": "Feature", "properties": { "inst name": "PIROJPUR NESARIA MAHMUDIA ALIM MADRASAH", "eiin": 102944, "inst_type": "Madrasha", "district": "PIROJPUR", "thana": "PIROJPUR SADAR", "mauza": "KUMARKHALI", "long": 89.96092, "lat": 22.60308, "serial": 8761, "isUnique": 1, "field_11": null, "field_12": null }, "geometry": { "type": "Point", "coordinates": [ 89.96092, 22.60308 ] } },
{ "type": "Feature", "properties": { "inst name": "PIROZPUR FAJIL MADRASAH", "eiin": 102945, "inst_type": "Madrasha", "district": "PIROJPUR", "thana": "PIROJPUR SADAR", "mauza": "MACHIMPUR (UTTER)", "long": 89.95872, "lat": 22.55197, "serial": 8762, "isUnique": 1, "field_11": null, "field_12": null }, "geometry": { "type": "Point", "coordinates": [ 89.95872, 22.55197 ] } },
{ "type": "Feature", "properties": { "inst name": "KADAMTALA BALIKA DAKHIL MADRASAH", "eiin": 102946, "inst_type": "Madrasha", "district": "PIROJPUR", "thana": "PIROJPUR SADAR", "mauza": "KADAMTALA", "long": 89.92067, "lat": 22.64806, "serial": 8763, "isUnique": 1, "field_11": null, "field_12": null }, "geometry": { "type": "Point", "coordinates": [ 89.92067, 22.64806 ] } },
{ "type": "Feature", "properties": { "inst name": "G. K .P. N. NAESSARIA  BALIKA  DAKHIL MADRSAH", "eiin": 102947, "inst_type": "Madrasha", "district": "PIROJPUR", "thana": "PIROJPUR SADAR", "mauza": "SIKDAR MALLIK GANAK PARA", "long": 90.01914, "lat": 22.52781, "serial": 8764, "isUnique": 1, "field_11": null, "field_12": null }, "geometry": { "type": "Point", "coordinates": [ 90.01914, 22.52781 ] } },
{ "type": "Feature", "properties": { "inst name": "bhORA DAKHIL MADRASAH", "eiin": 102948, "inst_type": "Madrasha", "district": "PIROJPUR", "thana": "PIROJPUR SADAR", "mauza": "PORGOLA", "long": 90.00286, "lat": 22.55067, "serial": 8765, "isUnique": 1, "field_11": null, "field_12": null }, "geometry": { "type": "Point", "coordinates": [ 90.00286, 22.55067 ] } },
{ "type": "Feature", "properties": { "inst name": "SIKDER MALLIK DAKHIL MADRASAH", "eiin": 102950, "inst_type": "Madrasha", "district": "PIROJPUR", "thana": "PIROJPUR SADAR", "mauza": "SIKDAR MALLIK GANAK PARA", "long": 89.98178, "lat": 22.58689, "serial": 8766, "isUnique": 1, "field_11": null, "field_12": null }, "geometry": { "type": "Point", "coordinates": [ 89.98178, 22.58689 ] } },
{ "type": "Feature", "properties": { "inst name": "BADURA WARES ALI DAKHIL MADRASAH", "eiin": 102951, "inst_type": "Madrasha", "district": "PIROJPUR", "thana": "PIROJPUR SADAR", "mauza": "BADURA", "long": 89.98386, "lat": 22.57942, "serial": 8767, "isUnique": 1, "field_11": null, "field_12": null }, "geometry": { "type": "Point", "coordinates": [ 89.98386, 22.57942 ] } },
{ "type": "Feature", "properties": { "inst name": "DARUL QURAN MAHIlA DAKHIL MADRASAH", "eiin": 102953, "inst_type": "Madrasha", "district": "PIROJPUR", "thana": "PIROJPUR SADAR", "mauza": "MACHIMPUR (UTTER)", "long": 89.96492, "lat": 22.62292, "serial": 8768, "isUnique": 1, "field_11": null, "field_12": null }, "geometry": { "type": "Point", "coordinates": [ 89.96492, 22.62292 ] } },
{ "type": "Feature", "properties": { "inst name": "KHALISHA KHALI ADARSHA MAHILA DAKHIL MADRASHA", "eiin": 131812, "inst_type": "Madrasha", "district": "PIROJPUR", "thana": "PIROJPUR SADAR", "mauza": "BARA KHALISHAKHALI", "long": 89.96733, "lat": 22.58325, "serial": 8769, "isUnique": 1, "field_11": null, "field_12": null }, "geometry": { "type": "Point", "coordinates": [ 89.96733, 22.58325 ] } },
{ "type": "Feature", "properties": { "inst name": "TAFHIMUL QURAN DAKHIL MADRASHA", "eiin": 131818, "inst_type": "Madrasha", "district": "PIROJPUR", "thana": "PIROJPUR SADAR", "mauza": "MACHIMPUR (UTTER)", "long": 89.97317, "lat": 22.57883, "serial": 8770, "isUnique": 1, "field_11": null, "field_12": null }, "geometry": { "type": "Point", "coordinates": [ 89.97317, 22.57883 ] } },
{ "type": "Feature", "properties": { "inst name": "CHAN - SIRAJIA MOHILA ALIM LMADRASAH", "eiin": 102969, "inst_type": "Madrasha", "district": "PIROJPUR", "thana": "ZIANAGAR", "mauza": "BALI PARA", "long": 89.99417, "lat": 22.50767, "serial": 8771, "isUnique": 1, "field_11": null, "field_12": null }, "geometry": { "type": "Point", "coordinates": [ 89.99417, 22.50767 ] } },
{ "type": "Feature", "properties": { "inst name": "KALARAN ISLAMIA DAKHIL MADRASHA", "eiin": 102970, "inst_type": "Madrasha", "district": "PIROJPUR", "thana": "ZIANAGAR", "mauza": "KALARAN", "long": 89.93364, "lat": 22.4785, "serial": 8772, "isUnique": 1, "field_11": null, "field_12": null }, "geometry": { "type": "Point", "coordinates": [ 89.93364, 22.4785 ] } },
{ "type": "Feature", "properties": { "inst name": "TOGRA DAUL ISLAM KAMIL MADRASHA", "eiin": 102971, "inst_type": "Madrasha", "district": "PIROJPUR", "thana": "ZIANAGAR", "mauza": "TAGRA", "long": 89.96703, "lat": 22.48869, "serial": 8773, "isUnique": 1, "field_11": null, "field_12": null }, "geometry": { "type": "Point", "coordinates": [ 89.96703, 22.48869 ] } },
{ "type": "Feature", "properties": { "inst name": "ZIA NAGAR F.KARIM ALIM MADRASAH", "eiin": 102972, "inst_type": "Madrasha", "district": "PIROJPUR", "thana": "ZIANAGAR", "mauza": "INDURKANI", "long": 89.95678, "lat": 22.4665, "serial": 8774, "isUnique": 1, "field_11": null, "field_12": null }, "geometry": { "type": "Point", "coordinates": [ 89.95678, 22.4665 ] } },
{ "type": "Feature", "properties": { "inst name": "UTTAR KALARAN DAKHIL MADRASAH", "eiin": 102973, "inst_type": "Madrasha", "district": "PIROJPUR", "thana": "ZIANAGAR", "mauza": "KALARAN", "long": 89.99533, "lat": 22.50797, "serial": 8775, "isUnique": 1, "field_11": null, "field_12": null }, "geometry": { "type": "Point", "coordinates": [ 89.99533, 22.50797 ] } },
{ "type": "Feature", "properties": { "inst name": "PASCHIM BALIPARA NURIA DAKHIL MADRASAH", "eiin": 102974, "inst_type": "Madrasha", "district": "PIROJPUR", "thana": "ZIANAGAR", "mauza": "BALI PARA", "long": 89.93319, "lat": 22.43028, "serial": 8776, "isUnique": 1, "field_11": null, "field_12": null }, "geometry": { "type": "Point", "coordinates": [ 89.93319, 22.43028 ] } },
{ "type": "Feature", "properties": { "inst name": "BALIPARA UNION ALIM MADRASHA", "eiin": 102975, "inst_type": "Madrasha", "district": "PIROJPUR", "thana": "ZIANAGAR", "mauza": "BALI PARA", "long": 89.88675, "lat": 22.40722, "serial": 8777, "isUnique": 1, "field_11": null, "field_12": null }, "geometry": { "type": "Point", "coordinates": [ 89.88675, 22.40722 ] } },
{ "type": "Feature", "properties": { "inst name": "CHANDIPUR BAGARHAT AZIZIA DAKHIL MADRASAH", "eiin": 102976, "inst_type": "Madrasha", "district": "PIROJPUR", "thana": "ZIANAGAR", "mauza": "CHANDIPUR", "long": 89.9785, "lat": 22.50028, "serial": 8778, "isUnique": 1, "field_11": null, "field_12": null }, "geometry": { "type": "Point", "coordinates": [ 89.9785, 22.50028 ] } },
{ "type": "Feature", "properties": { "inst name": "PATTASHI  HASANIA  DAKHIL MADRASHA", "eiin": 102977, "inst_type": "Madrasha", "district": "PIROJPUR", "thana": "ZIANAGAR", "mauza": "PATTASHI", "long": 89.95447, "lat": 22.47869, "serial": 8779, "isUnique": 1, "field_11": null, "field_12": null }, "geometry": { "type": "Point", "coordinates": [ 89.95447, 22.47869 ] } },
{ "type": "Feature", "properties": { "inst name": "PATTASI  S DAKHIL MADRASAH", "eiin": 102978, "inst_type": "Madrasha", "district": "PIROJPUR", "thana": "ZIANAGAR", "mauza": "RAMCHANDRAPUR", "long": 89.90039, "lat": 22.42636, "serial": 8780, "isUnique": 1, "field_11": null, "field_12": null }, "geometry": { "type": "Point", "coordinates": [ 89.90039, 22.42636 ] } },
{ "type": "Feature", "properties": { "inst name": "UTTAR PACHIM KALARAM AZHAR ALI DAKHIL MADRASHA", "eiin": 102979, "inst_type": "Madrasha", "district": "PIROJPUR", "thana": "ZIANAGAR", "mauza": "KALARAN", "long": 89.90853, "lat": 22.44172, "serial": 8781, "isUnique": 1, "field_11": null, "field_12": null }, "geometry": { "type": "Point", "coordinates": [ 89.90853, 22.44172 ] } },
{ "type": "Feature", "properties": { "inst name": "S.D. MADINATUL ULUM DAKHIL MADRASAH", "eiin": 102981, "inst_type": "Madrasha", "district": "PIROJPUR", "thana": "ZIANAGAR", "mauza": "SAUDKHALI", "long": 89.92161, "lat": 22.42869, "serial": 8782, "isUnique": 1, "field_11": null, "field_12": null }, "geometry": { "type": "Point", "coordinates": [ 89.92161, 22.42869 ] } },
{ "type": "Feature", "properties": { "inst name": "BATAJOR  ALIM MADRASAH", "eiin": 102983, "inst_type": "Madrasha", "district": "PIROJPUR", "thana": "ZIANAGAR", "mauza": "BARAIKHALI", "long": 89.91311, "lat": 22.41272, "serial": 8783, "isUnique": 1, "field_11": null, "field_12": null }, "geometry": { "type": "Point", "coordinates": [ 89.91311, 22.41272 ] } },
{ "type": "Feature", "properties": { "inst name": "KALAYA RAZIA RASHID MOHILA L DAKHIL MADRASAH", "eiin": 102984, "inst_type": "Madrasha", "district": "PIROJPUR", "thana": "ZIANAGAR", "mauza": "KALAIA", "long": 89.90261, "lat": 22.47497, "serial": 8784, "isUnique": 1, "field_11": null, "field_12": null }, "geometry": { "type": "Point", "coordinates": [ 89.90261, 22.47497 ] } },
{ "type": "Feature", "properties": { "inst name": "PASCHIM  CHARANI  PATTASHI  RAHIM UDDIN  SRITI  DAKHIL MADRASHA", "eiin": 131750, "inst_type": "Madrasha", "district": "PIROJPUR", "thana": "ZIANAGAR", "mauza": "PATTASHI", "long": 89.96142, "lat": 22.45142, "serial": 8785, "isUnique": 1, "field_11": null, "field_12": null }, "geometry": { "type": "Point", "coordinates": [ 89.96142, 22.45142 ] } },
{ "type": "Feature", "properties": { "inst name": "TOGRA BALIKA DAKHIL MADRASHA", "eiin": 133737, "inst_type": "Madrasha", "district": "PIROJPUR", "thana": "ZIANAGAR", "mauza": "TAGRA", "long": 89.95703, "lat": 22.48006, "serial": 8786, "isUnique": 1, "field_11": null, "field_12": null }, "geometry": { "type": "Point", "coordinates": [ 89.95703, 22.48006 ] } },
{ "type": "Feature", "properties": { "inst name": "BARAI  BUNIA  HIGH SCHOOL", "eiin": 102836, "inst_type": "School", "district": "PIROJPUR", "thana": "NAZIRPUR UPAZILA", "mauza": "BARAIBUNIA", "long": 90.14925, "lat": 21.94394, "serial": 22190, "isUnique": 2, "field_11": null, "field_12": null }, "geometry": { "type": "Point", "coordinates": [ 90.14925, 21.94394 ] } },
{ "type": "Feature", "properties": { "inst name": "BARA KANUA SECONDARY SCHOOL", "eiin": 102605, "inst_type": "School", "district": "PIROJPUR", "thana": "BHANDARIA", "mauza": "KANUA", "long": 90.56767, "lat": 22.43825, "serial": 22191, "isUnique": 1, "field_11": null, "field_12": null }, "geometry": { "type": "Point", "coordinates": [ 90.56767, 22.43825 ] } },
{ "type": "Feature", "properties": { "inst name": "BHANDARIA BANDAR GOVT GIRLS HIGH SCHOOL", "eiin": 102604, "inst_type": "School", "district": "PIROJPUR", "thana": "BHANDARIA", "mauza": "BHANDARIA", "long": 90.57339, "lat": 22.41244, "serial": 22192, "isUnique": 2, "field_11": null, "field_12": null }, "geometry": { "type": "Point", "coordinates": [ 90.57339, 22.41244 ] } },
{ "type": "Feature", "properties": { "inst name": "MOZIDA BEGUM GIRLS SECONDARY SCHOOL", "eiin": 102641, "inst_type": "School", "district": "PIROJPUR", "thana": "BHANDARIA", "mauza": "BHANDARIA", "long": 90.58758, "lat": 22.41292, "serial": 22193, "isUnique": 2, "field_11": null, "field_12": null }, "geometry": { "type": "Point", "coordinates": [ 90.58758, 22.41292 ] } },
{ "type": "Feature", "properties": { "inst name": "BHANDARIA VEHARI PILOT HIGH SCHOOL", "eiin": 102603, "inst_type": "School", "district": "PIROJPUR", "thana": "BHANDARIA", "mauza": "LAKSHMIPURA", "long": 90.58275, "lat": 22.43536, "serial": 22194, "isUnique": 2, "field_11": null, "field_12": null }, "geometry": { "type": "Point", "coordinates": [ 90.58275, 22.43536 ] } },
{ "type": "Feature", "properties": { "inst name": "DHAWA RAJPASHA ADARSHA secondary SCHOOL", "eiin": 102606, "inst_type": "School", "district": "PIROJPUR", "thana": "BHANDARIA", "mauza": "DHAOA", "long": 90.06167, "lat": 22.48908, "serial": 22195, "isUnique": 1, "field_11": null, "field_12": null }, "geometry": { "type": "Point", "coordinates": [ 90.06167, 22.48908 ] } },
{ "type": "Feature", "properties": { "inst name": "PURBA DHAWA MODEL  secondary SCHOOL", "eiin": 102628, "inst_type": "School", "district": "PIROJPUR", "thana": "BHANDARIA", "mauza": "DHAOA", "long": 90.03186, "lat": 22.46375, "serial": 22196, "isUnique": 1, "field_11": null, "field_12": null }, "geometry": { "type": "Point", "coordinates": [ 90.03186, 22.46375 ] } },
{ "type": "Feature", "properties": { "inst name": "DHAWA RAJ AYSHA SIDDIKIA GR. GIRL'S HIGH SCHOOL", "eiin": 102636, "inst_type": "School", "district": "PIROJPUR", "thana": "BHANDARIA", "mauza": "DHAOA", "long": 90.05089, "lat": 22.44372, "serial": 22197, "isUnique": 1, "field_11": null, "field_12": null }, "geometry": { "type": "Point", "coordinates": [ 90.05089, 22.44372 ] } },
{ "type": "Feature", "properties": { "inst name": "DAKSHIN DHAWA SECONDARY SCHOOL", "eiin": 102637, "inst_type": "School", "district": "PIROJPUR", "thana": "BHANDARIA", "mauza": "DHAOA", "long": 90.06908, "lat": 22.48361, "serial": 22198, "isUnique": 1, "field_11": null, "field_12": null }, "geometry": { "type": "Point", "coordinates": [ 90.06908, 22.48361 ] } },
{ "type": "Feature", "properties": { "inst name": "PASHARIBUNIA HIGH SCHOOL", "eiin": 102619, "inst_type": "School", "district": "PIROJPUR", "thana": "BHANDARIA", "mauza": "PURBA PASURIBUNIA", "long": 90.06681, "lat": 22.49047, "serial": 22199, "isUnique": 1, "field_11": null, "field_12": null }, "geometry": { "type": "Point", "coordinates": [ 90.06681, 22.49047 ] } },
{ "type": "Feature", "properties": { "inst name": "PASHARIBUNIA JR. H. A GIRL'S SCHOOL", "eiin": 102638, "inst_type": "School", "district": "PIROJPUR", "thana": "BHANDARIA", "mauza": "NUDMULLA", "long": 90.02633, "lat": 22.46447, "serial": 22200, "isUnique": 1, "field_11": null, "field_12": null }, "geometry": { "type": "Point", "coordinates": [ 90.02633, 22.46447 ] } },
{ "type": "Feature", "properties": { "inst name": "RAJPASHA SECONDARY SCHOOL", "eiin": 102623, "inst_type": "School", "district": "PIROJPUR", "thana": "BHANDARIA", "mauza": "RAJAPASHA", "long": 90.04775, "lat": 22.46639, "serial": 22201, "isUnique": 1, "field_11": null, "field_12": null }, "geometry": { "type": "Point", "coordinates": [ 90.04775, 22.46639 ] } },
{ "type": "Feature", "properties": { "inst name": "MODHYACHARAIL secondary school", "eiin": 102625, "inst_type": "School", "district": "PIROJPUR", "thana": "BHANDARIA", "mauza": "DAKSHIN CHARAIL", "long": 90.00214, "lat": 22.45867, "serial": 22202, "isUnique": 1, "field_11": null, "field_12": null }, "geometry": { "type": "Point", "coordinates": [ 90.00214, 22.45867 ] } },
{ "type": "Feature", "properties": { "inst name": "CHARAIL MADOBPURA JR. GIRL'S HIGH SCHOOL", "eiin": 102632, "inst_type": "School", "district": "PIROJPUR", "thana": "BHANDARIA", "mauza": "DAKSHIN CHARAIL", "long": 90.017, "lat": 22.43114, "serial": 22203, "isUnique": 1, "field_11": null, "field_12": null }, "geometry": { "type": "Point", "coordinates": [ 90.017, 22.43114 ] } },
{ "type": "Feature", "properties": { "inst name": "GOURIPUR UNION secondary SCHOOL", "eiin": 102620, "inst_type": "School", "district": "PIROJPUR", "thana": "BHANDARIA", "mauza": "GAURIPUR", "long": 90.02608, "lat": 22.44086, "serial": 22204, "isUnique": 1, "field_11": null, "field_12": null }, "geometry": { "type": "Point", "coordinates": [ 90.02608, 22.44086 ] } },
{ "type": "Feature", "properties": { "inst name": "NAYAKHALI MATIBHANGA SECONDARY SCHOOL", "eiin": 102608, "inst_type": "School", "district": "PIROJPUR", "thana": "BHANDARIA", "mauza": "NAYAKHALI", "long": 90.01194, "lat": 22.44872, "serial": 22205, "isUnique": 1, "field_11": null, "field_12": null }, "geometry": { "type": "Point", "coordinates": [ 90.01194, 22.44872 ] } },
{ "type": "Feature", "properties": { "inst name": "NAYAKHALI MATIVANGA GIRLS secndary SCHOOL", "eiin": 102630, "inst_type": "School", "district": "PIROJPUR", "thana": "BHANDARIA", "mauza": "MATIBHANGA", "long": 90.04317, "lat": 22.48003, "serial": 22206, "isUnique": 1, "field_11": null, "field_12": null }, "geometry": { "type": "Point", "coordinates": [ 90.04317, 22.48003 ] } },
{ "type": "Feature", "properties": { "inst name": "MOSLEM MATIVANGA JUNIOR HIGH SCHOOL", "eiin": 102631, "inst_type": "School", "district": "PIROJPUR", "thana": "BHANDARIA", "mauza": "MATIBHANGA", "long": 90.12036, "lat": 22.46658, "serial": 22207, "isUnique": 1, "field_11": null, "field_12": null }, "geometry": { "type": "Point", "coordinates": [ 90.12036, 22.46658 ] } },
{ "type": "Feature", "properties": { "inst name": "PAIK KHALI HAZEE S.N. ZAMAN SE CONDARY SCHOOL", "eiin": 102612, "inst_type": "School", "district": "PIROJPUR", "thana": "BHANDARIA", "mauza": "PAIKKHALI", "long": 90.12214, "lat": 22.47458, "serial": 22208, "isUnique": 1, "field_11": null, "field_12": null }, "geometry": { "type": "Point", "coordinates": [ 90.12214, 22.47458 ] } },
{ "type": "Feature", "properties": { "inst name": "ASIA KHATUN HIGH SCHOOL", "eiin": 102639, "inst_type": "School", "district": "PIROJPUR", "thana": "BHANDARIA", "mauza": "RADHANAGAR", "long": 90.08114, "lat": 22.45161, "serial": 22209, "isUnique": 1, "field_11": null, "field_12": null }, "geometry": { "type": "Point", "coordinates": [ 90.08114, 22.45161 ] } },
{ "type": "Feature", "properties": { "inst name": "ATARKHALI SECONDARY school", "eiin": 102617, "inst_type": "School", "district": "PIROJPUR", "thana": "BHANDARIA", "mauza": "ATARKHALI", "long": 90.12306, "lat": 22.48633, "serial": 22210, "isUnique": 1, "field_11": null, "field_12": null }, "geometry": { "type": "Point", "coordinates": [ 90.12306, 22.48633 ] } },
{ "type": "Feature", "properties": { "inst name": "BOTHALA SECONDARY SCHOOL", "eiin": 102610, "inst_type": "School", "district": "PIROJPUR", "thana": "BHANDARIA", "mauza": "IKRI", "long": 90.09903, "lat": 22.45597, "serial": 22211, "isUnique": 1, "field_11": null, "field_12": null }, "geometry": { "type": "Point", "coordinates": [ 90.09903, 22.45597 ] } },
{ "type": "Feature", "properties": { "inst name": "IQRI UNION SECONDARY SCHOOL", "eiin": 102634, "inst_type": "School", "district": "PIROJPUR", "thana": "BHANDARIA", "mauza": "IKRI", "long": 90.0975, "lat": 22.45714, "serial": 22212, "isUnique": 1, "field_11": null, "field_12": null }, "geometry": { "type": "Point", "coordinates": [ 90.0975, 22.45714 ] } },
{ "type": "Feature", "properties": { "inst name": "KESHABLAL SECONDARY SCHOOL", "eiin": 102616, "inst_type": "School", "district": "PIROJPUR", "thana": "BHANDARIA", "mauza": "BETAGI SINGHAKHALI", "long": 90.09833, "lat": 22.45708, "serial": 22213, "isUnique": 1, "field_11": null, "field_12": null }, "geometry": { "type": "Point", "coordinates": [ 90.09833, 22.45708 ] } },
{ "type": "Feature", "properties": { "inst name": "KAHTUN NESSA MEMORIAL GIRLS HIGH SCHOOL", "eiin": 102642, "inst_type": "School", "district": "PIROJPUR", "thana": "BHANDARIA", "mauza": "CHAR KHALI", "long": 89.98889, "lat": 22.42244, "serial": 22214, "isUnique": 1, "field_11": null, "field_12": null }, "geometry": { "type": "Point", "coordinates": [ 89.98889, 22.42244 ] } },
{ "type": "Feature", "properties": { "inst name": "CHINGURIA N.I.H. SECONDARY SCHOOL", "eiin": 102627, "inst_type": "School", "district": "PIROJPUR", "thana": "BHANDARIA", "mauza": "CHINGARIA BHITABARIA", "long": 89.98672, "lat": 22.434, "serial": 22215, "isUnique": 1, "field_11": null, "field_12": null }, "geometry": { "type": "Point", "coordinates": [ 89.98672, 22.434 ] } },
{ "type": "Feature", "properties": { "inst name": "BHANDARI THANA GIRLS HIGH SCHOOL", "eiin": 102614, "inst_type": "School", "district": "PIROJPUR", "thana": "BHANDARIA", "mauza": "DAKSHIN SHIALKATI", "long": 90.02206, "lat": 22.40081, "serial": 22216, "isUnique": 1, "field_11": null, "field_12": null }, "geometry": { "type": "Point", "coordinates": [ 90.02206, 22.40081 ] } },
{ "type": "Feature", "properties": { "inst name": "DARULHUDA ADARSHA JR. HIGH SCHOOL", "eiin": 102629, "inst_type": "School", "district": "PIROJPUR", "thana": "BHANDARIA", "mauza": "DHAOA", "long": 90.00461, "lat": 22.43489, "serial": 22217, "isUnique": 1, "field_11": null, "field_12": null }, "geometry": { "type": "Point", "coordinates": [ 90.00461, 22.43489 ] } },
{ "type": "Feature", "properties": { "inst name": "HETALIA NESSER UDDIN  SECONDARY SCHOOL", "eiin": 102611, "inst_type": "School", "district": "PIROJPUR", "thana": "BHANDARIA", "mauza": "HETALIA", "long": 90.00583, "lat": 22.40067, "serial": 22218, "isUnique": 1, "field_11": null, "field_12": null }, "geometry": { "type": "Point", "coordinates": [ 90.00583, 22.40067 ] } },
{ "type": "Feature", "properties": { "inst name": "NADMULA HIGH SCHOOL", "eiin": 102607, "inst_type": "School", "district": "PIROJPUR", "thana": "BHANDARIA", "mauza": "NUDMULLA", "long": 90.00136, "lat": 22.48631, "serial": 22219, "isUnique": 1, "field_11": null, "field_12": null }, "geometry": { "type": "Point", "coordinates": [ 90.00136, 22.48631 ] } },
{ "type": "Feature", "properties": { "inst name": "SHIAL KATHI SECONDARY SCHOOL", "eiin": 102618, "inst_type": "School", "district": "PIROJPUR", "thana": "BHANDARIA", "mauza": "DAKSHIN SHIALKATI", "long": 90.03447, "lat": 22.49881, "serial": 22220, "isUnique": 1, "field_11": null, "field_12": null }, "geometry": { "type": "Point", "coordinates": [ 90.03447, 22.49881 ] } },
{ "type": "Feature", "properties": { "inst name": "JUNIA HIGH SCHOOL", "eiin": 102622, "inst_type": "School", "district": "PIROJPUR", "thana": "BHANDARIA", "mauza": "JUNIA", "long": 90.00231, "lat": 22.48928, "serial": 22221, "isUnique": 1, "field_11": null, "field_12": null }, "geometry": { "type": "Point", "coordinates": [ 90.00231, 22.48928 ] } },
{ "type": "Feature", "properties": { "inst name": "TELIKHALI HIGH SCHOOL", "eiin": 102613, "inst_type": "School", "district": "PIROJPUR", "thana": "BHANDARIA", "mauza": "TELIKHALI", "long": 89.99308, "lat": 22.45728, "serial": 22222, "isUnique": 1, "field_11": null, "field_12": null }, "geometry": { "type": "Point", "coordinates": [ 89.99308, 22.45728 ] } },
{ "type": "Feature", "properties": { "inst name": "GOVT. K.G. UNION HIGH SCHOOL", "eiin": 102687, "inst_type": "School", "district": "PIROJPUR", "thana": "KAWKHALI", "mauza": "UZIAL KHAN", "long": 89.96217, "lat": 22.39311, "serial": 22223, "isUnique": 1, "field_11": null, "field_12": null }, "geometry": { "type": "Point", "coordinates": [ 89.96217, 22.39311 ] } },
{ "type": "Feature", "properties": { "inst name": "S.B. GOVT. GIRLS HIGH SCHOOL", "eiin": 102688, "inst_type": "School", "district": "PIROJPUR", "thana": "KAWKHALI", "mauza": "KACHUAKATI", "long": 89.93353, "lat": 22.36436, "serial": 22224, "isUnique": 1, "field_11": null, "field_12": null }, "geometry": { "type": "Point", "coordinates": [ 89.93353, 22.36436 ] } },
{ "type": "Feature", "properties": { "inst name": "AIRON JOYKUL M.M.HIGH SCHOOL", "eiin": 102692, "inst_type": "School", "district": "PIROJPUR", "thana": "KAWKHALI", "mauza": "AIRAN JHAPARSI", "long": 89.9475, "lat": 22.38561, "serial": 22225, "isUnique": 1, "field_11": null, "field_12": null }, "geometry": { "type": "Point", "coordinates": [ 89.9475, 22.38561 ] } },
{ "type": "Feature", "properties": { "inst name": "HOGLA BETKA SECONDARY SCHOOL", "eiin": 102693, "inst_type": "School", "district": "PIROJPUR", "thana": "KAWKHALI", "mauza": "HOGLA", "long": 89.95661, "lat": 22.37906, "serial": 22226, "isUnique": 1, "field_11": null, "field_12": null }, "geometry": { "type": "Point", "coordinates": [ 89.95661, 22.37906 ] } },
{ "type": "Feature", "properties": { "inst name": "JOLAGATI M.A.HIGH SCHOOL", "eiin": 102694, "inst_type": "School", "district": "PIROJPUR", "thana": "KAWKHALI", "mauza": "JOLAGATI", "long": 89.96819, "lat": 22.41686, "serial": 22227, "isUnique": 1, "field_11": null, "field_12": null }, "geometry": { "type": "Point", "coordinates": [ 89.96819, 22.41686 ] } },
{ "type": "Feature", "properties": { "inst name": "NILTI UNITED HIGH SCHOOL", "eiin": 102695, "inst_type": "School", "district": "PIROJPUR", "thana": "KAWKHALI", "mauza": "NILATI", "long": 90.06003, "lat": 22.62339, "serial": 22228, "isUnique": 1, "field_11": null, "field_12": null }, "geometry": { "type": "Point", "coordinates": [ 90.06003, 22.62339 ] } },
{ "type": "Feature", "properties": { "inst name": "UTTAR NILTY SAMAtAT HIGH SCHOOL", "eiin": 102697, "inst_type": "School", "district": "PIROJPUR", "thana": "KAWKHALI", "mauza": "NILATI", "long": 90.09525, "lat": 22.60461, "serial": 22230, "isUnique": 1, "field_11": null, "field_12": null }, "geometry": { "type": "Point", "coordinates": [ 90.09525, 22.60461 ] } },
{ "type": "Feature", "properties": { "inst name": "KATHALIA P.G.S. MULTILATERAL HIGH SCHOOL AND TECHNICAL COLLEGE", "eiin": 102699, "inst_type": "School", "district": "PIROJPUR", "thana": "KAWKHALI", "mauza": "GOSANTARA", "long": 90.03542, "lat": 22.65081, "serial": 22231, "isUnique": 1, "field_11": null, "field_12": null }, "geometry": { "type": "Point", "coordinates": [ 90.03542, 22.65081 ] } },
{ "type": "Feature", "properties": { "inst name": "KEUNDIA SHAHID SMRITI GIRL'S HIGH SCHOOL", "eiin": 102700, "inst_type": "School", "district": "PIROJPUR", "thana": "KAWKHALI", "mauza": "KEUNDIA MADHUKATI", "long": 90.05433, "lat": 22.55581, "serial": 22232, "isUnique": 1, "field_11": null, "field_12": null }, "geometry": { "type": "Point", "coordinates": [ 90.05433, 22.55581 ] } },
{ "type": "Feature", "properties": { "inst name": "JOYKUL MODEL SECONDARY  GIRL'S SCHOOL & TECHNICAL  COLLEGE", "eiin": 102701, "inst_type": "School", "district": "PIROJPUR", "thana": "KAWKHALI", "mauza": "JOYKUL", "long": 90.04436, "lat": 22.58981, "serial": 22233, "isUnique": 1, "field_11": null, "field_12": null }, "geometry": { "type": "Point", "coordinates": [ 90.04436, 22.58981 ] } },
{ "type": "Feature", "properties": { "inst name": "SHIRSHA ACHHIA KHATUN JR. GIRL'S SCHOOL", "eiin": 102702, "inst_type": "School", "district": "PIROJPUR", "thana": "KAWKHALI", "mauza": "SIRSA", "long": 90.04036, "lat": 22.62689, "serial": 22234, "isUnique": 1, "field_11": null, "field_12": null }, "geometry": { "type": "Point", "coordinates": [ 90.04036, 22.62689 ] } },
{ "type": "Feature", "properties": { "inst name": "KAWKHALI ADARSHA JUNIOR HIGH SCHOOL", "eiin": 102703, "inst_type": "School", "district": "PIROJPUR", "thana": "KAWKHALI", "mauza": "KACHUAKATI", "long": 90.05319, "lat": 22.60261, "serial": 22235, "isUnique": 1, "field_11": null, "field_12": null }, "geometry": { "type": "Point", "coordinates": [ 90.05319, 22.60261 ] } },
{ "type": "Feature", "properties": { "inst name": "HAZERA KHATUN MEMORIAL junior GIRL'S SCHOOL", "eiin": 102704, "inst_type": "School", "district": "PIROJPUR", "thana": "KAWKHALI", "mauza": "DHABRI", "long": 90.07728, "lat": 22.60197, "serial": 22236, "isUnique": 1, "field_11": null, "field_12": null }, "geometry": { "type": "Point", "coordinates": [ 90.07728, 22.60197 ] } },
{ "type": "Feature", "properties": { "inst name": "SAMSUNNESA GIRLS SECONDARY SCHOOL", "eiin": 102705, "inst_type": "School", "district": "PIROJPUR", "thana": "KAWKHALI", "mauza": "JOLAGATI", "long": 90.09036, "lat": 22.63394, "serial": 22237, "isUnique": 1, "field_11": null, "field_12": null }, "geometry": { "type": "Point", "coordinates": [ 90.09036, 22.63394 ] } },
{ "type": "Feature", "properties": { "inst name": "PURBA AMRAJURI SECONDFARY SCHOOL", "eiin": 102689, "inst_type": "School", "district": "PIROJPUR", "thana": "KAWKHALI", "mauza": "PACHIM AMRAJURI", "long": 90.05936, "lat": 22.61917, "serial": 22239, "isUnique": 1, "field_11": null, "field_12": null }, "geometry": { "type": "Point", "coordinates": [ 90.05936, 22.61917 ] } },
{ "type": "Feature", "properties": { "inst name": "BETMORE RAJAPARA UNION ADARSHA HIGH SCHOOL", "eiin": 102723, "inst_type": "School", "district": "PIROJPUR", "thana": "MATHBARIA", "mauza": "BETMORE RAJPARA", "long": 90.06786, "lat": 22.61892, "serial": 22240, "isUnique": 1, "field_11": null, "field_12": null }, "geometry": { "type": "Point", "coordinates": [ 90.06786, 22.61892 ] } },
{ "type": "Feature", "properties": { "inst name": "K.M. LATIF INSTITUTION", "eiin": 102724, "inst_type": "School", "district": "PIROJPUR", "thana": "MATHBARIA", "mauza": "MADHYA PURBA BAKSIR GHATICHAR", "long": 90.06431, "lat": 22.61839, "serial": 22241, "isUnique": 1, "field_11": null, "field_12": null }, "geometry": { "type": "Point", "coordinates": [ 90.06431, 22.61839 ] } },
{ "type": "Feature", "properties": { "inst name": "NALI VHIM CHANDRA HIGH SCHOOL", "eiin": 102725, "inst_type": "School", "district": "PIROJPUR", "thana": "MATHBARIA", "mauza": "NALI", "long": 90.09036, "lat": 22.63322, "serial": 22242, "isUnique": 1, "field_11": null, "field_12": null }, "geometry": { "type": "Point", "coordinates": [ 90.09036, 22.63322 ] } },
{ "type": "Feature", "properties": { "inst name": "MIRUKHALI HIGH SCHOOL", "eiin": 102726, "inst_type": "School", "district": "PIROJPUR", "thana": "MATHBARIA", "mauza": "NAPITKHALI", "long": 90.04586, "lat": 22.62728, "serial": 22243, "isUnique": 1, "field_11": null, "field_12": null }, "geometry": { "type": "Point", "coordinates": [ 90.04586, 22.62728 ] } },
{ "type": "Feature", "properties": { "inst name": "SAPLEZA MODEL HIGH SCHOOL", "eiin": 102727, "inst_type": "School", "district": "PIROJPUR", "thana": "MATHBARIA", "mauza": "SAPLEZA", "long": 90.07469, "lat": 22.64033, "serial": 22244, "isUnique": 1, "field_11": null, "field_12": null }, "geometry": { "type": "Point", "coordinates": [ 90.07469, 22.64033 ] } },
{ "type": "Feature", "properties": { "inst name": "TUSHKALI SECONDARY SCHOOL", "eiin": 102728, "inst_type": "School", "district": "PIROJPUR", "thana": "MATHBARIA", "mauza": "UDAYTARA BURIR CHAR", "long": 89.90383, "lat": 22.27369, "serial": 22245, "isUnique": 1, "field_11": null, "field_12": null }, "geometry": { "type": "Point", "coordinates": [ 89.90383, 22.27369 ] } },
{ "type": "Feature", "properties": { "inst name": "SAFA SECONDARY SCHOOL", "eiin": 102729, "inst_type": "School", "district": "PIROJPUR", "thana": "MATHBARIA", "mauza": "DHANISAFA", "long": 89.96022, "lat": 22.28842, "serial": 22246, "isUnique": 1, "field_11": null, "field_12": null }, "geometry": { "type": "Point", "coordinates": [ 89.96022, 22.28842 ] } },
{ "type": "Feature", "properties": { "inst name": "GK UNION SECONDARY SCHOOL", "eiin": 102730, "inst_type": "School", "district": "PIROJPUR", "thana": "MATHBARIA", "mauza": "GULISHAKHALI", "long": 89.94928, "lat": 22.20564, "serial": 22247, "isUnique": 1, "field_11": null, "field_12": null }, "geometry": { "type": "Point", "coordinates": [ 89.94928, 22.20564 ] } },
{ "type": "Feature", "properties": { "inst name": "BARAMASUA UNITED HIGH INSTITUTION", "eiin": 102731, "inst_type": "School", "district": "PIROJPUR", "thana": "MATHBARIA", "mauza": "KHEJURBARIA", "long": 90.01697, "lat": 22.34456, "serial": 22248, "isUnique": 1, "field_11": null, "field_12": null }, "geometry": { "type": "Point", "coordinates": [ 90.01697, 22.34456 ] } },
{ "type": "Feature", "properties": { "inst name": "AMRAGACHIA SECONDARY SCHOOL", "eiin": 102732, "inst_type": "School", "district": "PIROJPUR", "thana": "MATHBARIA", "mauza": "AMRAGACHHIA HOGALPATI", "long": 89.91397, "lat": 22.21636, "serial": 22249, "isUnique": 1, "field_11": null, "field_12": null }, "geometry": { "type": "Point", "coordinates": [ 89.91397, 22.21636 ] } },
{ "type": "Feature", "properties": { "inst name": "TUSHKHALI  ADARSHA  GIRLS  HIGH  SCHOOL", "eiin": 102733, "inst_type": "School", "district": "PIROJPUR", "thana": "MATHBARIA", "mauza": "TUSHKHALI", "long": 89.93508, "lat": 22.36167, "serial": 22250, "isUnique": 1, "field_11": null, "field_12": null }, "geometry": { "type": "Point", "coordinates": [ 89.93508, 22.36167 ] } },
{ "type": "Feature", "properties": { "inst name": "GUDIGHATA SARAJINI ADARSHA HIGH SCHOOL", "eiin": 102735, "inst_type": "School", "district": "PIROJPUR", "thana": "MATHBARIA", "mauza": "PHULJHURI", "long": 89.96631, "lat": 22.36789, "serial": 22251, "isUnique": 1, "field_11": null, "field_12": null }, "geometry": { "type": "Point", "coordinates": [ 89.96631, 22.36789 ] } },
{ "type": "Feature", "properties": { "inst name": "HATEM ALI GIRLS HIGH SCHOOL", "eiin": 102737, "inst_type": "School", "district": "PIROJPUR", "thana": "MATHBARIA", "mauza": "NEW MARKET & COLLEGE AREA", "long": 89.97233, "lat": 22.2465, "serial": 22252, "isUnique": 1, "field_11": null, "field_12": null }, "geometry": { "type": "Point", "coordinates": [ 89.97233, 22.2465 ] } },
{ "type": "Feature", "properties": { "inst name": "BHAGIRATHPUR HIGH SCHOOL", "eiin": 102738, "inst_type": "School", "district": "PIROJPUR", "thana": "MATHBARIA", "mauza": "CHHOTA SAULA", "long": 89.89775, "lat": 22.31003, "serial": 22253, "isUnique": 1, "field_11": null, "field_12": null }, "geometry": { "type": "Point", "coordinates": [ 89.89775, 22.31003 ] } },
{ "type": "Feature", "properties": { "inst name": "SHOULA ADARSHA HIGH SCHOOL", "eiin": 102739, "inst_type": "School", "district": "PIROJPUR", "thana": "MATHBARIA", "mauza": "BARA SAULA", "long": 89.91608, "lat": 22.24581, "serial": 22254, "isUnique": 1, "field_11": null, "field_12": null }, "geometry": { "type": "Point", "coordinates": [ 89.91608, 22.24581 ] } },
{ "type": "Feature", "properties": { "inst name": "ALGI PATAKATA SECONDARY SCHOOL", "eiin": 102740, "inst_type": "School", "district": "PIROJPUR", "thana": "MATHBARIA", "mauza": "PATAKATA", "long": 89.93575, "lat": 22.356, "serial": 22255, "isUnique": 1, "field_11": null, "field_12": null }, "geometry": { "type": "Point", "coordinates": [ 89.93575, 22.356 ] } },
{ "type": "Feature", "properties": { "inst name": "UTTAR TIKIKATA HIGH SCHOOL", "eiin": 102741, "inst_type": "School", "district": "PIROJPUR", "thana": "MATHBARIA", "mauza": "GHOSHER TIKIKATA", "long": 89.93561, "lat": 22.33756, "serial": 22256, "isUnique": 1, "field_11": null, "field_12": null }, "geometry": { "type": "Point", "coordinates": [ 89.93561, 22.33756 ] } },
{ "type": "Feature", "properties": { "inst name": "HOTKHALI ADARSHA JR. HIGH SCHOOL", "eiin": 102742, "inst_type": "School", "district": "PIROJPUR", "thana": "MATHBARIA", "mauza": "DAKSHIN HALTA", "long": 89.95739, "lat": 22.29039, "serial": 22257, "isUnique": 1, "field_11": null, "field_12": null }, "geometry": { "type": "Point", "coordinates": [ 89.95739, 22.29039 ] } },
{ "type": "Feature", "properties": { "inst name": "RAZARHAT SAHID BACHCHU HIGH SCHOOL", "eiin": 102743, "inst_type": "School", "district": "PIROJPUR", "thana": "MATHBARIA", "mauza": "DEBATRA", "long": 90.01919, "lat": 22.39183, "serial": 22258, "isUnique": 1, "field_11": null, "field_12": null }, "geometry": { "type": "Point", "coordinates": [ 90.01919, 22.39183 ] } },
{ "type": "Feature", "properties": { "inst name": "SOUTH SONAKHALI SECONDARY IDEAL  GIRLS SCHOOl", "eiin": 102744, "inst_type": "School", "district": "PIROJPUR", "thana": "MATHBARIA", "mauza": "DAKSHIN SONAKHALI", "long": 90.00269, "lat": 22.37586, "serial": 22259, "isUnique": 1, "field_11": null, "field_12": null }, "geometry": { "type": "Point", "coordinates": [ 90.00269, 22.37586 ] } },
{ "type": "Feature", "properties": { "inst name": "TUSHKHALI JUNIOR GIRL'S HIGH SCHOOL", "eiin": 102745, "inst_type": "School", "district": "PIROJPUR", "thana": "MATHBARIA", "mauza": "UDAYTARA BURIR CHAR", "long": 89.97422, "lat": 22.34167, "serial": 22260, "isUnique": 1, "field_11": null, "field_12": null }, "geometry": { "type": "Point", "coordinates": [ 89.97422, 22.34167 ] } },
{ "type": "Feature", "properties": { "inst name": "SAGIR MEMORIAL SECONDARY GIRLS  SCHOOL", "eiin": 102746, "inst_type": "School", "district": "PIROJPUR", "thana": "MATHBARIA", "mauza": "GULISHAKHALI", "long": 90.01164, "lat": 22.30153, "serial": 22261, "isUnique": 1, "field_11": null, "field_12": null }, "geometry": { "type": "Point", "coordinates": [ 90.01164, 22.30153 ] } },
{ "type": "Feature", "properties": { "inst name": "ABDUL HAMID HIGH SCHOOL", "eiin": 102748, "inst_type": "School", "district": "PIROJPUR", "thana": "MATHBARIA", "mauza": "DADHIBHANGA", "long": 89.98606, "lat": 22.21108, "serial": 22262, "isUnique": 1, "field_11": null, "field_12": null }, "geometry": { "type": "Point", "coordinates": [ 89.98606, 22.21108 ] } },
{ "type": "Feature", "properties": { "inst name": "TIARKHALI MAZID MEMORIAL HIGH SCHOOL", "eiin": 102749, "inst_type": "School", "district": "PIROJPUR", "thana": "MATHBARIA", "mauza": "DAKSHIN HALTA", "long": 90.05047, "lat": 22.33619, "serial": 22263, "isUnique": 1, "field_11": null, "field_12": null }, "geometry": { "type": "Point", "coordinates": [ 90.05047, 22.33619 ] } },
{ "type": "Feature", "properties": { "inst name": "HALTA KUMIRMARA ABUJAFOR HIGH SCHOOL", "eiin": 102750, "inst_type": "School", "district": "PIROJPUR", "thana": "MATHBARIA", "mauza": "KUMIRMARA", "long": 89.91825, "lat": 22.22075, "serial": 22264, "isUnique": 1, "field_11": null, "field_12": null }, "geometry": { "type": "Point", "coordinates": [ 89.91825, 22.22075 ] } },
{ "type": "Feature", "properties": { "inst name": "SONAKHALI MUNSHI ABDUL KADER  HIGH SCHOOL", "eiin": 102751, "inst_type": "School", "district": "PIROJPUR", "thana": "MATHBARIA", "mauza": "UTTAR SONAKHALI", "long": 89.93647, "lat": 22.36203, "serial": 22265, "isUnique": 1, "field_11": null, "field_12": null }, "geometry": { "type": "Point", "coordinates": [ 89.93647, 22.36203 ] } },
{ "type": "Feature", "properties": { "inst name": "NALI CHARAK GACHIA TAMIZIA HIGH SCHOOL", "eiin": 102752, "inst_type": "School", "district": "PIROJPUR", "thana": "MATHBARIA", "mauza": "CHARAKGACHHIA", "long": 89.97294, "lat": 22.24669, "serial": 22266, "isUnique": 1, "field_11": null, "field_12": null }, "geometry": { "type": "Point", "coordinates": [ 89.97294, 22.24669 ] } },
{ "type": "Feature", "properties": { "inst name": "TUSHKHALI UNION TOFEL AKON MEMORIAL SECONDARY SCHOOL", "eiin": 102753, "inst_type": "School", "district": "PIROJPUR", "thana": "MATHBARIA", "mauza": "CHHOTA MACHHUA", "long": 90.02619, "lat": 22.29675, "serial": 22267, "isUnique": 1, "field_11": null, "field_12": null }, "geometry": { "type": "Point", "coordinates": [ 90.02619, 22.29675 ] } },
{ "type": "Feature", "properties": { "inst name": "PATHAKATA JUNIOUR HIGH SCHOOL", "eiin": 102754, "inst_type": "School", "district": "PIROJPUR", "thana": "MATHBARIA", "mauza": "PATAKATA", "long": 89.99756, "lat": 22.22936, "serial": 22268, "isUnique": 1, "field_11": null, "field_12": null }, "geometry": { "type": "Point", "coordinates": [ 89.99756, 22.22936 ] } },
{ "type": "Feature", "properties": { "inst name": "KAKRABUNIA R.S. HIGH SCHOOL", "eiin": 102755, "inst_type": "School", "district": "PIROJPUR", "thana": "MATHBARIA", "mauza": "GHOSHER TIKIKATA", "long": 90.02569, "lat": 22.25961, "serial": 22269, "isUnique": 1, "field_11": null, "field_12": null }, "geometry": { "type": "Point", "coordinates": [ 90.02569, 22.25961 ] } },
{ "type": "Feature", "properties": { "inst name": "UDAYAN  SECONDARY  SCHOOL", "eiin": 102756, "inst_type": "School", "district": "PIROJPUR", "thana": "MATHBARIA", "mauza": "UTTAR PURBA NEW MARKET", "long": 89.94517, "lat": 22.25583, "serial": 22270, "isUnique": 1, "field_11": null, "field_12": null }, "geometry": { "type": "Point", "coordinates": [ 89.94517, 22.25583 ] } },
{ "type": "Feature", "properties": { "inst name": "DAKHINGULISHA KHALI MOMIN SMRITEE HIGH SCHOOL", "eiin": 102757, "inst_type": "School", "district": "PIROJPUR", "thana": "MATHBARIA", "mauza": "GULISHAKHALI", "long": 89.92553, "lat": 22.19022, "serial": 22271, "isUnique": 1, "field_11": null, "field_12": null }, "geometry": { "type": "Point", "coordinates": [ 89.92553, 22.19022 ] } },
{ "type": "Feature", "properties": { "inst name": "NALI TULATALA JUNIOR HIGH SCHOOL", "eiin": 102758, "inst_type": "School", "district": "PIROJPUR", "thana": "MATHBARIA", "mauza": "NALI", "long": 89.91681, "lat": 22.3415, "serial": 22272, "isUnique": 1, "field_11": null, "field_12": null }, "geometry": { "type": "Point", "coordinates": [ 89.91681, 22.3415 ] } },
{ "type": "Feature", "properties": { "inst name": "HAZI GONJ HIGH SCHOOL", "eiin": 102759, "inst_type": "School", "district": "PIROJPUR", "thana": "MATHBARIA", "mauza": "KHETACHIRA", "long": 89.97933, "lat": 22.31669, "serial": 22273, "isUnique": 1, "field_11": null, "field_12": null }, "geometry": { "type": "Point", "coordinates": [ 89.97933, 22.31669 ] } },
{ "type": "Feature", "properties": { "inst name": "NURJAHAN MEMORIAL HIGH SCHOOL", "eiin": 102760, "inst_type": "School", "district": "PIROJPUR", "thana": "MATHBARIA", "mauza": "DAUDKHALI", "long": 90.01886, "lat": 22.31539, "serial": 22274, "isUnique": 1, "field_11": null, "field_12": null }, "geometry": { "type": "Point", "coordinates": [ 90.01886, 22.31539 ] } },
{ "type": "Feature", "properties": { "inst name": "K. M. YOUSUF ALI HIGH SCHOOL", "eiin": 102761, "inst_type": "School", "district": "PIROJPUR", "thana": "MATHBARIA", "mauza": "HARJI NALBUNIA", "long": 89.99422, "lat": 22.29203, "serial": 22275, "isUnique": 1, "field_11": null, "field_12": null }, "geometry": { "type": "Point", "coordinates": [ 89.99422, 22.29203 ] } },
{ "type": "Feature", "properties": { "inst name": "BUKHAITALA BANDHABPARAS SECONDARY SCHOOL", "eiin": 102762, "inst_type": "School", "district": "PIROJPUR", "thana": "MATHBARIA", "mauza": "BUKHAITALA BANDHAB PARA", "long": 89.96969, "lat": 22.22503, "serial": 22276, "isUnique": 1, "field_11": null, "field_12": null }, "geometry": { "type": "Point", "coordinates": [ 89.96969, 22.22503 ] } },
{ "type": "Feature", "properties": { "inst name": "KARIM AKON SECONDARY SCHOOL", "eiin": 102763, "inst_type": "School", "district": "PIROJPUR", "thana": "MATHBARIA", "mauza": "PHULJHURI", "long": 89.94294, "lat": 22.18944, "serial": 22277, "isUnique": 1, "field_11": null, "field_12": null }, "geometry": { "type": "Point", "coordinates": [ 89.94294, 22.18944 ] } },
{ "type": "Feature", "properties": { "inst name": "JANKHALI UNITED HIGH SCHOOL", "eiin": 102766, "inst_type": "School", "district": "PIROJPUR", "thana": "MATHBARIA", "mauza": "NUJAMIA GHOPKHALI", "long": 89.90975, "lat": 22.17747, "serial": 22278, "isUnique": 1, "field_11": null, "field_12": null },