{
"type": "FeatureCollection",
"crs": { "type": "name", "properties": { "name": "urn:ogc:def:crs:OGC:1.3:CRS84" } },
"features": [
{ "type": "Feature", "properties": { "inst_name": "BANGAL HALIA COLLEGE", "eiin": 107788, "inst_type": "College", "district": "RANGAMATI", "thana": "RAJASTHALI  UPAZILA", "mauza": "KAKRA CHHARI", "long": 91.20028, "lat": 23.8265, "serial": 1938, "isUnique": 1, "field_11": null }, "geometry": { "type": "Point", "coordinates": [ 91.20028, 23.8265 ] } },
{ "type": "Feature", "properties": { "inst_name": "RAJASTHALI COLLEGE", "eiin": 107789, "inst_type": "College", "district": "RANGAMATI", "thana": "RAJASTHALI  UPAZILA", "mauza": "CHINGKHYONG", "long": 91.20861, "lat": 23.86664, "serial": 1939, "isUnique": 1, "field_11": null }, "geometry": { "type": "Point", "coordinates": [ 91.20861, 23.86664 ] } },
{ "type": "Feature", "properties": { "inst_name": "KARNAFULI COLLEGE", "eiin": 107738, "inst_type": "College", "district": "RANGAMATI", "thana": "KAPTAI  UPAZILA", "mauza": "KAPTAI R.F.AREA", "long": 92.13871, "lat": 22.49769, "serial": 1940, "isUnique": 1, "field_11": null }, "geometry": { "type": "Point", "coordinates": [ 92.13871, 22.49769 ] } },
{ "type": "Feature", "properties": { "inst_name": "NANIARCHAR COLLEGE", "eiin": 107781, "inst_type": "College", "district": "RANGAMATI", "thana": "NANIARCHAR  UPAZILA", "mauza": "MASCHHARI", "long": 92.09635, "lat": 22.90849, "serial": 1941, "isUnique": 1, "field_11": null }, "geometry": { "type": "Point", "coordinates": [ 92.09635, 22.90849 ] } },
{ "type": "Feature", "properties": { "inst_name": "KACHALONG DEGREE COLLEGE", "eiin": 107685, "inst_type": "College", "district": "RANGAMATI", "thana": "BAGHAICHHARI", "mauza": "MARISHYA", "long": 92.18358, "lat": 23.1877, "serial": 1942, "isUnique": 1, "field_11": null }, "geometry": { "type": "Point", "coordinates": [ 92.18358, 23.1877 ] } },
{ "type": "Feature", "properties": { "inst_name": "SHIJAK COLLEGE", "eiin": 107686, "inst_type": "College", "district": "RANGAMATI", "thana": "BAGHAICHHARI", "mauza": "SARBATALI", "long": 92.22173, "lat": 23.11207, "serial": 1943, "isUnique": 1, "field_11": null }, "geometry": { "type": "Point", "coordinates": [ 92.22173, 23.11207 ] } },
{ "type": "Feature", "properties": { "inst_name": "KAWKHALI  degree  COLLEGE", "eiin": 107716, "inst_type": "College", "district": "RANGAMATI", "thana": "KAWKHALI (BETBUNIA)", "mauza": "KACHUKHALI", "long": 92.39008, "lat": 22.73022, "serial": 1944, "isUnique": 1, "field_11": null }, "geometry": { "type": "Point", "coordinates": [ 92.39008, 22.73022 ] } },
{ "type": "Feature", "properties": { "inst_name": "GHAGRA COLLEGE", "eiin": 107717, "inst_type": "College", "district": "RANGAMATI", "thana": "KAWKHALI (BETBUNIA)", "mauza": "GHAGRA", "long": 92.06913, "lat": 22.62322, "serial": 1945, "isUnique": 1, "field_11": null }, "geometry": { "type": "Point", "coordinates": [ 92.06913, 22.62322 ] } },
{ "type": "Feature", "properties": { "inst_name": "RABITA MODEL COLLEGE", "eiin": 107764, "inst_type": "College", "district": "RANGAMATI", "thana": "LANGADU  UPAZILA", "mauza": "MAYANI MUKH", "long": 92.20851, "lat": 22.98578, "serial": 1946, "isUnique": 1, "field_11": null }, "geometry": { "type": "Point", "coordinates": [ 92.20851, 22.98578 ] } },
{ "type": "Feature", "properties": { "inst_name": "GOVT.RANGAMATI MOHILA COLLEGE", "eiin": 107819, "inst_type": "College", "district": "RANGAMATI", "thana": "RANGAMATI SADAR  UP", "mauza": "MOHILA COLLEGE", "long": 92.09025, "lat": 22.72538, "serial": 1947, "isUnique": 1, "field_11": null }, "geometry": { "type": "Point", "coordinates": [ 92.09025, 22.72538 ] } },
{ "type": "Feature", "properties": { "inst_name": "RANGAMATI GOVT. COLLEGE", "eiin": 107818, "inst_type": "College", "district": "RANGAMATI", "thana": "RANGAMATI SADAR  UP", "mauza": "COLLEGE GATE", "long": 92.1399, "lat": 22.66472, "serial": 1948, "isUnique": 1, "field_11": null }, "geometry": { "type": "Point", "coordinates": [ 92.1399, 22.66472 ] } },
{ "type": "Feature", "properties": { "inst_name": "KAPTAI AL-AMIN NURia MADRASHA", "eiin": 107736, "inst_type": "Madrasha", "district": "RANGAMATI", "thana": "KAPTAI  UPAZILA", "mauza": "KAPTAI R.F.AREA", "long": 92.14227, "lat": 22.46555, "serial": 9056, "isUnique": 1, "field_11": null }, "geometry": { "type": "Point", "coordinates": [ 92.14227, 22.46555 ] } },
{ "type": "Feature", "properties": { "inst_name": "NANIARCHAR ISLAMPUR DAKHIL MADRASA", "eiin": 107780, "inst_type": "Madrasha", "district": "RANGAMATI", "thana": "NANIARCHAR  UPAZILA", "mauza": "BARADAM (CHENGI)", "long": 92.10514, "lat": 22.84244, "serial": 9057, "isUnique": 1, "field_11": null }, "geometry": { "type": "Point", "coordinates": [ 92.10514, 22.84244 ] } },
{ "type": "Feature", "properties": { "inst_name": "KASSALONG DAKHIL MADRASHA", "eiin": 107684, "inst_type": "Madrasha", "district": "RANGAMATI", "thana": "BAGHAICHHARI", "mauza": "MARISHYA", "long": 92.17622, "lat": 23.41405, "serial": 9058, "isUnique": 1, "field_11": null }, "geometry": { "type": "Point", "coordinates": [ 92.17622, 23.41405 ] } },
{ "type": "Feature", "properties": { "inst_name": "BETBUNIA  gaucia  ahamadia  RAHAMANIA  SUnNiA DAKHIL  MADRASHA", "eiin": 107715, "inst_type": "Madrasha", "district": "RANGAMATI", "thana": "KAWKHALI (BETBUNIA)", "mauza": "BETBUNIA", "long": 91.96792, "lat": 22.57601, "serial": 9059, "isUnique": 1, "field_11": null }, "geometry": { "type": "Point", "coordinates": [ 91.96792, 22.57601 ] } },
{ "type": "Feature", "properties": { "inst_name": "BETBUNIA MOINUL ULAM REZVIA SAYEDIA DAKHIL MADRASA", "eiin": 107714, "inst_type": "Madrasha", "district": "RANGAMATI", "thana": "KAWKHALI (BETBUNIA)", "mauza": "BETBUNIA", "long": 91.97104, "lat": 22.57881, "serial": 9060, "isUnique": 1, "field_11": null }, "geometry": { "type": "Point", "coordinates": [ 91.97104, 22.57881 ] } },
{ "type": "Feature", "properties": { "inst_name": "SIDDIQUE-E-AKBER DAKHIL MADRASHA", "eiin": 107713, "inst_type": "Madrasha", "district": "RANGAMATI", "thana": "KAWKHALI (BETBUNIA)", "mauza": "KACHUKHALI", "long": 92.05586, "lat": 22.66312, "serial": 9061, "isUnique": 1, "field_11": null }, "geometry": { "type": "Point", "coordinates": [ 92.05586, 22.66312 ] } },
{ "type": "Feature", "properties": { "inst_name": "MAINIMUKH ISLAMIA ALIM MADRASH", "eiin": 107759, "inst_type": "Madrasha", "district": "RANGAMATI", "thana": "LANGADU  UPAZILA", "mauza": "MAYANI MUKH", "long": 92.20758, "lat": 22.98707, "serial": 9062, "isUnique": 1, "field_11": null }, "geometry": { "type": "Point", "coordinates": [ 92.20758, 22.98707 ] } },
{ "type": "Feature", "properties": { "inst_name": "BAITUSh SHOROF jABBARIA ADARSHA DAKHIL MADRASHA", "eiin": 107760, "inst_type": "Madrasha", "district": "RANGAMATI", "thana": "LANGADU  UPAZILA", "mauza": "GATHA CHHARA", "long": 92.18551, "lat": 22.99404, "serial": 9063, "isUnique": 1, "field_11": null }, "geometry": { "type": "Point", "coordinates": [ 92.18551, 22.99404 ] } },
{ "type": "Feature", "properties": { "inst_name": "AL-AMIN ISLAMIA FAZIL MADRASAH", "eiin": 107816, "inst_type": "Madrasha", "district": "RANGAMATI", "thana": "RANGAMATI SADAR  UP", "mauza": "BANARUPA", "long": 92.31156, "lat": 22.63715, "serial": 9064, "isUnique": 1, "field_11": null }, "geometry": { "type": "Point", "coordinates": [ 92.31156, 22.63715 ] } },
{ "type": "Feature", "properties": { "inst_name": "RANGAMATI SENIOR MADRASHA", "eiin": 107817, "inst_type": "Madrasha", "district": "RANGAMATI", "thana": "RANGAMATI SADAR  UP", "mauza": "RESERVE BAZAR (PART-2)", "long": 92.14319, "lat": 22.68819, "serial": 9065, "isUnique": 1, "field_11": null }, "geometry": { "type": "Point", "coordinates": [ 92.14319, 22.68819 ] } },
{ "type": "Feature", "properties": { "inst_name": "BANGAL HALIA HIGH SCHOOL", "eiin": 107784, "inst_type": "School", "district": "RANGAMATI", "thana": "RAJASTHALI  UPAZILA", "mauza": "KAKRA CHHARI", "long": 91.24039, "lat": 23.83031, "serial": 23092, "isUnique": 1, "field_11": null }, "geometry": { "type": "Point", "coordinates": [ 91.24039, 23.83031 ] } },
{ "type": "Feature", "properties": { "inst_name": "GAINDYA HIGH SCHOOL", "eiin": 107786, "inst_type": "School", "district": "RANGAMATI", "thana": "RAJASTHALI  UPAZILA", "mauza": "GAINDA", "long": 91.25081, "lat": 23.83722, "serial": 23093, "isUnique": 1, "field_11": null }, "geometry": { "type": "Point", "coordinates": [ 91.25081, 23.83722 ] } },
{ "type": "Feature", "properties": { "inst_name": "RAJASTHALI TAITONG PARA GOVT. HIGH SCHOOL", "eiin": 107783, "inst_type": "School", "district": "RANGAMATI", "thana": "RAJASTHALI  UPAZILA", "mauza": "POWAITHU", "long": 91.21244, "lat": 23.86725, "serial": 23094, "isUnique": 1, "field_11": null }, "geometry": { "type": "Point", "coordinates": [ 91.21244, 23.86725 ] } },
{ "type": "Feature", "properties": { "inst_name": "GHELA CHARI JUNIOR HIGH SCHOOL", "eiin": 107787, "inst_type": "School", "district": "RANGAMATI", "thana": "RAJASTHALI  UPAZILA", "mauza": "GHILA CHHARI", "long": 92.15036, "lat": 22.37163, "serial": 23095, "isUnique": 1, "field_11": null }, "geometry": { "type": "Point", "coordinates": [ 92.15036, 22.37163 ] } },
{ "type": "Feature", "properties": { "inst_name": "RAJASTHALI UPAJATIO ABASIKH HIGH SCHOOL", "eiin": 107785, "inst_type": "School", "district": "RANGAMATI", "thana": "RAJASTHALI  UPAZILA", "mauza": "KAKRA CHHARI", "long": 92.14998, "lat": 22.37691, "serial": 23096, "isUnique": 1, "field_11": null }, "geometry": { "type": "Point", "coordinates": [ 92.14998, 22.37691 ] } },
{ "type": "Feature", "properties": { "inst_name": "ADVENTIST HILL TRACTS SEMINARY AND SCHOOL", "eiin": 107782, "inst_type": "School", "district": "RANGAMATI", "thana": "RAJASTHALI  UPAZILA", "mauza": "KAKRA CHHARI", "long": 92.23353, "lat": 22.35014, "serial": 23097, "isUnique": 1, "field_11": null }, "geometry": { "type": "Point", "coordinates": [ 92.23353, 22.35014 ] } },
{ "type": "Feature", "properties": { "inst_name": "KANGRACHARI JUNIOR HIGH SCHOOL", "eiin": 107719, "inst_type": "School", "district": "RANGAMATI", "thana": "BELAI CHHARI  UPAZI", "mauza": "KANGARA CHHARI", "long": 92.26073, "lat": 22.36648, "serial": 23098, "isUnique": 1, "field_11": null }, "geometry": { "type": "Point", "coordinates": [ 92.26073, 22.36648 ] } },
{ "type": "Feature", "properties": { "inst_name": "BELAI CHARI HIGH SCHOOL", "eiin": 107718, "inst_type": "School", "district": "RANGAMATI", "thana": "BELAI CHHARI  UPAZI", "mauza": "BELAI CHHARI", "long": 92.26131, "lat": 22.36417, "serial": 23099, "isUnique": 1, "field_11": null }, "geometry": { "type": "Point", "coordinates": [ 92.26131, 22.36417 ] } },
{ "type": "Feature", "properties": { "inst_name": "FARUA JUNIOR HIGH SCHOOL", "eiin": 107720, "inst_type": "School", "district": "RANGAMATI", "thana": "BELAI CHHARI  UPAZI", "mauza": "RAINKHONG R.F.", "long": 92.25955, "lat": 22.36967, "serial": 23100, "isUnique": 1, "field_11": null }, "geometry": { "type": "Point", "coordinates": [ 92.25955, 22.36967 ] } },
{ "type": "Feature", "properties": { "inst_name": "WAGGA HIGH SCHOOL", "eiin": 107730, "inst_type": "School", "district": "RANGAMATI", "thana": "KAPTAI  UPAZILA", "mauza": "WAGGA", "long": 92.15423, "lat": 22.37666, "serial": 23101, "isUnique": 1, "field_11": null }, "geometry": { "type": "Point", "coordinates": [ 92.15423, 22.37666 ] } },
{ "type": "Feature", "properties": { "inst_name": "PAHARIKA HIGH SCHOOL", "eiin": 107725, "inst_type": "School", "district": "RANGAMATI", "thana": "KAPTAI  UPAZILA", "mauza": "CHANDRAGHONA", "long": 92.15004, "lat": 22.37472, "serial": 23102, "isUnique": 1, "field_11": null }, "geometry": { "type": "Point", "coordinates": [ 92.15004, 22.37472 ] } },
{ "type": "Feature", "properties": { "inst_name": "BOROICHORI KARNAFULY NURUL H.K. HIGH SCGOOL", "eiin": 107731, "inst_type": "School", "district": "RANGAMATI", "thana": "KAPTAI  UPAZILA", "mauza": "CHANDRAGHONA", "long": 92.35283, "lat": 22.50056, "serial": 23103, "isUnique": 1, "field_11": null }, "geometry": { "type": "Point", "coordinates": [ 92.35283, 22.50056 ] } },
{ "type": "Feature", "properties": { "inst_name": "K.R.C. HIGH SCHOOL", "eiin": 107722, "inst_type": "School", "district": "RANGAMATI", "thana": "KAPTAI  UPAZILA", "mauza": "CHANDRAGHONA", "long": 92.35974, "lat": 22.47085, "serial": 23104, "isUnique": 1, "field_11": null }, "geometry": { "type": "Point", "coordinates": [ 92.35974, 22.47085 ] } },
{ "type": "Feature", "properties": { "inst_name": "CHITMOROM HIGH SCHOOL", "eiin": 107726, "inst_type": "School", "district": "RANGAMATI", "thana": "KAPTAI  UPAZILA", "mauza": "CHITMARAM", "long": 92.13765, "lat": 22.49579, "serial": 23105, "isUnique": 1, "field_11": null }, "geometry": { "type": "Point", "coordinates": [ 92.13765, 22.49579 ] } },
{ "type": "Feature", "properties": { "inst_name": "SAHID SAMSUDDIN GIRLS HIGH SCHOOL", "eiin": 107727, "inst_type": "School", "district": "RANGAMATI", "thana": "KAPTAI  UPAZILA", "mauza": "KAPTAI R.F.AREA", "long": 92.13752, "lat": 22.48861, "serial": 23106, "isUnique": 1, "field_11": null }, "geometry": { "type": "Point", "coordinates": [ 92.13752, 22.48861 ] } },
{ "type": "Feature", "properties": { "inst_name": "KAPTAI HIGH SCHOOL", "eiin": 107729, "inst_type": "School", "district": "RANGAMATI", "thana": "KAPTAI  UPAZILA", "mauza": "KAPTAI R.F.AREA", "long": 92.14179, "lat": 22.48232, "serial": 23107, "isUnique": 1, "field_11": null }, "geometry": { "type": "Point", "coordinates": [ 92.14179, 22.48232 ] } },
{ "type": "Feature", "properties": { "inst_name": "KAPTAI BIDYUT UNNAYAN BOARD MADHYMIK SCHOOL", "eiin": 107723, "inst_type": "School", "district": "RANGAMATI", "thana": "KAPTAI  UPAZILA", "mauza": "KAPTAI R.F.AREA", "long": 92.14034, "lat": 22.473, "serial": 23108, "isUnique": 1, "field_11": null }, "geometry": { "type": "Point", "coordinates": [ 92.14034, 22.473 ] } },
{ "type": "Feature", "properties": { "inst_name": "DONGNALA HIGH SCHOOL", "eiin": 107728, "inst_type": "School", "district": "RANGAMATI", "thana": "KAPTAI  UPAZILA", "mauza": "ROYKHALI", "long": 92.20057, "lat": 22.42706, "serial": 23109, "isUnique": 1, "field_11": null }, "geometry": { "type": "Point", "coordinates": [ 92.20057, 22.42706 ] } },
{ "type": "Feature", "properties": { "inst_name": "BHALUKIYA JR. HIGH SCHOOL", "eiin": 107732, "inst_type": "School", "district": "RANGAMATI", "thana": "KAPTAI  UPAZILA", "mauza": "ROYKHALI", "long": 92.22267, "lat": 22.49472, "serial": 23110, "isUnique": 1, "field_11": null }, "geometry": { "type": "Point", "coordinates": [ 92.22267, 22.49472 ] } },
{ "type": "Feature", "properties": { "inst_name": "NARANGIRI GOVT. HIGH SCHOOL", "eiin": 107724, "inst_type": "School", "district": "RANGAMATI", "thana": "KAPTAI  UPAZILA", "mauza": "ROYKHALI", "long": 92.23569, "lat": 22.4878, "serial": 23111, "isUnique": 1, "field_11": null }, "geometry": { "type": "Point", "coordinates": [ 92.23569, 22.4878 ] } },
{ "type": "Feature", "properties": { "inst_name": "SAKRACHARI JR. HIGH SCHOOL", "eiin": 107734, "inst_type": "School", "district": "RANGAMATI", "thana": "KAPTAI  UPAZILA", "mauza": "WAGGA", "long": 92.23626, "lat": 22.49067, "serial": 23112, "isUnique": 1, "field_11": null }, "geometry": { "type": "Point", "coordinates": [ 92.23626, 22.49067 ] } },
{ "type": "Feature", "properties": { "inst_name": "BANGLADESH NAVY  HIGH SCHOOL", "eiin": 107735, "inst_type": "School", "district": "RANGAMATI", "thana": "KAPTAI  UPAZILA", "mauza": "KAPTAI R.F.AREA", "long": 92.224, "lat": 22.49685, "serial": 23113, "isUnique": 1, "field_11": null }, "geometry": { "type": "Point", "coordinates": [ 92.224, 22.49685 ] } },
{ "type": "Feature", "properties": { "inst_name": "GAINDIA CHARI JR. HIGH SCHOOL", "eiin": 107775, "inst_type": "School", "district": "RANGAMATI", "thana": "NANIARCHAR  UPAZILA", "mauza": "SABEKHYONG", "long": 92.13568, "lat": 22.47948, "serial": 23114, "isUnique": 1, "field_11": null }, "geometry": { "type": "Point", "coordinates": [ 92.13568, 22.47948 ] } },
{ "type": "Feature", "properties": { "inst_name": "JAHANTALY HIGH SCHOOL", "eiin": 107768, "inst_type": "School", "district": "RANGAMATI", "thana": "NANIARCHAR  UPAZILA", "mauza": "SABEKHYONG", "long": 92.13898, "lat": 22.47158, "serial": 23115, "isUnique": 1, "field_11": null }, "geometry": { "type": "Point", "coordinates": [ 92.13898, 22.47158 ] } },
{ "type": "Feature", "properties": { "inst_name": "BOGACHARI AL-AMIN JR. SCHOOL", "eiin": 107772, "inst_type": "School", "district": "RANGAMATI", "thana": "NANIARCHAR  UPAZILA", "mauza": "BAGA CHHARI", "long": 92.2131, "lat": 22.50515, "serial": 23116, "isUnique": 1, "field_11": null }, "geometry": { "type": "Point", "coordinates": [ 92.2131, 22.50515 ] } },
{ "type": "Feature", "properties": { "inst_name": "NANIRCHAR  MODEL HIGH SCHOOL", "eiin": 107765, "inst_type": "School", "district": "RANGAMATI", "thana": "NANIARCHAR  UPAZILA", "mauza": "CHHAYKURI BIL", "long": 92.13657, "lat": 22.49245, "serial": 23117, "isUnique": 1, "field_11": null }, "geometry": { "type": "Point", "coordinates": [ 92.13657, 22.49245 ] } },
{ "type": "Feature", "properties": { "inst_name": "MOHAPURAM   HIGH SCHOOL", "eiin": 107766, "inst_type": "School", "district": "RANGAMATI", "thana": "NANIARCHAR  UPAZILA", "mauza": "BAGA CHHARI", "long": 92.22879, "lat": 22.47811, "serial": 23118, "isUnique": 1, "field_11": null }, "geometry": { "type": "Point", "coordinates": [ 92.22879, 22.47811 ] } },
{ "type": "Feature", "properties": { "inst_name": "SAPMARA JUNIOR HIGH SCHOOL", "eiin": 107777, "inst_type": "School", "district": "RANGAMATI", "thana": "NANIARCHAR  UPAZILA", "mauza": "MASCHHARI", "long": 92.11406, "lat": 22.92964, "serial": 23119, "isUnique": 1, "field_11": null }, "geometry": { "type": "Point", "coordinates": [ 92.11406, 22.92964 ] } },
{ "type": "Feature", "properties": { "inst_name": "BARAPULPARA  JUNIOR  HIGH SCHOOL", "eiin": 107776, "inst_type": "School", "district": "RANGAMATI", "thana": "NANIARCHAR  UPAZILA", "mauza": "CHHAYKURI BIL", "long": 92.05212, "lat": 22.83519, "serial": 23120, "isUnique": 1, "field_11": null }, "geometry": { "type": "Point", "coordinates": [ 92.05212, 22.83519 ] } },
{ "type": "Feature", "properties": { "inst_name": "BETCHARI  GENERAL OSMANI  HIGH  SCHOOL", "eiin": 107767, "inst_type": "School", "district": "RANGAMATI", "thana": "NANIARCHAR  UPAZILA", "mauza": "BET CHHARI", "long": 92.09208, "lat": 22.82858, "serial": 23121, "isUnique": 1, "field_11": null }, "geometry": { "type": "Point", "coordinates": [ 92.09208, 22.82858 ] } },
{ "type": "Feature", "properties": { "inst_name": "KATALTALI  JUNIOR  HIGH SCHOOL", "eiin": 107769, "inst_type": "School", "district": "RANGAMATI", "thana": "NANIARCHAR  UPAZILA", "mauza": "KANTHALTALI", "long": 92.05863, "lat": 22.78867, "serial": 23122, "isUnique": 1, "field_11": null }, "geometry": { "type": "Point", "coordinates": [ 92.05863, 22.78867 ] } },
{ "type": "Feature", "properties": { "inst_name": "BURIGHAT JR. SCHOOL", "eiin": 107774, "inst_type": "School", "district": "RANGAMATI", "thana": "NANIARCHAR  UPAZILA", "mauza": "BURIGHAT", "long": 92.11769, "lat": 22.88111, "serial": 23123, "isUnique": 1, "field_11": null }, "geometry": { "type": "Point", "coordinates": [ 92.11769, 22.88111 ] } },
{ "type": "Feature", "properties": { "inst_name": "MORA CHANGEE JUNIOR HIGH SCHOOL", "eiin": 107770, "inst_type": "School", "district": "RANGAMATI", "thana": "NANIARCHAR  UPAZILA", "mauza": "SABEKHYONG", "long": 92.1181, "lat": 22.86427, "serial": 23124, "isUnique": 1, "field_11": null }, "geometry": { "type": "Point", "coordinates": [ 92.1181, 22.86427 ] } },
{ "type": "Feature", "properties": { "inst_name": "GHILA CHARI JR. SCHOOL", "eiin": 107773, "inst_type": "School", "district": "RANGAMATI", "thana": "NANIARCHAR  UPAZILA", "mauza": "MASCHHARI", "long": 92.08981, "lat": 22.84526, "serial": 23125, "isUnique": 1, "field_11": null }, "geometry": { "type": "Point", "coordinates": [ 92.08981, 22.84526 ] } },
{ "type": "Feature", "properties": { "inst_name": "BANA JOGI CHARA HIGH SCHOOL", "eiin": 107740, "inst_type": "School", "district": "RANGAMATI", "thana": "JURAI CHHARI UPAZIL", "mauza": "BANJUGI CHHARA", "long": 92.13131, "lat": 22.82068, "serial": 23126, "isUnique": 1, "field_11": null }, "geometry": { "type": "Point", "coordinates": [ 92.13131, 22.82068 ] } },
{ "type": "Feature", "properties": { "inst_name": "BHUBAN JOY GOVT HIGH SCHOOL", "eiin": 107741, "inst_type": "School", "district": "RANGAMATI", "thana": "JURAI CHHARI UPAZIL", "mauza": "JURAI CHHARI", "long": 92.09783, "lat": 22.78362, "serial": 23127, "isUnique": 1, "field_11": null }, "geometry": { "type": "Point", "coordinates": [ 92.09783, 22.78362 ] } },
{ "type": "Feature", "properties": { "inst_name": "SUBALONG KHAGRACHARI JUNIOR HIGH SCHOOL", "eiin": 107743, "inst_type": "School", "district": "RANGAMATI", "thana": "JURAI CHHARI UPAZIL", "mauza": "LULANGCHHARI", "long": 92.08513, "lat": 22.81683, "serial": 23128, "isUnique": 1, "field_11": null }, "geometry": { "type": "Point", "coordinates": [ 92.08513, 22.81683 ] } },
{ "type": "Feature", "properties": { "inst_name": "GHILATALI JUNIOR HIGH SCHOOL", "eiin": 107742, "inst_type": "School", "district": "RANGAMATI", "thana": "JURAI CHHARI UPAZIL", "mauza": "JURAI CHHARI", "long": 92.08408, "lat": 22.89769, "serial": 23129, "isUnique": 1, "field_11": null }, "geometry": { "type": "Point", "coordinates": [ 92.08408, 22.89769 ] } },
{ "type": "Feature", "properties": { "inst_name": "BAGHAI HAT HIGH SCHOOL", "eiin": 107677, "inst_type": "School", "district": "RANGAMATI", "thana": "BAGHAICHHARI", "mauza": "RUILUI", "long": 92.03153, "lat": 22.77995, "serial": 23130, "isUnique": 1, "field_11": null }, "geometry": { "type": "Point", "coordinates": [ 92.03153, 22.77995 ] } },
{ "type": "Feature", "properties": { "inst_name": "B T HIGH SCHOOL", "eiin": 107673, "inst_type": "School", "district": "RANGAMATI", "thana": "BAGHAICHHARI", "mauza": "BANGALTALI", "long": 92.34633, "lat": 22.6643, "serial": 23131, "isUnique": 1, "field_11": null }, "geometry": { "type": "Point", "coordinates": [ 92.34633, 22.6643 ] } },
{ "type": "Feature", "properties": { "inst_name": "RUPALI HIGH SCHOOL", "eiin": 107669, "inst_type": "School", "district": "RANGAMATI", "thana": "BAGHAICHHARI", "mauza": "RUPAKARI", "long": 92.40395, "lat": 22.65874, "serial": 23132, "isUnique": 1, "field_11": null }, "geometry": { "type": "Point", "coordinates": [ 92.40395, 22.65874 ] } },
{ "type": "Feature", "properties": { "inst_name": "DAKSHIN RUPAKARI HIGH SCHOOL", "eiin": 107679, "inst_type": "School", "district": "RANGAMATI", "thana": "BAGHAICHHARI", "mauza": "PASCHIM NAILLA GHONA", "long": 92.42005, "lat": 22.66663, "serial": 23133, "isUnique": 1, "field_11": null }, "geometry": { "type": "Point", "coordinates": [ 92.42005, 22.66663 ] } },
{ "type": "Feature", "properties": { "inst_name": "KACHALOnG HIGH SChOOL", "eiin": 107667, "inst_type": "School", "district": "RANGAMATI", "thana": "BAGHAICHHARI", "mauza": "MODEL TOWN", "long": 92.38961, "lat": 22.60082, "serial": 23134, "isUnique": 1, "field_11": null }, "geometry": { "type": "Point", "coordinates": [ 92.38961, 22.60082 ] } },
{ "type": "Feature", "properties": { "inst_name": "KAChALONG GIRLS HiGH SCHOOL", "eiin": 107678, "inst_type": "School", "district": "RANGAMATI", "thana": "BAGHAICHHARI", "mauza": "MARISHYA", "long": 92.19085, "lat": 23.23627, "serial": 23135, "isUnique": 1, "field_11": null }, "geometry": { "type": "Point", "coordinates": [ 92.19085, 23.23627 ] } },
{ "type": "Feature", "properties": { "inst_name": "TULABAN HIGH SCHOOL", "eiin": 107676, "inst_type": "School", "district": "RANGAMATI", "thana": "BAGHAICHHARI", "mauza": "MARISHYA", "long": 92.18584, "lat": 23.16907, "serial": 23136, "isUnique": 1, "field_11": null }, "geometry": { "type": "Point", "coordinates": [ 92.18584, 23.16907 ] } },
{ "type": "Feature", "properties": { "inst_name": "BAGHAICHHARI HIGH SCHOOL", "eiin": 107670, "inst_type": "School", "district": "RANGAMATI", "thana": "BAGHAICHHARI", "mauza": "BAGHAI CHHARI", "long": 92.19017, "lat": 23.15701, "serial": 23137, "isUnique": 1, "field_11": null }, "geometry": { "type": "Point", "coordinates": [ 92.19017, 23.15701 ] } },
{ "type": "Feature", "properties": { "inst_name": "UGAL CHHARI HIGH SCHOOL", "eiin": 107680, "inst_type": "School", "district": "RANGAMATI", "thana": "BAGHAICHHARI", "mauza": "BAGHAI CHHARI", "long": 92.19863, "lat": 23.15868, "serial": 23138, "isUnique": 1, "field_11": null }, "geometry": { "type": "Point", "coordinates": [ 92.19863, 23.15868 ] } },
{ "type": "Feature", "properties": { "inst_name": "ULuCHHARI MOUZA HIGH SCHOOL", "eiin": 107672, "inst_type": "School", "district": "RANGAMATI", "thana": "BAGHAICHHARI", "mauza": "ULU CHHARI", "long": 92.19681, "lat": 23.1659, "serial": 23139, "isUnique": 1, "field_11": null }, "geometry": { "type": "Point", "coordinates": [ 92.19681, 23.1659 ] } },
{ "type": "Feature", "properties": { "inst_name": "SHIJAK MUKH HIGH SCHOOL", "eiin": 107668, "inst_type": "School", "district": "RANGAMATI", "thana": "BAGHAICHHARI", "mauza": "SARBATALI", "long": 92.20339, "lat": 23.1706, "serial": 23140, "isUnique": 1, "field_11": null }, "geometry": { "type": "Point", "coordinates": [ 92.20339, 23.1706 ] } },
{ "type": "Feature", "properties": { "inst_name": "SAROATALI HIGH SCHOOL", "eiin": 107674, "inst_type": "School", "district": "RANGAMATI", "thana": "BAGHAICHHARI", "mauza": "SARBATALI", "long": 92.21593, "lat": 23.1824, "serial": 23141, "isUnique": 1, "field_11": null }, "geometry": { "type": "Point", "coordinates": [ 92.21593, 23.1824 ] } },
{ "type": "Feature", "properties": { "inst_name": "AMTALI HIGH SCHOOL", "eiin": 107675, "inst_type": "School", "district": "RANGAMATI", "thana": "BAGHAICHHARI", "mauza": "AMTALI", "long": 92.21854, "lat": 23.14817, "serial": 23142, "isUnique": 1, "field_11": null }, "geometry": { "type": "Point", "coordinates": [ 92.21854, 23.14817 ] } },
{ "type": "Feature", "properties": { "inst_name": "KHEDAR MARA HIGH SCHOOL", "eiin": 107671, "inst_type": "School", "district": "RANGAMATI", "thana": "BAGHAICHHARI", "mauza": "KEDARMARA", "long": 92.23211, "lat": 23.14556, "serial": 23143, "isUnique": 1, "field_11": null }, "geometry": { "type": "Point", "coordinates": [ 92.23211, 23.14556 ] } },
{ "type": "Feature", "properties": { "inst_name": "MEDINIPUR JUNIOR HIGH SCHOOL", "eiin": 107682, "inst_type": "School", "district": "RANGAMATI", "thana": "BAGHAICHHARI", "mauza": "SARBATALI", "long": 92.21122, "lat": 23.11869, "serial": 23144, "isUnique": 1, "field_11": null }, "geometry": { "type": "Point", "coordinates": [ 92.21122, 23.11869 ] } },
{ "type": "Feature", "properties": { "inst_name": "BATTALI JUNIOR HIGH SCOOL", "eiin": 107683, "inst_type": "School", "district": "RANGAMATI", "thana": "BAGHAICHHARI", "mauza": "BATTALI", "long": 92.23414, "lat": 23.11894, "serial": 23145, "isUnique": 1, "field_11": null }, "geometry": { "type": "Point", "coordinates": [ 92.23414, 23.11894 ] } },
{ "type": "Feature", "properties": { "inst_name": "BARA HARINA JUNIOR HIGH SCHOOL", "eiin": 107693, "inst_type": "School", "district": "RANGAMATI", "thana": "BARKAL UPAZILA", "mauza": "BARA HARINA", "long": 92.23807, "lat": 23.11611, "serial": 23146, "isUnique": 1, "field_11": null }, "geometry": { "type": "Point", "coordinates": [ 92.23807, 23.11611 ] } },
{ "type": "Feature", "properties": { "inst_name": "BARUNA CHARI HIGH SCHOOL", "eiin": 107690, "inst_type": "School", "district": "RANGAMATI", "thana": "BARKAL UPAZILA", "mauza": "BARUNA CHHARI", "long": 92.22458, "lat": 23.08685, "serial": 23147, "isUnique": 1, "field_11": null }, "geometry": { "type": "Point", "coordinates": [ 92.22458, 23.08685 ] } },
{ "type": "Feature", "properties": { "inst_name": "BIL CHARA HIGH SCHOOL", "eiin": 107688, "inst_type": "School", "district": "RANGAMATI", "thana": "BARKAL UPAZILA", "mauza": "KURKUTI CHHARI", "long": 92.23232, "lat": 23.10513, "serial": 23148, "isUnique": 1, "field_11": null }, "geometry": { "type": "Point", "coordinates": [ 92.23232, 23.10513 ] } },
{ "type": "Feature", "properties": { "inst_name": "HAZA CHARA HIGH SCHOOL", "eiin": 107691, "inst_type": "School", "district": "RANGAMATI", "thana": "BARKAL UPAZILA", "mauza": "ANDHAR MANIK", "long": 92.24661, "lat": 23.11607, "serial": 23149, "isUnique": 1, "field_11": null }, "geometry": { "type": "Point", "coordinates": [ 92.24661, 23.11607 ] } },
{ "type": "Feature", "properties": { "inst_name": "SUBALNG HIGH SCHOOL", "eiin": 107689, "inst_type": "School", "district": "RANGAMATI", "thana": "BARKAL UPAZILA", "mauza": "MITINGA CHHARI", "long": 92.1831, "lat": 23.16051, "serial": 23150, "isUnique": 1, "field_11": null }, "geometry": { "type": "Point", "coordinates": [ 92.1831, 23.16051 ] } },
{ "type": "Feature", "properties": { "inst_name": "BARKAL HIGH SCHOOL", "eiin": 107687, "inst_type": "School", "district": "RANGAMATI", "thana": "BARKAL UPAZILA", "mauza": "NALBANIA", "long": 92.3592, "lat": 23.07036, "serial": 23151, "isUnique": 1, "field_11": null }, "geometry": { "type": "Point", "coordinates": [ 92.3592, 23.07036 ] } },
{ "type": "Feature", "properties": { "inst_name": "BORUNACHaRI ZONE JR HIGH SCHOOL", "eiin": 107694, "inst_type": "School", "district": "RANGAMATI", "thana": "BARKAL UPAZILA", "mauza": "BARUNA CHHARI", "long": 92.28895, "lat": 22.80003, "serial": 23152, "isUnique": 1, "field_11": null }, "geometry": { "type": "Point", "coordinates": [ 92.28895, 22.80003 ] } },
{ "type": "Feature", "properties": { "inst_name": "JUNO PAHAR HIGH SCHOOL", "eiin": 107697, "inst_type": "School", "district": "RANGAMATI", "thana": "BARKAL UPAZILA", "mauza": "MAODANG", "long": 92.27738, "lat": 22.76735, "serial": 23153, "isUnique": 1, "field_11": null }, "geometry": { "type": "Point", "coordinates": [ 92.27738, 22.76735 ] } },
{ "type": "Feature", "properties": { "inst_name": "THEGA KHUBBANG JUNIOR HIGH SCHOOL", "eiin": 107695, "inst_type": "School", "district": "RANGAMATI", "thana": "BARKAL UPAZILA", "mauza": "GUI CHHARI", "long": 92.30628, "lat": 22.7621, "serial": 23154, "isUnique": 1, "field_11": null }, "geometry": { "type": "Point", "coordinates": [ 92.30628, 22.7621 ] } },
{ "type": "Feature", "properties": { "inst_name": "UTTAR MUBACHRI JUNIOR HIGH SCHOOL", "eiin": 107704, "inst_type": "School", "district": "RANGAMATI", "thana": "KAWKHALI (BETBUNIA)", "mauza": "MUBA CHHARI", "long": 92.29959, "lat": 22.74906, "serial": 23155, "isUnique": 1, "field_11": null }, "geometry": { "type": "Point", "coordinates": [ 92.29959, 22.74906 ] } },
{ "type": "Feature", "properties": { "inst_name": "POWAPARA PILOT HIGH SCHOOL", "eiin": 107701, "inst_type": "School", "district": "RANGAMATI", "thana": "KAWKHALI (BETBUNIA)", "mauza": "KALAMPATI", "long": 92.27258, "lat": 22.78858, "serial": 23156, "isUnique": 1, "field_11": null }, "geometry": { "type": "Point", "coordinates": [ 92.27258, 22.78858 ] } },
{ "type": "Feature", "properties": { "inst_name": "KAWKHALI GIRLS HIGH SCHOOL", "eiin": 107707, "inst_type": "School", "district": "RANGAMATI", "thana": "KAWKHALI (BETBUNIA)", "mauza": "KACHUKHALI", "long": 92.39879, "lat": 22.87143, "serial": 23157, "isUnique": 1, "field_11": null }, "geometry": { "type": "Point", "coordinates": [ 92.39879, 22.87143 ] } },
{ "type": "Feature", "properties": { "inst_name": "HARANGI PARA HIGH SCHOOL", "eiin": 107705, "inst_type": "School", "district": "RANGAMATI", "thana": "KAWKHALI (BETBUNIA)", "mauza": "KACHUKHALI", "long": 92.43836, "lat": 22.86454, "serial": 23158, "isUnique": 1, "field_11": null }, "geometry": { "type": "Point", "coordinates": [ 92.43836, 22.86454 ] } },
{ "type": "Feature", "properties": { "inst_name": "GHAGRA HIGH SCHOOL", "eiin": 107702, "inst_type": "School", "district": "RANGAMATI", "thana": "KAWKHALI (BETBUNIA)", "mauza": "GHAGRA", "long": 92.01907, "lat": 22.6927, "serial": 23159, "isUnique": 1, "field_11": null }, "geometry": { "type": "Point", "coordinates": [ 92.01907, 22.6927 ] } },
{ "type": "Feature", "properties": { "inst_name": "BETBUNIA HIGH SCHOOL", "eiin": 107703, "inst_type": "School", "district": "RANGAMATI", "thana": "KAWKHALI (BETBUNIA)", "mauza": "BETBUNIA", "long": 92.04455, "lat": 22.64286, "serial": 23160, "isUnique": 1, "field_11": null }, "geometry": { "type": "Point", "coordinates": [ 92.04455, 22.64286 ] } },
{ "type": "Feature", "properties": { "inst_name": "KHASKALI JU SAHOOL", "eiin": 107709, "inst_type": "School", "district": "RANGAMATI", "thana": "KAWKHALI (BETBUNIA)", "mauza": "KASKHALI", "long": 92.06594, "lat": 22.63869, "serial": 23161, "isUnique": 1, "field_11": null }, "geometry": { "type": "Point", "coordinates": [ 92.06594, 22.63869 ] } },
{ "type": "Feature", "properties": { "inst_name": "DABUA BARIKHA BHANU PUR HIGH SCHOOL", "eiin": 107700, "inst_type": "School", "district": "RANGAMATI", "thana": "KAWKHALI (BETBUNIA)", "mauza": "DABBUA", "long": 92.038, "lat": 22.62368, "serial": 23162, "isUnique": 1, "field_11": null }, "geometry": { "type": "Point", "coordinates": [ 92.038, 22.62368 ] } },
{ "type": "Feature", "properties": { "inst_name": "TALUKDeRPARA JU SCHOOL", "eiin": 107710, "inst_type": "School", "district": "RANGAMATI", "thana": "KAWKHALI (BETBUNIA)", "mauza": "GHILA CHHARI", "long": 92.11202, "lat": 22.62194, "serial": 23163, "isUnique": 1, "field_11": null }, "geometry": { "type": "Point", "coordinates": [ 92.11202, 22.62194 ] } },
{ "type": "Feature", "properties": { "inst_name": "NAILLACHARI JUNIOR  HIGH SCHOOL", "eiin": 107708, "inst_type": "School", "district": "RANGAMATI", "thana": "KAWKHALI (BETBUNIA)", "mauza": "KALAMPATI", "long": 92.00553, "lat": 22.54383, "serial": 23164, "isUnique": 1, "field_11": null }, "geometry": { "type": "Point", "coordinates": [ 92.00553, 22.54383 ] } },
{ "type": "Feature", "properties": { "inst_name": "GHAGRA GIRLS  HIGH SCHOOL", "eiin": 107711, "inst_type": "School", "district": "RANGAMATI", "thana": "KAWKHALI (BETBUNIA)", "mauza": "GHAGRA", "long": 92.00351, "lat": 22.54505, "serial": 23165, "isUnique": 1, "field_11": null }, "geometry": { "type": "Point", "coordinates": [ 92.00351, 22.54505 ] } },
{ "type": "Feature", "properties": { "inst_name": "KARALLYA CHARY R.S.HIGH SCHOOL", "eiin": 107748, "inst_type": "School", "district": "RANGAMATI", "thana": "LANGADU  UPAZILA", "mauza": "ATARAK CHHARA", "long": 92.07127, "lat": 22.63581, "serial": 23166, "isUnique": 1, "field_11": null }, "geometry": { "type": "Point", "coordinates": [ 92.07127, 22.63581 ] } },
{ "type": "Feature", "properties": { "inst_name": "VAShANNYA ADAM ISLAMI HIGH SCHOOL", "eiin": 107744, "inst_type": "School", "district": "RANGAMATI", "thana": "LANGADU  UPAZILA", "mauza": "BHASANYA ADAM", "long": 92.1079, "lat": 22.60887, "serial": 23167, "isUnique": 1, "field_11": null }, "geometry": { "type": "Point", "coordinates": [ 92.1079, 22.60887 ] } },
{ "type": "Feature", "properties": { "inst_name": "UGAL CHARI MOHAJAN PARA HIGH SCHOOL", "eiin": 107745, "inst_type": "School", "district": "RANGAMATI", "thana": "LANGADU  UPAZILA", "mauza": "BAGAHACHATTAR", "long": 92.00181, "lat": 22.54317, "serial": 23168, "isUnique": 1, "field_11": null }, "geometry": { "type": "Point", "coordinates": [ 92.00181, 22.54317 ] } },
{ "type": "Feature", "properties": { "inst_name": "GULSHAKHALI ADARSHA HIGH SCHOOL", "eiin": 107749, "inst_type": "School", "district": "RANGAMATI", "thana": "LANGADU  UPAZILA", "mauza": "GULSHAKHALI", "long": 92.00851, "lat": 22.54323, "serial": 23169, "isUnique": 1, "field_11": null }, "geometry": { "type": "Point", "coordinates": [ 92.00851, 22.54323 ] } },
{ "type": "Feature", "properties": { "inst_name": "KALA PAKUJJA SENA MOITRI ADARSHA high  SCHOOL", "eiin": 107755, "inst_type": "School", "district": "RANGAMATI", "thana": "LANGADU  UPAZILA", "mauza": "KALAPAKURJYA", "long": 92.10469, "lat": 22.60317, "serial": 23170, "isUnique": 1, "field_11": null }, "geometry": { "type": "Point", "coordinates": [ 92.10469, 22.60317 ] } },
{ "type": "Feature", "properties": { "inst_name": "MOHAL CHARI JUNIOR HIGH SCHOOL", "eiin": 107754, "inst_type": "School", "district": "RANGAMATI", "thana": "LANGADU  UPAZILA", "mauza": "BARA KATTALI", "long": 92.2653, "lat": 22.88941, "serial": 23171, "isUnique": 1, "field_11": null }, "geometry": { "type": "Point", "coordinates": [ 92.2653, 22.88941 ] } },
{ "type": "Feature", "properties": { "inst_name": "KATTALI HIGH SCHOOL", "eiin": 107747, "inst_type": "School", "district": "RANGAMATI", "thana": "LANGADU  UPAZILA", "mauza": "BARA KATTALI", "long": 92.18247, "lat": 22.90307, "serial": 23172, "isUnique": 1, "field_11": null }, "geometry": { "type": "Point", "coordinates": [ 92.18247, 22.90307 ] } },
{ "type": "Feature", "properties": { "inst_name": "LONGADU GOVT HIGH SCHOOL", "eiin": 107746, "inst_type": "School", "district": "RANGAMATI", "thana": "LANGADU  UPAZILA", "mauza": "LANGADU", "long": 92.17901, "lat": 22.91025, "serial": 23173, "isUnique": 1, "field_11": null }, "geometry": { "type": "Point", "coordinates": [ 92.17901, 22.91025 ] } },
{ "type": "Feature", "properties": { "inst_name": "LANGADU GIRLS HIGH SCHOOL", "eiin": 107752, "inst_type": "School", "district": "RANGAMATI", "thana": "LANGADU  UPAZILA", "mauza": "MAYANI MUKH", "long": 92.20336, "lat": 22.96371, "serial": 23174, "isUnique": 1, "field_11": null }, "geometry": { "type": "Point", "coordinates": [ 92.20336, 22.96371 ] } },
{ "type": "Feature", "properties": { "inst_name": "MAINIMUKH MODEL HIGH SCHOOL", "eiin": 107750, "inst_type": "School", "district": "RANGAMATI", "thana": "LANGADU  UPAZILA", "mauza": "MAYANI MUKH", "long": 92.20007, "lat": 22.9675, "serial": 23175, "isUnique": 1, "field_11": null }, "geometry": { "type": "Point", "coordinates": [ 92.20007, 22.9675 ] } },
{ "type": "Feature", "properties": { "inst_name": "RABITA MODEL HIGH SCHOOL", "eiin": 107751, "inst_type": "School", "district": "RANGAMATI", "thana": "LANGADU  UPAZILA", "mauza": "MAYANI MUKH", "long": 92.26038, "lat": 22.98274, "serial": 23176, "isUnique": 1, "field_11": null }, "geometry": { "type": "Point", "coordinates": [ 92.26038, 22.98274 ] } },
{ "type": "Feature", "properties": { "inst_name": "UTTAR YEARING CHARI SENA MOITRI  JUNIOR  HIGH SCHOOL", "eiin": 107758, "inst_type": "School", "district": "RANGAMATI", "thana": "LANGADU  UPAZILA", "mauza": "YEARING CHARI", "long": 92.20899, "lat": 22.98402, "serial": 23177, "isUnique": 1, "field_11": null }, "geometry": { "type": "Point", "coordinates": [ 92.20899, 22.98402 ] } },
{ "type": "Feature", "properties": { "inst_name": "GHANMORE SENA MOITREE JUNIOR HIGH SCHOOL", "eiin": 107757, "inst_type": "School", "district": "RANGAMATI", "thana": "LANGADU  UPAZILA", "mauza": "GHANAMORA", "long": 92.22447, "lat": 23.05818, "serial": 23178, "isUnique": 1, "field_11": null }, "geometry": { "type": "Point", "coordinates": [ 92.22447, 23.05818 ] } },
{ "type": "Feature", "properties": { "inst_name": "RANGAMATI GOVERNMENT HIGH SCHOOL", "eiin": 107795, "inst_type": "School", "district": "RANGAMATI", "thana": "RANGAMATI SADAR  UP", "mauza": "POLICE LINE", "long": 92.20413, "lat": 22.96555, "serial": 23179, "isUnique": 1, "field_11": null }, "geometry": { "type": "Point", "coordinates": [ 92.20413, 22.96555 ] } },
{ "type": "Feature", "properties": { "inst_name": "SHAHEED ABDUL ALI ACADEMY", "eiin": 107798, "inst_type": "School", "district": "RANGAMATI", "thana": "RANGAMATI SADAR  UP", "mauza": "RESERVE BAZAR (PART-2)", "long": 92.21034, "lat": 22.9825, "serial": 23180, "isUnique": 1, "field_11": null }, "geometry": { "type": "Point", "coordinates": [ 92.21034, 22.9825 ] } },
{ "type": "Feature", "properties": { "inst_name": "RANI DAYAMoYEE HIGH SCHOOL", "eiin": 107794, "inst_type": "School", "district": "RANGAMATI", "thana": "RANGAMATI SADAR  UP", "mauza": "RAJBARI", "long": 92.14486, "lat": 23.07314, "serial": 23181, "isUnique": 1, "field_11": null }, "geometry": { "type": "Point", "coordinates": [ 92.14486, 23.07314 ] } },
{ "type": "Feature", "properties": { "inst_name": "SHAH BOHUMUKHI HIGH SCHOOL", "eiin": 107793, "inst_type": "School", "district": "RANGAMATI", "thana": "RANGAMATI SADAR  UP", "mauza": "DSB COLONY", "long": 92.11398, "lat": 23.05939, "serial": 23182, "isUnique": 1, "field_11": null }, "geometry": { "type": "Point", "coordinates": [ 92.11398, 23.05939 ] } },
{ "type": "Feature", "properties": { "inst_name": "MOANOGHAR RESIDNTIAL HIGH SCHOOL", "eiin": 107792, "inst_type": "School", "district": "RANGAMATI", "thana": "RANGAMATI SADAR  UP", "mauza": "RANGAPANI", "long": 92.16843, "lat": 23.01586, "serial": 23183, "isUnique": 1, "field_11": null }, "geometry": { "type": "Point", "coordinates": [ 92.16843, 23.01586 ] } },
{ "type": "Feature", "properties": { "inst_name": "MUZADDED-E-ALFESANI ACADEMY HIGH SCHOOL", "eiin": 107802, "inst_type": "School", "district": "RANGAMATI", "thana": "RANGAMATI SADAR  UP", "mauza": "BANARUPA", "long": 92.18907, "lat": 22.76561, "serial": 23184, "isUnique": 1, "field_11": null }, "geometry": { "type": "Point", "coordinates": [ 92.18907, 22.76561 ] } },
{ "type": "Feature", "properties": { "inst_name": "OMDAMIA HILL POURA JUNIOR HIGH SCHOOL", "eiin": 107790, "inst_type": "School", "district": "RANGAMATI", "thana": "RANGAMATI SADAR  UP", "mauza": "OMDAMIA PAHAR", "long": 92.18434, "lat": 22.55618, "serial": 23185, "isUnique": 1, "field_11": null }, "geometry": { "type": "Point", "coordinates": [ 92.18434, 22.55618 ] } },
{ "type": "Feature", "properties": { "inst_name": "RANGAMATI GOVT GIRLS HIGH SCHOOL", "eiin": 107797, "inst_type": "School", "district": "RANGAMATI", "thana": "RANGAMATI SADAR  UP", "mauza": "MASTER COLONY", "long": 92.19696, "lat": 22.64823, "serial": 23186, "isUnique": 1, "field_11": null }, "geometry": { "type": "Point", "coordinates": [ 92.19696, 22.64823 ] } },
{ "type": "Feature", "properties": { "inst_name": "BANDHUK BHANGA HIGH SCHOOL", "eiin": 107805, "inst_type": "School", "district": "RANGAMATI", "thana": "RANGAMATI SADAR  UP", "mauza": "BANDUK BHANGA", "long": 92.19792, "lat": 22.64589, "serial": 23187, "isUnique": 1, "field_11": null }, "geometry": { "type": "Point", "coordinates": [ 92.19792, 22.64589 ] } },
{ "type": "Feature", "properties": { "inst_name": "KHARIKHYONG HIGH SCHOOL", "eiin": 107799, "inst_type": "School", "district": "RANGAMATI", "thana": "RANGAMATI SADAR  UP", "mauza": "BANDUK BHANGA", "long": 92.19891, "lat": 22.64518, "serial": 23188, "isUnique": 1, "field_11": null }, "geometry": { "type": "Point", "coordinates": [ 92.19891, 22.64518 ] } },
{ "type": "Feature", "properties": { "inst_name": "MASCHYAPARA HIGH SCHOOL", "eiin": 107803, "inst_type": "School", "district": "RANGAMATI", "thana": "RANGAMATI SADAR  UP", "mauza": "BANDUK BHANGA", "long": 92.18744, "lat": 22.64163, "serial": 23189, "isUnique": 1, "field_11": null }, "geometry": { "type": "Point", "coordinates": [ 92.18744, 22.64163 ] } },
{ "type": "Feature", "properties": { "inst_name": "BADAL CHARI JUnIOR SCHOOL", "eiin": 107808, "inst_type": "School", "district": "RANGAMATI", "thana": "RANGAMATI SADAR  UP", "mauza": "KAINDYA", "long": 92.18011, "lat": 22.65257, "serial": 23190, "isUnique": 1, "field_11": null }, "geometry": { "type": "Point", "coordinates": [ 92.18011, 22.65257 ] } },
{ "type": "Feature", "properties": { "inst_name": "BASANTA JUNIOR HIGH SCHOOL", "eiin": 107804, "inst_type": "School", "district": "RANGAMATI", "thana": "RANGAMATI SADAR  UP", "mauza": "KAINDYA", "long": 92.15866, "lat": 22.65139, "serial": 23191, "isUnique": 1, "field_11": null }, "geometry": { "type": "Point", "coordinates": [ 92.15866, 22.65139 ] } },
{ "type": "Feature", "properties": { "inst_name": "TAIMIDONG JUNIOR HIGH SCHOOL", "eiin": 107807, "inst_type": "School", "district": "RANGAMATI", "thana": "RANGAMATI SADAR  UP", "mauza": "TAIMIDANG", "long": 92.18243, "lat": 22.64904, "serial": 23192, "isUnique": 1, "field_11": null }, "geometry": { "type": "Point", "coordinates": [ 92.18243, 22.64904 ] } },
{ "type": "Feature", "properties": { "inst_name": "BARA MOHAPURAM HIGH SCHOOL", "eiin": 107800, "inst_type": "School", "district": "RANGAMATI", "thana": "RANGAMATI SADAR  UP", "mauza": "DALU CHHARI", "long": 92.18725, "lat": 22.71279, "serial": 23193, "isUnique": 1, "field_11": null }, "geometry": { "type": "Point", "coordinates": [ 92.18725, 22.71279 ] } },
{ "type": "Feature", "properties": { "inst_name": "BARADAM SURBALA SMRITI BIDYAPITH", "eiin": 107801, "inst_type": "School", "district": "RANGAMATI", "thana": "RANGAMATI SADAR  UP", "mauza": "BARADAM (KARNAFULI", "long": 92.16464, "lat": 22.63121, "serial": 23194, "isUnique": 1, "field_11": null }, "geometry": { "type": "Point", "coordinates": [ 92.16464, 22.63121 ] } },
{ "type": "Feature", "properties": { "inst_name": "SHAPCHARI HIGH SCHOOL", "eiin": 107791, "inst_type": "School", "district": "RANGAMATI", "thana": "RANGAMATI SADAR  UP", "mauza": "SAPCHHARI", "long": 92.16652, "lat": 22.66905, "serial": 23195, "isUnique": 1, "field_11": null }, "geometry": { "type": "Point", "coordinates": [ 92.16652, 22.66905 ] } },
{ "type": "Feature", "properties": { "inst_name": "CHONGRA CHARI JUNIOR HIGH SCHOOL", "eiin": 107809, "inst_type": "School", "district": "RANGAMATI", "thana": "RANGAMATI SADAR  UP", "mauza": "BANDUK BHANGA", "long": 92.1835, "lat": 22.64667, "serial": 23196, "isUnique": 1, "field_11": null }, "geometry": { "type": "Point", "coordinates": [ 92.1835, 22.64667 ] } },
{ "type": "Feature", "properties": { "inst_name": "KAINDYA DOUZAREE PARA JUNIOR HIGH SCHOOL", "eiin": 107811, "inst_type": "School", "district": "RANGAMATI", "thana": "RANGAMATI SADAR  UP", "mauza": "KAINDYA", "long": 92.18457, "lat": 22.65021, "serial": 23197, "isUnique": 1, "field_11": null }, "geometry": { "type": "Point", "coordinates": [ 92.18457, 22.65021 ] } },
{ "type": "Feature", "properties": { "inst_name": "TRIPURA CHARA JUNIOR HIGH SCHOOL", "eiin": 107810, "inst_type": "School", "district": "RANGAMATI", "thana": "RANGAMATI SADAR  UP", "mauza": "BANDUK BHANGA", "long": 92.17333, "lat": 22.65432, "serial": 23198, "isUnique": 1, "field_11": null }, "geometry": { "type": "Point", "coordinates": [ 92.17333, 22.65432 ] } },
{ "type": "Feature", "properties": { "inst_name": "VEDVEDEE POURA HIGH SCHOOL", "eiin": 107806, "inst_type": "School", "district": "RANGAMATI", "thana": "RANGAMATI SADAR  UP", "mauza": "RANGAPANI", "long": 92.15991, "lat": 22.64928, "serial": 23199, "isUnique": 1, "field_11": null }, "geometry": { "type": "Point", "coordinates": [ 92.15991, 22.64928 ] } },
{ "type": "Feature", "properties": { "inst_name": "KARNAPHULI PAPER MILLS HIGH SCHOOL & COLLEGE", "eiin": 107739, "inst_type": "School and College", "district": "RANGAMATI", "thana": "KAPTAI  UPAZILA", "mauza": "CHANDRAGHONA", "long": 92.40812, "lat": 22.36038, "serial": 26316, "isUnique": 1, "field_11": null }, "geometry": { "type": "Point", "coordinates": [ 92.40812, 22.36038 ] } }
]
}
