{
"type": "FeatureCollection",
"crs": { "type": "name", "properties": { "name": "urn:ogc:def:crs:OGC:1.3:CRS84" } },
"features": [
{ "type": "Feature", "properties": { "inst name": "THAKURGAON GOVT COLLEGE. THAKURGAON", "eiin": 129305, "inst_type": "College", "district": "THAKURGAON", "thana": "THAKURGAON SADAR", "mauza": "GOBINDANAGAR (PART)", "long": 88.452805, "lat": 26.039427, "serial": 2296, "isUnique": 1, "field_11": null, "field_12": null }, "geometry": { "type": "Point", "coordinates": [ 88.452805, 26.039427 ] } },
{ "type": "Feature", "properties": { "inst name": "GAREYA DRGREE COLLEGE", "eiin": 129310, "inst_type": "College", "district": "THAKURGAON", "thana": "THAKURGAON SADAR", "mauza": "GAREYA GOPALPUR", "long": 88.580002, "lat": 26.05106, "serial": 2297, "isUnique": 1, "field_11": null, "field_12": null }, "geometry": { "type": "Point", "coordinates": [ 88.580002, 26.05106 ] } },
{ "type": "Feature", "properties": { "inst name": "PIRGANJ GOVT. COLLEGE", "eiin": 128965, "inst_type": "College", "district": "THAKURGAON", "thana": "PIRGANJ", "mauza": "JAGTHA PURBA(PART)", "long": 88.359665, "lat": 25.86647, "serial": 2298, "isUnique": 1, "field_11": null, "field_12": null }, "geometry": { "type": "Point", "coordinates": [ 88.359665, 25.86647 ] } },
{ "type": "Feature", "properties": { "inst name": "HARIPUR ADARSHA WOMENS COLLEGE", "eiin": 128854, "inst_type": "College", "district": "THAKURGAON", "thana": "HARIPUR", "mauza": "DEHATTA", "long": 88.13472, "lat": 25.80889, "serial": 2299, "isUnique": 1, "field_11": null, "field_12": null }, "geometry": { "type": "Point", "coordinates": [ 88.13472, 25.80889 ] } },
{ "type": "Feature", "properties": { "inst name": "JADURANI ADARSHA COLLEGE", "eiin": 128850, "inst_type": "College", "district": "THAKURGAON", "thana": "HARIPUR", "mauza": "SIALLAR", "long": 88.194, "lat": 25.88442, "serial": 2300, "isUnique": 1, "field_11": null, "field_12": null }, "geometry": { "type": "Point", "coordinates": [ 88.194, 25.88442 ] } },
{ "type": "Feature", "properties": { "inst name": "JADU RANI COLLEGE", "eiin": 128851, "inst_type": "College", "district": "THAKURGAON", "thana": "HARIPUR", "mauza": "NANDAGAON", "long": 88.17317, "lat": 25.88928, "serial": 2301, "isUnique": 1, "field_11": null, "field_12": null }, "geometry": { "type": "Point", "coordinates": [ 88.17317, 25.88928 ] } },
{ "type": "Feature", "properties": { "inst name": "KATHAL DANGI MOHILA COLLEGE", "eiin": 128852, "inst_type": "College", "district": "THAKURGAON", "thana": "HARIPUR", "mauza": "CHAPASAR", "long": 88.1855, "lat": 25.84711, "serial": 2302, "isUnique": 1, "field_11": null, "field_12": null }, "geometry": { "type": "Point", "coordinates": [ 88.1855, 25.84711 ] } },
{ "type": "Feature", "properties": { "inst name": "K B DEGREE COLLEGE", "eiin": 128849, "inst_type": "College", "district": "THAKURGAON", "thana": "HARIPUR", "mauza": "TENGARIA", "long": 88.19697, "lat": 25.82314, "serial": 2303, "isUnique": 1, "field_11": null, "field_12": null }, "geometry": { "type": "Point", "coordinates": [ 88.19697, 25.82314 ] } },
{ "type": "Feature", "properties": { "inst name": "DAMOL IDEAL COLLEGE", "eiin": 128855, "inst_type": "College", "district": "THAKURGAON", "thana": "HARIPUR", "mauza": "DAMOL", "long": 88.12294, "lat": 25.84336, "serial": 2304, "isUnique": 1, "field_11": null, "field_12": null }, "geometry": { "type": "Point", "coordinates": [ 88.12294, 25.84336 ] } },
{ "type": "Feature", "properties": { "inst name": "HARIPUR WOMENS COLLEGE", "eiin": 128853, "inst_type": "College", "district": "THAKURGAON", "thana": "HARIPUR", "mauza": "DANGI PARA", "long": 88.13094, "lat": 25.8475, "serial": 2305, "isUnique": 1, "field_11": null, "field_12": null }, "geometry": { "type": "Point", "coordinates": [ 88.13094, 25.8475 ] } },
{ "type": "Feature", "properties": { "inst name": "BANGLAGAR COLLEGE", "eiin": 129074, "inst_type": "College", "district": "THAKURGAON", "thana": "RANISANKAIL", "mauza": "BAHER PARA", "long": 88.14886, "lat": 25.81647, "serial": 2306, "isUnique": 1, "field_11": null, "field_12": null }, "geometry": { "type": "Point", "coordinates": [ 88.14886, 25.81647 ] } },
{ "type": "Feature", "properties": { "inst name": "RANISONKAIL DEGREE COLLEGE", "eiin": 129071, "inst_type": "College", "district": "THAKURGAON", "thana": "RANISANKAIL", "mauza": "BHANDARA", "long": 88.16842, "lat": 25.80583, "serial": 2307, "isUnique": 1, "field_11": null, "field_12": null }, "geometry": { "type": "Point", "coordinates": [ 88.16842, 25.80583 ] } },
{ "type": "Feature", "properties": { "inst name": "RANISONKAIL WOMENS DEGREE COLLEGE", "eiin": 129070, "inst_type": "College", "district": "THAKURGAON", "thana": "RANISANKAIL", "mauza": "BANSHBARI", "long": 88.25814, "lat": 25.93286, "serial": 2308, "isUnique": 1, "field_11": null, "field_12": null }, "geometry": { "type": "Point", "coordinates": [ 88.25814, 25.93286 ] } },
{ "type": "Feature", "properties": { "inst name": "GOGOR COLLEGE", "eiin": 131940, "inst_type": "College", "district": "THAKURGAON", "thana": "RANISANKAIL", "mauza": "GOGAR", "long": 88.28092, "lat": 25.87625, "serial": 2309, "isUnique": 1, "field_11": null, "field_12": null }, "geometry": { "type": "Point", "coordinates": [ 88.28092, 25.87625 ] } },
{ "type": "Feature", "properties": { "inst name": "GAZIRHAT  COLLEGE", "eiin": 129073, "inst_type": "College", "district": "THAKURGAON", "thana": "RANISANKAIL", "mauza": "GAJIHAT", "long": 88.22494, "lat": 25.94664, "serial": 2310, "isUnique": 1, "field_11": null, "field_12": null }, "geometry": { "type": "Point", "coordinates": [ 88.22494, 25.94664 ] } },
{ "type": "Feature", "properties": { "inst name": "RAMPUR COLLEGE", "eiin": 131942, "inst_type": "College", "district": "THAKURGAON", "thana": "RANISANKAIL", "mauza": "RAMPUR", "long": 88.20764, "lat": 25.92083, "serial": 2311, "isUnique": 1, "field_11": null, "field_12": null }, "geometry": { "type": "Point", "coordinates": [ 88.20764, 25.92083 ] } },
{ "type": "Feature", "properties": { "inst name": "NEKMORD BANGA BONDHU COLLEGE", "eiin": 129072, "inst_type": "College", "district": "THAKURGAON", "thana": "RANISANKAIL", "mauza": "GANDAGRAM", "long": 88.21022, "lat": 25.88456, "serial": 2312, "isUnique": 1, "field_11": null, "field_12": null }, "geometry": { "type": "Point", "coordinates": [ 88.21022, 25.88456 ] } },
{ "type": "Feature", "properties": { "inst name": "SALANDAR WOMEN'S COLLEGE", "eiin": 131995, "inst_type": "College", "district": "THAKURGAON", "thana": "THAKURGAON SADAR", "mauza": "SALANDER (PART)", "long": 88.60153, "lat": 26.11719, "serial": 2313, "isUnique": 1, "field_11": null, "field_12": null }, "geometry": { "type": "Point", "coordinates": [ 88.60153, 26.11719 ] } },
{ "type": "Feature", "properties": { "inst name": "ABUL HOSSAIN SARKER COLLEGE", "eiin": 129306, "inst_type": "College", "district": "THAKURGAON", "thana": "THAKURGAON SADAR", "mauza": "BARUNAGAON", "long": 88.64011, "lat": 26.08822, "serial": 2314, "isUnique": 1, "field_11": null, "field_12": null }, "geometry": { "type": "Point", "coordinates": [ 88.64011, 26.08822 ] } },
{ "type": "Feature", "properties": { "inst name": "RUHEA DEGREE COLLEGE", "eiin": 129304, "inst_type": "College", "district": "THAKURGAON", "thana": "THAKURGAON SADAR", "mauza": "GHANI BISHNUPUR", "long": 88.49619, "lat": 26.02961, "serial": 2315, "isUnique": 1, "field_11": null, "field_12": null }, "geometry": { "type": "Point", "coordinates": [ 88.49619, 26.02961 ] } },
{ "type": "Feature", "properties": { "inst name": "GINNIDEBI AGAR WAL MAHILA COLLEGE", "eiin": 129314, "inst_type": "College", "district": "THAKURGAON", "thana": "THAKURGAON SADAR", "mauza": "MADHUPUR", "long": 88.46781, "lat": 26.07458, "serial": 2316, "isUnique": 1, "field_11": null, "field_12": null }, "geometry": { "type": "Point", "coordinates": [ 88.46781, 26.07458 ] } },
{ "type": "Feature", "properties": { "inst name": "SHIBGANJ DEGREE COLLEGE", "eiin": 129313, "inst_type": "College", "district": "THAKURGAON", "thana": "THAKURGAON SADAR", "mauza": "PARPUGI", "long": 88.46106, "lat": 25.99128, "serial": 2317, "isUnique": 1, "field_11": null, "field_12": null }, "geometry": { "type": "Point", "coordinates": [ 88.46106, 25.99128 ] } },
{ "type": "Feature", "properties": { "inst name": "THAKURGAON NEW MODEL COLLEGE", "eiin": 129316, "inst_type": "College", "district": "THAKURGAON", "thana": "THAKURGAON SADAR", "mauza": "DODA PARA", "long": 88.39392, "lat": 25.95456, "serial": 2318, "isUnique": 1, "field_11": null, "field_12": null }, "geometry": { "type": "Point", "coordinates": [ 88.39392, 25.95456 ] } },
{ "type": "Feature", "properties": { "inst name": "PIRGANG ADARSHA MOHABIDDAROY", "eiin": 128973, "inst_type": "College", "district": "THAKURGAON", "thana": "PIRGANJ", "mauza": "BHELATAIR DAKSHIN", "long": 88.44903, "lat": 25.89064, "serial": 2319, "isUnique": 2, "field_11": null, "field_12": null }, "geometry": { "type": "Point", "coordinates": [ 88.44903, 25.89064 ] } },
{ "type": "Feature", "properties": { "inst name": "JABORHAT degree COLLEGE", "eiin": 128966, "inst_type": "College", "district": "THAKURGAON", "thana": "PIRGANJ", "mauza": "KALIJUG", "long": 88.36125, "lat": 25.73039, "serial": 2322, "isUnique": 2, "field_11": null, "field_12": null }, "geometry": { "type": "Point", "coordinates": [ 88.36125, 25.73039 ] } },
{ "type": "Feature", "properties": { "inst name": "BANSHGARA IDEAL COLLEGE", "eiin": 128972, "inst_type": "College", "district": "THAKURGAON", "thana": "PIRGANJ", "mauza": "BANSHGARA", "long": 88.31642, "lat": 25.81667, "serial": 2324, "isUnique": 1, "field_11": null, "field_12": null }, "geometry": { "type": "Point", "coordinates": [ 88.31642, 25.81667 ] } },
{ "type": "Feature", "properties": { "inst name": "NAWDANGA COLLEGE", "eiin": 128974, "inst_type": "College", "district": "THAKURGAON", "thana": "PIRGANJ", "mauza": "NAODANGA", "long": 88.36381, "lat": 25.913, "serial": 2325, "isUnique": 1, "field_11": null, "field_12": null }, "geometry": { "type": "Point", "coordinates": [ 88.36381, 25.913 ] } },
{ "type": "Feature", "properties": { "inst name": "CHANDARIA DEGREE COLLEGE", "eiin": 128969, "inst_type": "College", "district": "THAKURGAON", "thana": "PIRGANJ", "mauza": "CHANDARIA", "long": 88.33322, "lat": 25.95181, "serial": 2326, "isUnique": 2, "field_11": null, "field_12": null }, "geometry": { "type": "Point", "coordinates": [ 88.33322, 25.95181 ] } },
{ "type": "Feature", "properties": { "inst name": "HAJIPUR COLLEGE", "eiin": 128971, "inst_type": "College", "district": "THAKURGAON", "thana": "PIRGANJ", "mauza": "KRISHNAPUR", "long": 88.29853, "lat": 25.85769, "serial": 2330, "isUnique": 1, "field_11": null, "field_12": null }, "geometry": { "type": "Point", "coordinates": [ 88.29853, 25.85769 ] } },
{ "type": "Feature", "properties": { "inst name": "LOHAGARA MOHAVIDDALAYA", "eiin": 128970, "inst_type": "College", "district": "THAKURGAON", "thana": "PIRGANJ", "mauza": "CHANDPUR", "long": 88.40633, "lat": 25.957, "serial": 2332, "isUnique": 2, "field_11": null, "field_12": null }, "geometry": { "type": "Point", "coordinates": [ 88.40633, 25.957 ] } },
{ "type": "Feature", "properties": { "inst name": "D. N. DEGREE COLLEGE", "eiin": 128967, "inst_type": "College", "district": "THAKURGAON", "thana": "PIRGANJ", "mauza": "DURGAPUR", "long": 88.37672, "lat": 25.92583, "serial": 2333, "isUnique": 2, "field_11": null, "field_12": null }, "geometry": { "type": "Point", "coordinates": [ 88.37672, 25.92583 ] } },
{ "type": "Feature", "properties": { "inst name": "SALANDAR DEGREE COLLEGE", "eiin": 129307, "inst_type": "College", "district": "THAKURGAON", "thana": "THAKURGAON SADAR", "mauza": "SALANDER (PART)", "long": 88.48969, "lat": 26.07486, "serial": 2335, "isUnique": 1, "field_11": null, "field_12": null }, "geometry": { "type": "Point", "coordinates": [ 88.48969, 26.07486 ] } },
{ "type": "Feature", "properties": { "inst name": "THAKURGAON GOVT. MOHILA COLLEGE", "eiin": 129308, "inst_type": "College", "district": "THAKURGAON", "thana": "THAKURGAON SADAR", "mauza": "HAJI PARA", "long": 88.50533, "lat": 26.05408, "serial": 2336, "isUnique": 1, "field_11": null, "field_12": null }, "geometry": { "type": "Point", "coordinates": [ 88.50533, 26.05408 ] } },
{ "type": "Feature", "properties": { "inst name": "THAKURGAON ROAD COLLEGE", "eiin": 129309, "inst_type": "College", "district": "THAKURGAON", "thana": "THAKURGAON SADAR", "mauza": "HARIHARPUR (PART)", "long": 88.429, "lat": 26.04083, "serial": 2337, "isUnique": 1, "field_11": null, "field_12": null }, "geometry": { "type": "Point", "coordinates": [ 88.429, 26.04083 ] } },
{ "type": "Feature", "properties": { "inst name": "ABDUR RASHID DEGREE COLLEGE", "eiin": 129312, "inst_type": "College", "district": "THAKURGAON", "thana": "THAKURGAON SADAR", "mauza": "DAKSHIN BATINA", "long": 88.42747, "lat": 26.09189, "serial": 2338, "isUnique": 1, "field_11": null, "field_12": null }, "geometry": { "type": "Point", "coordinates": [ 88.42747, 26.09189 ] } },
{ "type": "Feature", "properties": { "inst name": "BHULLY DEGREE COLLEGE", "eiin": 129311, "inst_type": "College", "district": "THAKURGAON", "thana": "THAKURGAON SADAR", "mauza": "CHHOTA BALIA", "long": 88.51086, "lat": 26.14569, "serial": 2339, "isUnique": 1, "field_11": null, "field_12": null }, "geometry": { "type": "Point", "coordinates": [ 88.51086, 26.14569 ] } },
{ "type": "Feature", "properties": { "inst name": "SHAHID AKBAR ALI  SCIENCE AND TECHNOLOGY  COLLEGE", "eiin": 128770, "inst_type": "College", "district": "THAKURGAON", "thana": "BALIADANGI", "mauza": "BARABARI", "long": 88.19156, "lat": 26.11714, "serial": 2340, "isUnique": 1, "field_11": null, "field_12": null }, "geometry": { "type": "Point", "coordinates": [ 88.19156, 26.11714 ] } },
{ "type": "Feature", "properties": { "inst name": "SAMIRUDDIN SMRITI COLLEGE", "eiin": 128768, "inst_type": "College", "district": "THAKURGAON", "thana": "BALIADANGI", "mauza": "DUOSUO", "long": 88.25625, "lat": 26.06681, "serial": 2341, "isUnique": 1, "field_11": null, "field_12": null }, "geometry": { "type": "Point", "coordinates": [ 88.25625, 26.06681 ] } },
{ "type": "Feature", "properties": { "inst name": "LAHIRI DEGREE COLLEGE", "eiin": 128769, "inst_type": "College", "district": "THAKURGAON", "thana": "BALIADANGI", "mauza": "JAUNIA", "long": 88.24592, "lat": 26.14942, "serial": 2342, "isUnique": 1, "field_11": null, "field_12": null }, "geometry": { "type": "Point", "coordinates": [ 88.24592, 26.14942 ] } },
{ "type": "Feature", "properties": { "inst name": "HARIPUR ALIM MADRASHA", "eiin": 128836, "inst_type": "Madrasha", "district": "THAKURGAON", "thana": "HARIPUR", "mauza": "HARIPUR", "long": 89.64356, "lat": 25.79197, "serial": 10209, "isUnique": 1, "field_11": null, "field_12": null }, "geometry": { "type": "Point", "coordinates": [ 89.64356, 25.79197 ] } },
{ "type": "Feature", "properties": { "inst name": "TORRA YUSUFIA DAKHIL MADRASHA", "eiin": 128838, "inst_type": "Madrasha", "district": "THAKURGAON", "thana": "HARIPUR", "mauza": "TORRA", "long": 88.12542, "lat": 25.82958, "serial": 10210, "isUnique": 1, "field_11": null, "field_12": null }, "geometry": { "type": "Point", "coordinates": [ 88.12542, 25.82958 ] } },
{ "type": "Feature", "properties": { "inst name": "TARRA GIRLS DAKHIL MADRASA", "eiin": 128846, "inst_type": "Madrasha", "district": "THAKURGAON", "thana": "HARIPUR", "mauza": "TORRA", "long": 88.12889, "lat": 25.82989, "serial": 10211, "isUnique": 1, "field_11": null, "field_12": null }, "geometry": { "type": "Point", "coordinates": [ 88.12889, 25.82989 ] } },
{ "type": "Feature", "properties": { "inst name": "TINUA KADERIA DAKHIL MADRASHA", "eiin": 128829, "inst_type": "Madrasha", "district": "THAKURGAON", "thana": "HARIPUR", "mauza": "TINUA", "long": 88.14456, "lat": 25.82525, "serial": 10212, "isUnique": 1, "field_11": null, "field_12": null }, "geometry": { "type": "Point", "coordinates": [ 88.14456, 25.82525 ] } },
{ "type": "Feature", "properties": { "inst name": "JAMUN HAZI NOEMUDDIN DAKHIL MADRASHA", "eiin": 128837, "inst_type": "Madrasha", "district": "THAKURGAON", "thana": "HARIPUR", "mauza": "JAMUN", "long": 88.17208, "lat": 25.91389, "serial": 10213, "isUnique": 1, "field_11": null, "field_12": null }, "geometry": { "type": "Point", "coordinates": [ 88.17208, 25.91389 ] } },
{ "type": "Feature", "properties": { "inst name": "KHAMAR IDGAH DAKHIL MADRASHA", "eiin": 128833, "inst_type": "Madrasha", "district": "THAKURGAON", "thana": "HARIPUR", "mauza": "KHAMAR", "long": 88.148, "lat": 25.93164, "serial": 10214, "isUnique": 1, "field_11": null, "field_12": null }, "geometry": { "type": "Point", "coordinates": [ 88.148, 25.93164 ] } },
{ "type": "Feature", "properties": { "inst name": "BAKUA DAKHIL MADRASHA", "eiin": 128847, "inst_type": "Madrasha", "district": "THAKURGAON", "thana": "HARIPUR", "mauza": "BAKUA", "long": 88.15203, "lat": 25.87447, "serial": 10215, "isUnique": 1, "field_11": null, "field_12": null }, "geometry": { "type": "Point", "coordinates": [ 88.15203, 25.87447 ] } },
{ "type": "Feature", "properties": { "inst name": "BARAMPUR ISLAMIA DAKHIL MADRASHA", "eiin": 128839, "inst_type": "Madrasha", "district": "THAKURGAON", "thana": "HARIPUR", "mauza": "BARAMPUR", "long": 88.12872, "lat": 25.89756, "serial": 10216, "isUnique": 1, "field_11": null, "field_12": null }, "geometry": { "type": "Point", "coordinates": [ 88.12872, 25.89756 ] } },
{ "type": "Feature", "properties": { "inst name": "ASLEUDDIN PRODHAN SenIOR MADRASAH", "eiin": 128835, "inst_type": "Madrasha", "district": "THAKURGAON", "thana": "HARIPUR", "mauza": "TENGARIA", "long": 88.21161, "lat": 25.83069, "serial": 10217, "isUnique": 1, "field_11": null, "field_12": null }, "geometry": { "type": "Point", "coordinates": [ 88.21161, 25.83069 ] } },
{ "type": "Feature", "properties": { "inst name": "BIR GAR DARUL ULUM SARIFIA MADRASHA", "eiin": 128828, "inst_type": "Madrasha", "district": "THAKURGAON", "thana": "HARIPUR", "mauza": "BIRGAR", "long": 88.14522, "lat": 25.85731, "serial": 10218, "isUnique": 1, "field_11": null, "field_12": null }, "geometry": { "type": "Point", "coordinates": [ 88.14522, 25.85731 ] } },
{ "type": "Feature", "properties": { "inst name": "SHIHIPUR SHAKHAWAT DAKHOL MADRASHA", "eiin": 128831, "inst_type": "Madrasha", "district": "THAKURGAON", "thana": "HARIPUR", "mauza": "SHIHIPUR", "long": 88.16714, "lat": 25.85356, "serial": 10219, "isUnique": 1, "field_11": null, "field_12": null }, "geometry": { "type": "Point", "coordinates": [ 88.16714, 25.85356 ] } },
{ "type": "Feature", "properties": { "inst name": "GADURA MARADHAR DAKHIL MADRASHA", "eiin": 128834, "inst_type": "Madrasha", "district": "THAKURGAON", "thana": "HARIPUR", "mauza": "GEDURA KISMAT", "long": 88.14708, "lat": 25.83614, "serial": 10220, "isUnique": 1, "field_11": null, "field_12": null }, "geometry": { "type": "Point", "coordinates": [ 88.14708, 25.83614 ] } },
{ "type": "Feature", "properties": { "inst name": "GEDURA UNION CENTRAL DAKHIL MADRASHA", "eiin": 128840, "inst_type": "Madrasha", "district": "THAKURGAON", "thana": "HARIPUR", "mauza": "GEDURA KISMAT", "long": 88.14825, "lat": 25.97136, "serial": 10221, "isUnique": 1, "field_11": null, "field_12": null }, "geometry": { "type": "Point", "coordinates": [ 88.14825, 25.97136 ] } },
{ "type": "Feature", "properties": { "inst name": "BONGAON FAZIL MADRASAH", "eiin": 128832, "inst_type": "Madrasha", "district": "THAKURGAON", "thana": "HARIPUR", "mauza": "MEDINI SAGAR", "long": 88.18494, "lat": 25.94944, "serial": 10222, "isUnique": 1, "field_11": null, "field_12": null }, "geometry": { "type": "Point", "coordinates": [ 88.18494, 25.94944 ] } },
{ "type": "Feature", "properties": { "inst name": "RATOR (R) F.S. DAKHIL MADRASAH", "eiin": 129055, "inst_type": "Madrasha", "district": "THAKURGAON", "thana": "RANISANKAIL", "mauza": "RATOR", "long": 88.18069, "lat": 25.95139, "serial": 10223, "isUnique": 1, "field_11": null, "field_12": null }, "geometry": { "type": "Point", "coordinates": [ 88.18069, 25.95139 ] } },
{ "type": "Feature", "properties": { "inst name": "ABAD TAKIA MOHAMMADIA FAZIL MADRASHA", "eiin": 129044, "inst_type": "Madrasha", "district": "THAKURGAON", "thana": "RANISANKAIL", "mauza": "SAHODAR", "long": 88.15697, "lat": 25.8035, "serial": 10224, "isUnique": 1, "field_11": null, "field_12": null }, "geometry": { "type": "Point", "coordinates": [ 88.15697, 25.8035 ] } },
{ "type": "Feature", "properties": { "inst name": "RANISONKAIL DAKHIL MADRASAH", "eiin": 129057, "inst_type": "Madrasha", "district": "THAKURGAON", "thana": "RANISANKAIL", "mauza": "BHANDARA (PART)", "long": 88.25172, "lat": 25.89989, "serial": 10225, "isUnique": 1, "field_11": null, "field_12": null }, "geometry": { "type": "Point", "coordinates": [ 88.25172, 25.89989 ] } },
{ "type": "Feature", "properties": { "inst name": "VELAI DAKHIL MADRASHA", "eiin": 129061, "inst_type": "Madrasha", "district": "THAKURGAON", "thana": "RANISANKAIL", "mauza": "BHELAI", "long": 88.28678, "lat": 25.9335, "serial": 10226, "isUnique": 1, "field_11": null, "field_12": null }, "geometry": { "type": "Point", "coordinates": [ 88.28678, 25.9335 ] } },
{ "type": "Feature", "properties": { "inst name": "BHORNIA DHAKHIL MADRASHA", "eiin": 129045, "inst_type": "Madrasha", "district": "THAKURGAON", "thana": "RANISANKAIL", "mauza": "BHARNIA", "long": 88.19681, "lat": 25.96744, "serial": 10227, "isUnique": 1, "field_11": null, "field_12": null }, "geometry": { "type": "Point", "coordinates": [ 88.19681, 25.96744 ] } },
{ "type": "Feature", "properties": { "inst name": "COUNCIL HAT EIDGHA DAKHIL MADRASAH", "eiin": 129050, "inst_type": "Madrasha", "district": "THAKURGAON", "thana": "RANISANKAIL", "mauza": "CHANGMARI", "long": 88.17872, "lat": 25.98169, "serial": 10228, "isUnique": 1, "field_11": null, "field_12": null }, "geometry": { "type": "Point", "coordinates": [ 88.17872, 25.98169 ] } },
{ "type": "Feature", "properties": { "inst name": "KADIHAT BEGUN BARI DAKHIL MADRASHA", "eiin": 129058, "inst_type": "Madrasha", "district": "THAKURGAON", "thana": "RANISANKAIL", "mauza": "KADIHAT (PART)", "long": 88.18914, "lat": 25.99103, "serial": 10229, "isUnique": 1, "field_11": null, "field_12": null }, "geometry": { "type": "Point", "coordinates": [ 88.18914, 25.99103 ] } },
{ "type": "Feature", "properties": { "inst name": "C.S.  DAKHIL MADRASHA", "eiin": 129065, "inst_type": "Madrasha", "district": "THAKURGAON", "thana": "RANISANKAIL", "mauza": "CHANGMARI", "long": 88.18844, "lat": 25.97864, "serial": 10230, "isUnique": 2, "field_11": null, "field_12": null }, "geometry": { "type": "Point", "coordinates": [ 88.18844, 25.97864 ] } },
{ "type": "Feature", "properties": { "inst name": "HOSSENGAON DAKHIL MADRASAH", "eiin": 129068, "inst_type": "Madrasha", "district": "THAKURGAON", "thana": "RANISANKAIL", "mauza": "HOSSAINGAON", "long": 88.22172, "lat": 25.99914, "serial": 10231, "isUnique": 1, "field_11": null, "field_12": null }, "geometry": { "type": "Point", "coordinates": [ 88.22172, 25.99914 ] } },
{ "type": "Feature", "properties": { "inst name": "MUNSI ABDULLAH DAKHIL MADRASHA", "eiin": 129053, "inst_type": "Madrasha", "district": "THAKURGAON", "thana": "RANISANKAIL", "mauza": "SANDHARAI (PART)", "long": 88.19378, "lat": 25.96197, "serial": 10232, "isUnique": 1, "field_11": null, "field_12": null }, "geometry": { "type": "Point", "coordinates": [ 88.19378, 25.96197 ] } },
{ "type": "Feature", "properties": { "inst name": "ARAZE KISMAT SINDAGAR ALIM MADRASHA", "eiin": 129048, "inst_type": "Madrasha", "district": "THAKURGAON", "thana": "RANISANKAIL", "mauza": "KISMAT SINDAGARH", "long": 88.29186, "lat": 25.8645, "serial": 10233, "isUnique": 1, "field_11": null, "field_12": null }, "geometry": { "type": "Point", "coordinates": [ 88.29186, 25.8645 ] } },
{ "type": "Feature", "properties": { "inst name": "CHAPOR PARBATIPUR DAKHIL MADRASah", "eiin": 129059, "inst_type": "Madrasha", "district": "THAKURGAON", "thana": "RANISANKAIL", "mauza": "CHAPAR PARBATIPUR", "long": 88.25925, "lat": 25.82797, "serial": 10234, "isUnique": 1, "field_11": null, "field_12": null }, "geometry": { "type": "Point", "coordinates": [ 88.25925, 25.82797 ] } },
{ "type": "Feature", "properties": { "inst name": "GOGOR ADARSHA DAKHIL MADRASHA", "eiin": 129060, "inst_type": "Madrasha", "district": "THAKURGAON", "thana": "RANISANKAIL", "mauza": "GOGAR", "long": 88.25169, "lat": 25.87064, "serial": 10235, "isUnique": 1, "field_11": null, "field_12": null }, "geometry": { "type": "Point", "coordinates": [ 88.25169, 25.87064 ] } },
{ "type": "Feature", "properties": { "inst name": "BONGAON DAKHIL MADRASHA", "eiin": 129054, "inst_type": "Madrasha", "district": "THAKURGAON", "thana": "RANISANKAIL", "mauza": "BANGAON", "long": 88.24119, "lat": 25.92858, "serial": 10236, "isUnique": 1, "field_11": null, "field_12": null }, "geometry": { "type": "Point", "coordinates": [ 88.24119, 25.92858 ] } },
{ "type": "Feature", "properties": { "inst name": "MURAD BOX ROHMANIA DHAKIL MADRASHA", "eiin": 129052, "inst_type": "Madrasha", "district": "THAKURGAON", "thana": "RANISANKAIL", "mauza": "RAMPUR", "long": 88.21119, "lat": 25.94931, "serial": 10237, "isUnique": 1, "field_11": null, "field_12": null }, "geometry": { "type": "Point", "coordinates": [ 88.21119, 25.94931 ] } },
{ "type": "Feature", "properties": { "inst name": "NEK MORD PEER NSERIA ISLAMIA ALIM MADRASAH", "eiin": 129047, "inst_type": "Madrasha", "district": "THAKURGAON", "thana": "RANISANKAIL", "mauza": "BHABANANDAPUR", "long": 88.26628, "lat": 25.98206, "serial": 10238, "isUnique": 1, "field_11": null, "field_12": null }, "geometry": { "type": "Point", "coordinates": [ 88.26628, 25.98206 ] } },
{ "type": "Feature", "properties": { "inst name": "BANGLAGOR ALIM MADRASAH", "eiin": 129049, "inst_type": "Madrasha", "district": "THAKURGAON", "thana": "RANISANKAIL", "mauza": "NARGAON", "long": 88.31714, "lat": 25.96519, "serial": 10239, "isUnique": 1, "field_11": null, "field_12": null }, "geometry": { "type": "Point", "coordinates": [ 88.31714, 25.96519 ] } },
{ "type": "Feature", "properties": { "inst name": "KALIKAGAON D. HAT DAKHIL MADRASHA", "eiin": 129278, "inst_type": "Madrasha", "district": "THAKURGAON", "thana": "THAKURGAON SADAR", "mauza": "KALIKAGAON", "long": 88.28914, "lat": 25.97231, "serial": 10240, "isUnique": 1, "field_11": null, "field_12": null }, "geometry": { "type": "Point", "coordinates": [ 88.28914, 25.97231 ] } },
{ "type": "Feature", "properties": { "inst name": "LAUTHUTI DARUL ULUM DAKHIL MADRASHA", "eiin": 129295, "inst_type": "Madrasha", "district": "THAKURGAON", "thana": "THAKURGAON SADAR", "mauza": "LAUTHUTI", "long": 88.32219, "lat": 25.98194, "serial": 10241, "isUnique": 1, "field_11": null, "field_12": null }, "geometry": { "type": "Point", "coordinates": [ 88.32219, 25.98194 ] } },
{ "type": "Feature", "properties": { "inst name": "BORUNGAON DAKHIL MADRASAHA", "eiin": 129262, "inst_type": "Madrasha", "district": "THAKURGAON", "thana": "THAKURGAON SADAR", "mauza": "BARUNAGAON", "long": 88.46836, "lat": 26.05053, "serial": 10242, "isUnique": 1, "field_11": null, "field_12": null }, "geometry": { "type": "Point", "coordinates": [ 88.46836, 26.05053 ] } },
{ "type": "Feature", "properties": { "inst name": "RUHEA U.M. (HZ) K. KOBRA GIRLS D\/MADRASHA", "eiin": 129266, "inst_type": "Madrasha", "district": "THAKURGAON", "thana": "THAKURGAON SADAR", "mauza": "GHANI MAHESHPUR", "long": 88.53803, "lat": 26.05992, "serial": 10243, "isUnique": 1, "field_11": null, "field_12": null }, "geometry": { "type": "Point", "coordinates": [ 88.53803, 26.05992 ] } },
{ "type": "Feature", "properties": { "inst name": "MODHUPUR EIDGAH DAKHIL MADRASAH", "eiin": 129271, "inst_type": "Madrasha", "district": "THAKURGAON", "thana": "THAKURGAON SADAR", "mauza": "MADHUPUR", "long": 88.46803, "lat": 26.04725, "serial": 10244, "isUnique": 1, "field_11": null, "field_12": null }, "geometry": { "type": "Point", "coordinates": [ 88.46803, 26.04725 ] } },
{ "type": "Feature", "properties": { "inst name": "KASHAL GAON  AKRAMIA   DAKHIL   MADRASHA", "eiin": 129276, "inst_type": "Madrasha", "district": "THAKURGAON", "thana": "THAKURGAON SADAR", "mauza": "KASALGAON", "long": 88.40647, "lat": 26.17383, "serial": 10245, "isUnique": 1, "field_11": null, "field_12": null }, "geometry": { "type": "Point", "coordinates": [ 88.40647, 26.17383 ] } },
{ "type": "Feature", "properties": { "inst name": "MONDOL ADAM NESARIA DHAKIL MADRASHA", "eiin": 129279, "inst_type": "Madrasha", "district": "THAKURGAON", "thana": "THAKURGAON SADAR", "mauza": "MUNSHI PARA", "long": 88.40256, "lat": 26.15428, "serial": 10246, "isUnique": 1, "field_11": null, "field_12": null }, "geometry": { "type": "Point", "coordinates": [ 88.40256, 26.15428 ] } },
{ "type": "Feature", "properties": { "inst name": "RUHEA SALE  FAZIL  MADRASHA", "eiin": 129243, "inst_type": "Madrasha", "district": "THAKURGAON", "thana": "THAKURGAON SADAR", "mauza": "GHANI MAHESHPUR", "long": 88.39031, "lat": 26.16844, "serial": 10247, "isUnique": 1, "field_11": null, "field_12": null }, "geometry": { "type": "Point", "coordinates": [ 88.39031, 26.16844 ] } },
{ "type": "Feature", "properties": { "inst name": "ASANNAGAR KADERIA ISLAMIA DAKHIL MADRASHA", "eiin": 129269, "inst_type": "Madrasha", "district": "THAKURGAON", "thana": "THAKURGAON SADAR", "mauza": "ASAN NAGAR", "long": 88.4125, "lat": 26.17936, "serial": 10248, "isUnique": 1, "field_11": null, "field_12": null }, "geometry": { "type": "Point", "coordinates": [ 88.4125, 26.17936 ] } },
{ "type": "Feature", "properties": { "inst name": "DEHON ROWSHANPUR DAKHIL MADRASHA", "eiin": 129252, "inst_type": "Madrasha", "district": "THAKURGAON", "thana": "THAKURGAON SADAR", "mauza": "DEHAN", "long": 88.46794, "lat": 26.17081, "serial": 10249, "isUnique": 1, "field_11": null, "field_12": null }, "geometry": { "type": "Point", "coordinates": [ 88.46794, 26.17081 ] } },
{ "type": "Feature", "properties": { "inst name": "SINDURNA PANCHPEER DAKHIL MADRASHA", "eiin": 129239, "inst_type": "Madrasha", "district": "THAKURGAON", "thana": "THAKURGAON SADAR", "mauza": "SINDURNA", "long": 88.45553, "lat": 26.19183, "serial": 10250, "isUnique": 1, "field_11": null, "field_12": null }, "geometry": { "type": "Point", "coordinates": [ 88.45553, 26.19183 ] } },
{ "type": "Feature", "properties": { "inst name": "KACHNA  TALTALI DAKHIL MADRASHA", "eiin": 129240, "inst_type": "Madrasha", "district": "THAKURGAON", "thana": "THAKURGAON SADAR", "mauza": "KACHNA", "long": 88.42608, "lat": 26.12706, "serial": 10251, "isUnique": 1, "field_11": null, "field_12": null }, "geometry": { "type": "Point", "coordinates": [ 88.42608, 26.12706 ] } },
{ "type": "Feature", "properties": { "inst name": "FERSA DANGI DAKHIL MADRASHA", "eiin": 129280, "inst_type": "Madrasha", "district": "THAKURGAON", "thana": "THAKURGAON SADAR", "mauza": "FERSADANGI", "long": 88.46189, "lat": 26.11117, "serial": 10252, "isUnique": 2, "field_11": null, "field_12": null }, "geometry": { "type": "Point", "coordinates": [ 88.46189, 26.11117 ] } },
{ "type": "Feature", "properties": { "inst name": "SHIBGANJ  ALIM  MADRASHA", "eiin": 129249, "inst_type": "Madrasha", "district": "THAKURGAON", "thana": "THAKURGAON SADAR", "mauza": "PARPUGI", "long": 88.44272, "lat": 25.99417, "serial": 10253, "isUnique": 1, "field_11": null, "field_12": null }, "geometry": { "type": "Point", "coordinates": [ 88.44272, 25.99417 ] } },
{ "type": "Feature", "properties": { "inst name": "DODAPARA N. D. S dakhil  MADRASHA", "eiin": 129256, "inst_type": "Madrasha", "district": "THAKURGAON", "thana": "THAKURGAON SADAR", "mauza": "DODA PARA", "long": 88.40225, "lat": 25.99803, "serial": 10254, "isUnique": 1, "field_11": null, "field_12": null }, "geometry": { "type": "Point", "coordinates": [ 88.40225, 25.99803 ] } },
{ "type": "Feature", "properties": { "inst name": "SURJAPUR  DAKHIL  MADRASHA", "eiin": 128948, "inst_type": "Madrasha", "district": "THAKURGAON", "thana": "PIRGANJ", "mauza": "SURJYAPUR", "long": 88.30658, "lat": 25.79139, "serial": 10256, "isUnique": 2, "field_11": null, "field_12": null }, "geometry": { "type": "Point", "coordinates": [ 88.30658, 25.79139 ] } },
{ "type": "Feature", "properties": { "inst name": "BHELAToIR DARAB GAZI DAKHIL MADRASHA", "eiin": 128941, "inst_type": "Madrasha", "district": "THAKURGAON", "thana": "PIRGANJ", "mauza": "BHELATAIR (PART-B)", "long": 88.47422, "lat": 25.86636, "serial": 10258, "isUnique": 2, "field_11": null, "field_12": null }, "geometry": { "type": "Point", "coordinates": [ 88.47422, 25.86636 ] } },
{ "type": "Feature", "properties": { "inst name": "AMBALA  DAKHIL MADRASHA", "eiin": 128943, "inst_type": "Madrasha", "district": "THAKURGAON", "thana": "PIRGANJ", "mauza": "NARAYANPUR", "long": 88.35797, "lat": 25.87853, "serial": 10259, "isUnique": 1, "field_11": null, "field_12": null }, "geometry": { "type": "Point", "coordinates": [ 88.35797, 25.87853 ] } },
{ "type": "Feature", "properties": { "inst name": "NARAINPUR GOAL PARA WOMEN DAKHIL MADRASHA", "eiin": 128957, "inst_type": "Madrasha", "district": "THAKURGAON", "thana": "PIRGANJ", "mauza": "NARAYANPUR", "long": 88.32819, "lat": 25.89817, "serial": 10260, "isUnique": 1, "field_11": null, "field_12": null }, "geometry": { "type": "Point", "coordinates": [ 88.32819, 25.89817 ] } },
{ "type": "Feature", "properties": { "inst name": "BEGUNGAON DAKHIL MADRASHA", "eiin": 128950, "inst_type": "Madrasha", "district": "THAKURGAON", "thana": "PIRGANJ", "mauza": "BEGUNGAON", "long": 88.32536, "lat": 25.86633, "serial": 10261, "isUnique": 1, "field_11": null, "field_12": null }, "geometry": { "type": "Point", "coordinates": [ 88.32536, 25.86633 ] } },
{ "type": "Feature", "properties": { "inst name": "VAMDA ALIM MADRASHA", "eiin": 128939, "inst_type": "Madrasha", "district": "THAKURGAON", "thana": "PIRGANJ", "mauza": "BHAMDA", "long": 88.38903, "lat": 25.88703, "serial": 10262, "isUnique": 2, "field_11": null, "field_12": null }, "geometry": { "type": "Point", "coordinates": [ 88.38903, 25.88703 ] } },
{ "type": "Feature", "properties": { "inst name": "HATPARA DE-MUKHY SENIOR FAZIL MADRASAH", "eiin": 128942, "inst_type": "Madrasha", "district": "THAKURGAON", "thana": "PIRGANJ", "mauza": "HATPARA", "long": 88.36997, "lat": 25.97489, "serial": 10266, "isUnique": 1, "field_11": null, "field_12": null }, "geometry": { "type": "Point", "coordinates": [ 88.36997, 25.97489 ] } },
{ "type": "Feature", "properties": { "inst name": "RANASIA HAMIFA DAKHIL MADRASHA", "eiin": 128944, "inst_type": "Madrasha", "district": "THAKURGAON", "thana": "PIRGANJ", "mauza": "RANSIA", "long": 88.37147, "lat": 25.93025, "serial": 10267, "isUnique": 1, "field_11": null, "field_12": null }, "geometry": { "type": "Point", "coordinates": [ 88.37147, 25.93025 ] } },
{ "type": "Feature", "properties": { "inst name": "BOROBARI  BOLDIARA  DAKHIL MADRASHA", "eiin": 128960, "inst_type": "Madrasha", "district": "THAKURGAON", "thana": "PIRGANJ", "mauza": "BARABARI", "long": 88.37978, "lat": 25.75197, "serial": 10268, "isUnique": 1, "field_11": null, "field_12": null }, "geometry": { "type": "Point", "coordinates": [ 88.37978, 25.75197 ] } },
{ "type": "Feature", "properties": { "inst name": "CHANDARIA EIDGAH DAKHIL MADRASAH", "eiin": 128947, "inst_type": "Madrasha", "district": "THAKURGAON", "thana": "PIRGANJ", "mauza": "CHANDRA", "long": 88.32803, "lat": 25.75011, "serial": 10269, "isUnique": 1, "field_11": null, "field_12": null }, "geometry": { "type": "Point", "coordinates": [ 88.32803, 25.75011 ] } },
{ "type": "Feature", "properties": { "inst name": "ALHAJ M. MANDAL SHASHOR DHAKHIL MADRASHA", "eiin": 128946, "inst_type": "Madrasha", "district": "THAKURGAON", "thana": "PIRGANJ", "mauza": "SASOR", "long": 88.36053, "lat": 25.73669, "serial": 10270, "isUnique": 1, "field_11": null, "field_12": null }, "geometry": { "type": "Point", "coordinates": [ 88.36053, 25.73669 ] } },
{ "type": "Feature", "properties": { "inst name": "MOHAMMADPUR  DAKHIL MADRASHA", "eiin": 128949, "inst_type": "Madrasha", "district": "THAKURGAON", "thana": "PIRGANJ", "mauza": "MAHAMMADPUR", "long": 88.31381, "lat": 25.8185, "serial": 10272, "isUnique": 2, "field_11": null, "field_12": null }, "geometry": { "type": "Point", "coordinates": [ 88.31381, 25.8185 ] } },
{ "type": "Feature", "properties": { "inst name": "MOhESHPUR  D.H. ISLAMIA DAKHIL MADRASHA", "eiin": 128951, "inst_type": "Madrasha", "district": "THAKURGAON", "thana": "PIRGANJ", "mauza": "MAHESHPUR", "long": 88.35617, "lat": 25.90278, "serial": 10275, "isUnique": 2, "field_11": null, "field_12": null }, "geometry": { "type": "Point", "coordinates": [ 88.35617, 25.90278 ] } },
{ "type": "Feature", "properties": { "inst name": "BHOMRADAHA  ISLAMIA  DAKHIL MADRASHA", "eiin": 128964, "inst_type": "Madrasha", "district": "THAKURGAON", "thana": "PIRGANJ", "mauza": "BHOMRADAHA", "long": 88.33453, "lat": 25.95197, "serial": 10277, "isUnique": 2, "field_11": null, "field_12": null }, "geometry": { "type": "Point", "coordinates": [ 88.33453, 25.95197 ] } },
{ "type": "Feature", "properties": { "inst name": "ISLAMPUR DAKHIL MADRASHA", "eiin": 128953, "inst_type": "Madrasha", "district": "THAKURGAON", "thana": "PIRGANJ", "mauza": "KHAMAR SENUA", "long": 88.36011, "lat": 25.90328, "serial": 10278, "isUnique": 2, "field_11": null, "field_12": null }, "geometry": { "type": "Point", "coordinates": [ 88.36011, 25.90328 ] } },
{ "type": "Feature", "properties": { "inst name": "VEBRA ISLAMIA ALIM MADRASAH", "eiin": 128937, "inst_type": "Madrasha", "district": "THAKURGAON", "thana": "PIRGANJ", "mauza": "MITRABATI", "long": 88.31467, "lat": 25.84375, "serial": 10280, "isUnique": 2, "field_11": null, "field_12": null }, "geometry": { "type": "Point", "coordinates": [ 88.31467, 25.84375 ] } },
{ "type": "Feature", "properties": { "inst name": "SHIMUL BARI DAKHIL MADRASHA", "eiin": 128956, "inst_type": "Madrasha", "district": "THAKURGAON", "thana": "PIRGANJ", "mauza": "KHANGAON", "long": 88.41517, "lat": 25.93711, "serial": 10285, "isUnique": 2, "field_11": null, "field_12": null }, "geometry": { "type": "Point", "coordinates": [ 88.41517, 25.93711 ] } },
{ "type": "Feature", "properties": { "inst name": "LOHAGAR  DAKHIL MADRASHA", "eiin": 128952, "inst_type": "Madrasha", "district": "THAKURGAON", "thana": "PIRGANJ", "mauza": "CHANDPUR", "long": 88.36919, "lat": 25.96222, "serial": 10286, "isUnique": 2, "field_11": null, "field_12": null }, "geometry": { "type": "Point", "coordinates": [ 88.36919, 25.96222 ] } },
{ "type": "Feature", "properties": { "inst name": "KOSHA DANGIPARA DAKHIL MADRASAH", "eiin": 128945, "inst_type": "Madrasha", "district": "THAKURGAON", "thana": "PIRGANJ", "mauza": "KOTA PARA", "long": 88.37967, "lat": 25.91725, "serial": 10288, "isUnique": 1, "field_11": null, "field_12": null }, "geometry": { "type": "Point", "coordinates": [ 88.37967, 25.91725 ] } },
{ "type": "Feature", "properties": { "inst name": "THUMUNIA  HAJEEPARA DAKHIL MADRASHA", "eiin": 128963, "inst_type": "Madrasha", "district": "THAKURGAON", "thana": "PIRGANJ", "mauza": "THUMNIA", "long": 88.47319, "lat": 25.90672, "serial": 10294, "isUnique": 2, "field_11": null, "field_12": null }, "geometry": { "type": "Point", "coordinates": [ 88.47319, 25.90672 ] } },
{ "type": "Feature", "properties": { "inst name": "BELDAHI  DAKHIL  MADRASHA", "eiin": 128959, "inst_type": "Madrasha", "district": "THAKURGAON", "thana": "PIRGANJ", "mauza": "BELDAHI", "long": 88.44903, "lat": 25.89064, "serial": 10295, "isUnique": 2, "field_11": null, "field_12": null }, "geometry": { "type": "Point", "coordinates": [ 88.44903, 25.89064 ] } },
{ "type": "Feature", "properties": { "inst name": "HOBIBUR RAHMAN MOHILA DAKHIL MADRASHA", "eiin": 129273, "inst_type": "Madrasha", "district": "THAKURGAON", "thana": "THAKURGAON SADAR", "mauza": "HAJI PARA", "long": 88.50722, "lat": 26.03294, "serial": 10296, "isUnique": 1, "field_11": null, "field_12": null }, "geometry": { "type": "Point", "coordinates": [ 88.50722, 26.03294 ] } },
{ "type": "Feature", "properties": { "inst name": "SALANDAR ISLAMIA KAMIL MADRASHA", "eiin": 129246, "inst_type": "Madrasha", "district": "THAKURGAON", "thana": "THAKURGAON SADAR", "mauza": "SALANDER (PART)", "long": 88.48558, "lat": 26.02878, "serial": 10297, "isUnique": 2, "field_11": null, "field_12": null }, "geometry": { "type": "Point", "coordinates": [ 88.48558, 26.02878 ] } },
{ "type": "Feature", "properties": { "inst name": "SIDDIKA BISHWA ISLAM MISSION DAKHIL MADRASHA", "eiin": 129267, "inst_type": "Madrasha", "district": "THAKURGAON", "thana": "THAKURGAON SADAR", "mauza": "SALANDER (PART)", "long": 88.50636, "lat": 26.05547, "serial": 10298, "isUnique": 1, "field_11": null, "field_12": null }, "geometry": { "type": "Point", "coordinates": [ 88.50636, 26.05547 ] } },
{ "type": "Feature", "properties": { "inst name": "UTTAR HARIHARPUR ALIM MADRASHA", "eiin": 129255, "inst_type": "Madrasha", "district": "THAKURGAON", "thana": "THAKURGAON SADAR", "mauza": "HARIHARPUR (PART)", "long": 88.46339, "lat": 26.03744, "serial": 10299, "isUnique": 2, "field_11": null, "field_12": null }, "geometry": { "type": "Point", "coordinates": [ 88.46339, 26.03744 ] } },
{ "type": "Feature", "properties": { "inst name": "AKHANAGAR BOLITAPUKUR DAKHIK MADRASAH", "eiin": 129265, "inst_type": "Madrasha", "district": "THAKURGAON", "thana": "THAKURGAON SADAR", "mauza": "AKHANAGAR", "long": 88.37325, "lat": 26.13081, "serial": 10300, "isUnique": 1, "field_11": null, "field_12": null }, "geometry": { "type": "Point", "coordinates": [ 88.37325, 26.13081 ] } },
{ "type": "Feature", "properties": { "inst name": "AKHANAGAR BOLITA  PARA  ADARSHA  DAKHIL  MADTRASHA", "eiin": 129272, "inst_type": "Madrasha", "district": "THAKURGAON", "thana": "THAKURGAON SADAR", "mauza": "AKHANAGAR", "long": 88.36081, "lat": 26.14117, "serial": 10301, "isUnique": 1, "field_11": null, "field_12": null }, "geometry": { "type": "Point", "coordinates": [ 88.36081, 26.14117 ] } },
{ "type": "Feature", "properties": { "inst name": "JHARGAON  RAHAMANIA  DAKHIL MADRASHA", "eiin": 129251, "inst_type": "Madrasha", "district": "THAKURGAON", "thana": "THAKURGAON SADAR", "mauza": "JHARGAON", "long": 88.35378, "lat": 26.12503, "serial": 10302, "isUnique": 1, "field_11": null, "field_12": null }, "geometry": { "type": "Point", "coordinates": [ 88.35378, 26.12503 ] } },
{ "type": "Feature", "properties": { "inst name": "HARA GACH PARA JANNATUL FERDOUS DAKHIL MADRASHA", "eiin": 129303, "inst_type": "Madrasha", "district": "THAKURGAON", "thana": "THAKURGAON SADAR", "mauza": "ARAZI DAKSHIN BATINA", "long": 88.39811, "lat": 26.13153, "serial": 10303, "isUnique": 1, "field_11": null, "field_12": null }, "geometry": { "type": "Point", "coordinates": [ 88.39811, 26.13153 ] } },
{ "type": "Feature", "properties": { "inst name": "PURATAN  THAKURGAON  DHAKHIL  MADRASHA", "eiin": 129263, "inst_type": "Madrasha", "district": "THAKURGAON", "thana": "THAKURGAON SADAR", "mauza": "DAKSHIN THAKURGAON", "long": 88.44981, "lat": 26.11144, "serial": 10304, "isUnique": 2, "field_11": null, "field_12": null }, "geometry": { "type": "Point", "coordinates": [ 88.44981, 26.11144 ] } },
{ "type": "Feature", "properties": { "inst name": " MADERGANJ PAGLAPIR  DAKHIL MADRASHA", "eiin": 129281, "inst_type": "Madrasha", "district": "THAKURGAON", "thana": "THAKURGAON SADAR", "mauza": "MADARGANJ", "long": 88.53225, "lat": 26.12178, "serial": 10305, "isUnique": 1, "field_11": null, "field_12": null }, "geometry": { "type": "Point", "coordinates": [ 88.53225, 26.12178 ] } },
{ "type": "Feature", "properties": { "inst name": "KEYAREEGAON AL HAZ ROBIULLA BHUYA DAKHIL MADRASHA", "eiin": 129241, "inst_type": "Madrasha", "district": "THAKURGAON", "thana": "THAKURGAON SADAR", "mauza": "KIARIGAON", "long": 88.52403, "lat": 26.07356, "serial": 10306, "isUnique": 1, "field_11": null, "field_12": null }, "geometry": { "type": "Point", "coordinates": [ 88.52403, 26.07356 ] } },
{ "type": "Feature", "properties": { "inst name": "BALIA ISLAMIA SENIOR ALIM MADRASHA", "eiin": 129257, "inst_type": "Madrasha", "district": "THAKURGAON", "thana": "THAKURGAON SADAR", "mauza": "BARA BALIA", "long": 88.55753, "lat": 26.10319, "serial": 10307, "isUnique": 1, "field_11": null, "field_12": null }, "geometry": { "type": "Point", "coordinates": [ 88.55753, 26.10319 ] } },
{ "type": "Feature", "properties": { "inst name": "SINGIA ISLAMIA DAKHIL MADRASHA", "eiin": 129277, "inst_type": "Madrasha", "district": "THAKURGAON", "thana": "THAKURGAON SADAR", "mauza": "SINGIA", "long": 88.60839, "lat": 26.136, "serial": 10308, "isUnique": 1, "field_11": null, "field_12": null }, "geometry": { "type": "Point", "coordinates": [ 88.60839, 26.136 ] } },
{ "type": "Feature", "properties": { "inst name": "KHOSHBAZAR KUMARPUR UMMAHATUL MOMANIN (R) MOHILA DAKHIL MADRASHA", "eiin": 129268, "inst_type": "Madrasha", "district": "THAKURGAON", "thana": "THAKURGAON SADAR", "mauza": "KUMARPUR", "long": 88.56753, "lat": 26.12256, "serial": 10309, "isUnique": 1, "field_11": null, "field_12": null }, "geometry": { "type": "Point", "coordinates": [ 88.56753, 26.12256 ] } },
{ "type": "Feature", "properties": { "inst name": "BARAGRAM  ALIM   MADRASHA", "eiin": 129244, "inst_type": "Madrasha", "district": "THAKURGAON", "thana": "THAKURGAON SADAR", "mauza": "BARAGAON", "long": 88.49936, "lat": 26.14439, "serial": 10310, "isUnique": 1, "field_11": null, "field_12": null }, "geometry": { "type": "Point", "coordinates": [ 88.49936, 26.14439 ] } },
{ "type": "Feature", "properties": { "inst name": "KISMET CHAMESWARI EIDGAH DAKHIL MADRASHA", "eiin": 129264, "inst_type": "Madrasha", "district": "THAKURGAON", "thana": "THAKURGAON SADAR", "mauza": "KISMAT CHAMESHWARI", "long": 88.48122, "lat": 26.15078, "serial": 10312, "isUnique": 1, "field_11": null, "field_12": null }, "geometry": { "type": "Point", "coordinates": [ 88.48122, 26.15078 ] } },
{ "type": "Feature", "properties": { "inst name": "RATNAI UDAYPUR DAKHIL MADRASAH", "eiin": 128744, "inst_type": "Madrasha", "district": "THAKURGAON", "thana": "BALIADANGI", "mauza": "RATNAI", "long": 88.34289, "lat": 26.09153, "serial": 10313, "isUnique": 1, "field_11": null, "field_12": null }, "geometry": { "type": "Point", "coordinates": [ 88.34289, 26.09153 ] } },
{ "type": "Feature", "properties": { "inst name": "BALIADANGI DARUL ULUM DAKHIL MADRASHA", "eiin": 128749, "inst_type": "Madrasha", "district": "THAKURGAON", "thana": "BALIADANGI", "mauza": "BALIADANGI", "long": 88.19522, "lat": 26.12347, "serial": 10314, "isUnique": 1, "field_11": null, "field_12": null }, "geometry": { "type": "Point", "coordinates": [ 88.19522, 26.12347 ] } },
{ "type": "Feature", "properties": { "inst name": "BARA PALASHBARI ISLAMIC ALIM MADRASAH", "eiin": 128751, "inst_type": "Madrasha", "district": "THAKURGAON", "thana": "BALIADANGI", "mauza": "BARA PALASHBARI", "long": 88.278, "lat": 26.103, "serial": 10315, "isUnique": 1, "field_11": null, "field_12": null }, "geometry": { "type": "Point", "coordinates": [ 88.278, 26.103 ] } },
{ "type": "Feature", "properties": { "inst name": "BALIA BELSRA DAKHIL MADRASA", "eiin": 128745, "inst_type": "Madrasha", "district": "THAKURGAON", "thana": "BALIADANGI", "mauza": "BARA PALASHBARI", "long": 88.21081, "lat": 26.06339, "serial": 10316, "isUnique": 1, "field_11": null, "field_12": null }, "geometry": { "type": "Point", "coordinates": [ 88.21081, 26.06339 ] } },
{ "type": "Feature", "properties": { "inst name": "CHOCHPARA ISLAMIA DAKHIL MADRASAH", "eiin": 128743, "inst_type": "Madrasha", "district": "THAKURGAON", "thana": "BALIADANGI", "mauza": "CHOCH PARA", "long": 88.20203, "lat": 26.07036, "serial": 10317, "isUnique": 1, "field_11": null, "field_12": null }, "geometry": { "type": "Point", "coordinates": [ 88.20203, 26.07036 ] } },
{ "type": "Feature", "properties": { "inst name": "BISRAMPUR UTTAR PARA DAKHIL MADRASAH", "eiin": 128753, "inst_type": "Madrasha", "district": "THAKURGAON", "thana": "BALIADANGI", "mauza": "HALDIBARI", "long": 88.26983, "lat": 26.02617, "serial": 10318, "isUnique": 1, "field_11": null, "field_12": null }, "geometry": { "type": "Point", "coordinates": [ 88.26983, 26.02617 ] } },
{ "type": "Feature", "properties": { "inst name": "VANOR FAZIL  MADRASAH", "eiin": 128747, "inst_type": "Madrasha", "district": "THAKURGAON", "thana": "BALIADANGI", "mauza": "BHANOR", "long": 88.27689, "lat": 26.0353, "serial": 10319, "isUnique": 1, "field_11": null, "field_12": null }, "geometry": { "type": "Point", "coordinates": [ 88.27689, 26.0353 ] } },
{ "type": "Feature", "properties": { "inst name": "DALIMPARA SAPTIDAKHIL MADRASAH", "eiin": 128759, "inst_type": "Madrasha", "district": "THAKURGAON", "thana": "BALIADANGI", "mauza": "BHANOR", "long": 88.26869, "lat": 26.00839, "serial": 10320, "isUnique": 1, "field_11": null, "field_12": null }, "geometry": { "type": "Point", "coordinates": [ 88.26869, 26.00839 ] } },
{ "type": "Feature", "properties": { "inst name": "DUGRAPUR DAKHIL MADRASAH", "eiin": 128764, "inst_type": "Madrasha", "district": "THAKURGAON", "thana": "BALIADANGI", "mauza": "DURGAPUR", "long": 88.27606, "lat": 26.04033, "serial": 10321, "isUnique": 1, "field_11": null, "field_12": null }, "geometry": { "type": "Point", "coordinates": [ 88.27606, 26.04033 ] } },
{ "type": "Feature", "properties": { "inst name": "MADHYA CHROL AZIZIA D MADRASHA", "eiin": 128748, "inst_type": "Madrasha", "district": "THAKURGAON", "thana": "BALIADANGI", "mauza": "CHAROL", "long": 88.32761, "lat": 26.14969, "serial": 10322, "isUnique": 1, "field_11": null, "field_12": null }, "geometry": { "type": "Point", "coordinates": [ 88.32761, 26.14969 ] } },
{ "type": "Feature", "properties": { "inst name": "LAHIRI FAZIL MADRASHA", "eiin": 128746, "inst_type": "Madrasha", "district": "THAKURGAON", "thana": "BALIADANGI", "mauza": "CHHOTA SINGA", "long": 88.29119, "lat": 26.14142, "serial": 10323, "isUnique": 1, "field_11": null, "field_12": null }, "geometry": { "type": "Point", "coordinates": [ 88.29119, 26.14142 ] } },
{ "type": "Feature", "properties": { "inst name": "MODHUPUR NAYDIGHI M. RAFIQA ALIM MADRASAH", "eiin": 128741, "inst_type": "Madrasha", "district": "THAKURGAON", "thana": "BALIADANGI", "mauza": "MADHUPUR", "long": 88.33931, "lat": 26.11236, "serial": 10324, "isUnique": 1, "field_11": null, "field_12": null }, "geometry": { "type": "Point", "coordinates": [ 88.33931, 26.11236 ] } },
{ "type": "Feature", "properties": { "inst name": "DOGACHHI ISLAMIA DAKHIL MADRASAH", "eiin": 128755, "inst_type": "Madrasha", "district": "THAKURGAON", "thana": "BALIADANGI", "mauza": "CHAROL", "long": 88.29322, "lat": 26.14383, "serial": 10325, "isUnique": 1, "field_11": null, "field_12": null }, "geometry": { "type": "Point", "coordinates": [ 88.29322, 26.14383 ] } },
{ "type": "Feature", "properties": { "inst name": "PARDESHI PARA PUKUR PAR DHAKHIL MADRASHA", "eiin": 128767, "inst_type": "Madrasha", "district": "THAKURGAON", "thana": "BALIADANGI", "mauza": "PARDESHI PARA", "long": 88.31181, "lat": 26.12097, "serial": 10326, "isUnique": 1, "field_11": null, "field_12": null }, "geometry": { "type": "Point", "coordinates": [ 88.31181, 26.12097 ] } },
{ "type": "Feature", "properties": { "inst name": "DHONTOLA ISLAMIA DHAKIL MADRASHA", "eiin": 128758, "inst_type": "Madrasha", "district": "THAKURGAON", "thana": "BALIADANGI", "mauza": "DHANTALA", "long": 88.30953, "lat": 26.09867, "serial": 10327, "isUnique": 1, "field_11": null, "field_12": null }, "geometry": { "type": "Point", "coordinates": [ 88.30953, 26.09867 ] } },
{ "type": "Feature", "properties": { "inst name": "KALMEGH  EIDGAH F. R FAZIL  MADRASHA", "eiin": 128742, "inst_type": "Madrasha", "district": "THAKURGAON", "thana": "BALIADANGI", "mauza": "LALAPUR", "long": 88.25219, "lat": 26.05914, "serial": 10328, "isUnique": 2, "field_11": null, "field_12": null }, "geometry": { "type": "Point", "coordinates": [ 88.25219, 26.05914 ] } },
{ "type": "Feature", "properties": { "inst name": "SONGAON ISLAMIA DAKHIL MADRASAH", "eiin": 128756, "inst_type": "Madrasha", "district": "THAKURGAON", "thana": "BALIADANGI", "mauza": "SANGAON", "long": 88.30633, "lat": 26.08211, "serial": 10329, "isUnique": 1, "field_11": null, "field_12": null }, "geometry": { "type": "Point", "coordinates": [ 88.30633, 26.08211 ] } },
{ "type": "Feature", "properties": { "inst name": "BAMUNIA HAZARAT PIR KALU SAH. R.H DAKIL MADRASHA", "eiin": 128762, "inst_type": "Madrasha", "district": "THAKURGAON", "thana": "BALIADANGI", "mauza": "BAMUNIA", "long": 88.32311, "lat": 26.09292, "serial": 10330, "isUnique": 1, "field_11": null, "field_12": null }, "geometry": { "type": "Point", "coordinates": [ 88.32311, 26.09292 ] } },
{ "type": "Feature", "properties": { "inst name": "JAUNIA CHATTA LAHIRI DAKHIL MADRASHA", "eiin": 128750, "inst_type": "Madrasha", "district": "THAKURGAON", "thana": "BALIADANGI", "mauza": "JAUNIA", "long": 88.30275, "lat": 26.07503, "serial": 10331, "isUnique": 1, "field_11": null, "field_12": null }, "geometry": { "type": "Point", "coordinates": [ 88.30275, 26.07503 ] } },
{ "type": "Feature", "properties": { "inst name": "MACHKHURIA KALDANGA DAKHIL MADRASHA", "eiin": 128757, "inst_type": "Madrasha", "district": "THAKURGAON", "thana": "BALIADANGI", "mauza": "MACHHKHURIA", "long": 88.25444, "lat": 26.16975, "serial": 10332, "isUnique": 1, "field_11": null, "field_12": null }, "geometry": { "type": "Point", "coordinates": [ 88.25444, 26.16975 ] } },
{ "type": "Feature", "properties": { "inst name": "HARIPUR PILOT HIGH SCHOOL", "eiin": 128772, "inst_type": "School", "district": "THAKURGAON", "thana": "HARIPUR", "mauza": "HARIPUR", "long": 89.64211, "lat": 25.80792, "serial": 25347, "isUnique": 1, "field_11": null, "field_12": null }, "geometry": { "type": "Point", "coordinates": [ 89.64211, 25.80792 ] } },
{ "type": "Feature", "properties": { "inst name": "AMGAON CENTRAL HIGH SCHOOL", "eiin": 128803, "inst_type": "School", "district": "THAKURGAON", "thana": "HARIPUR", "mauza": "AMGAON", "long": 88.13494, "lat": 25.81047, "serial": 25349, "isUnique": 1, "field_11": null, "field_12": null }, "geometry": { "type": "Point", "coordinates": [ 88.13494, 25.81047 ] } },
{ "type": "Feature", "properties": { "inst name": "JADURANI GIRLS HIGH SCHOOL", "eiin": 128787, "inst_type": "School", "district": "THAKURGAON", "thana": "HARIPUR", "mauza": "NANDAGAON", "long": 88.15697, "lat": 25.79769, "serial": 25350, "isUnique": 1, "field_11": null, "field_12": null }, "geometry": { "type": "Point", "coordinates": [ 88.15697, 25.79769 ] } },
{ "type": "Feature", "properties": { "inst name": "BELUA HIGH SCHOOL", "eiin": 128798, "inst_type": "School", "district": "THAKURGAON", "thana": "HARIPUR", "mauza": "BELUA", "long": 88.15714, "lat": 25.80589, "serial": 25351, "isUnique": 1, "field_11": null, "field_12": null }, "geometry": { "type": "Point", "coordinates": [ 88.15714, 25.80589 ] } },
{ "type": "Feature", "properties": { "inst name": "JAMUN  GIRLS  HIGH SCHOOL", "eiin": 128795, "inst_type": "School", "district": "THAKURGAON", "thana": "HARIPUR", "mauza": "AMGAON", "long": 88.14244, "lat": 25.82156, "serial": 25352, "isUnique": 1, "field_11": null, "field_12": null }, "geometry": { "type": "Point", "coordinates": [ 88.14244, 25.82156 ] } },
{ "type": "Feature", "properties": { "inst name": "KAMARPUKUR HIGH SCHOOL", "eiin": 128789, "inst_type": "School", "district": "THAKURGAON", "thana": "HARIPUR", "mauza": "KAMAR PUKUR", "long": 88.13586, "lat": 25.80717, "serial": 25353, "isUnique": 1, "field_11": null, "field_12": null }, "geometry": { "type": "Point", "coordinates": [ 88.13586, 25.80717 ] } },
{ "type": "Feature", "properties": { "inst name": "K. H. JUNIOR GIRLS HIGH SCHOOL", "eiin": 128808, "inst_type": "School", "district": "THAKURGAON", "thana": "HARIPUR", "mauza": "KAMAR PUKUR", "long": 88.14447, "lat": 25.92008, "serial": 25354, "isUnique": 1, "field_11": null, "field_12": null }, "geometry": { "type": "Point", "coordinates": [ 88.14447, 25.92008 ] } },
{ "type": "Feature", "properties": { "inst name": "JADURANI HIGH SCHOOL", "eiin": 128773, "inst_type": "School", "district": "THAKURGAON", "thana": "HARIPUR", "mauza": "NANDAGAON", "long": 88.16853, "lat": 25.88544, "serial": 25355, "isUnique": 1, "field_11": null, "field_12": null }, "geometry": { "type": "Point", "coordinates": [ 88.16853, 25.88544 ] } },
{ "type": "Feature", "properties": { "inst name": "BOKUA JR. GIRL.S HIGH SCHOOL", "eiin": 128814, "inst_type": "School", "district": "THAKURGAON", "thana": "HARIPUR", "mauza": "BHAGARANPUR", "long": 88.19719, "lat": 25.88728, "serial": 25356, "isUnique": 1, "field_11": null, "field_12": null }, "geometry": { "type": "Point", "coordinates": [ 88.19719, 25.88728 ] } },
{ "type": "Feature", "properties": { "inst name": "T ISLAM UNION HIGH SCHOOL", "eiin": 128782, "inst_type": "School", "district": "THAKURGAON", "thana": "HARIPUR", "mauza": "BARAMPUR", "long": 88.14908, "lat": 25.93983, "serial": 25357, "isUnique": 1, "field_11": null, "field_12": null }, "geometry": { "type": "Point", "coordinates": [ 88.14908, 25.93983 ] } },
{ "type": "Feature", "properties": { "inst name": "BROMPUR GIRLS HIGH SCHOOL", "eiin": 128794, "inst_type": "School", "district": "THAKURGAON", "thana": "HARIPUR", "mauza": "BARAMPUR", "long": 88.18256, "lat": 25.90714, "serial": 25358, "isUnique": 1, "field_11": null, "field_12": null }, "geometry": { "type": "Point", "coordinates": [ 88.18256, 25.90714 ] } },
{ "type": "Feature", "properties": { "inst name": "B. S. JUNIOR HIGH SCHOOL", "eiin": 128809, "inst_type": "School", "district": "THAKURGAON", "thana": "HARIPUR", "mauza": "BUZRUK", "long": 88.17861, "lat": 25.88089, "serial": 25359, "isUnique": 1, "field_11": null, "field_12": null }, "geometry": { "type": "Point", "coordinates": [ 88.17861, 25.88089 ] } },
{ "type": "Feature", "properties": { "inst name": "RUHEYA JUNIOR HIGH SCHOOL", "eiin": 128804, "inst_type": "School", "district": "THAKURGAON", "thana": "HARIPUR", "mauza": "DHUKURIA", "long": 88.15894, "lat": 25.89003, "serial": 25360, "isUnique": 1, "field_11": null, "field_12": null }, "geometry": { "type": "Point", "coordinates": [ 88.15894, 25.89003 ] } },
{ "type": "Feature", "properties": { "inst name": "BAHATI HIGH SCHOOL", "eiin": 128785, "inst_type": "School", "district": "THAKURGAON", "thana": "HARIPUR", "mauza": "BAHATI", "long": 88.12869, "lat": 25.90525, "serial": 25361, "isUnique": 1, "field_11": null, "field_12": null }, "geometry": { "type": "Point", "coordinates": [ 88.12869, 25.90525 ] } },
{ "type": "Feature", "properties": { "inst name": "BHATURIA BL  HIGH SCHOOL", "eiin": 128779, "inst_type": "School", "district": "THAKURGAON", "thana": "HARIPUR", "mauza": "BHATURIA", "long": 88.11211, "lat": 25.891, "serial": 25362, "isUnique": 1, "field_11": null, "field_12": null }, "geometry": { "type": "Point", "coordinates": [ 88.11211, 25.891 ] } },
{ "type": "Feature", "properties": { "inst name": "KATHALDANGI GIRLS HIGH SCHOOL", "eiin": 128783, "inst_type": "School", "district": "THAKURGAON", "thana": "HARIPUR", "mauza": "CHAPASAR", "long": 88.14525, "lat": 25.86947, "serial": 25363, "isUnique": 1, "field_11": null, "field_12": null }, "geometry": { "type": "Point", "coordinates": [ 88.14525, 25.86947 ] } },
{ "type": "Feature", "properties": { "inst name": "MOHENDRA GOAN HIGH SCHOOL", "eiin": 128796, "inst_type": "School", "district": "THAKURGAON", "thana": "HARIPUR", "mauza": "MAHENDRAGAON", "long": 88.10292, "lat": 25.91325, "serial": 25364, "isUnique": 1, "field_11": null, "field_12": null }, "geometry": { "type": "Point", "coordinates": [ 88.10292, 25.91325 ] } },
{ "type": "Feature", "properties": { "inst name": "CHAPPUKUR JUNIOR HIGH SCHOOL", "eiin": 128820, "inst_type": "School", "district": "THAKURGAON", "thana": "HARIPUR", "mauza": "GAR BHABANIPUR", "long": 88.12753, "lat": 25.89644, "serial": 25365, "isUnique": 1, "field_11": null, "field_12": null }, "geometry": { "type": "Point", "coordinates": [ 88.12753, 25.89644 ] } },
{ "type": "Feature", "properties": { "inst name": "RAMPUR BHATURIA GIRLS HIGH SCHOOL", "eiin": 128801, "inst_type": "School", "district": "THAKURGAON", "thana": "HARIPUR", "mauza": "RAMPUR", "long": 88.17989, "lat": 25.818, "serial": 25366, "isUnique": 1, "field_11": null, "field_12": null }, "geometry": { "type": "Point", "coordinates": [ 88.17989, 25.818 ] } },
{ "type": "Feature", "properties": { "inst name": "R.A. KANTHALDANGI HIGH SCHOOL", "eiin": 128776, "inst_type": "School", "district": "THAKURGAON", "thana": "HARIPUR", "mauza": "TENGARIA", "long": 88.20483, "lat": 25.80119, "serial": 25367, "isUnique": 1, "field_11": null, "field_12": null }, "geometry": { "type": "Point", "coordinates": [ 88.20483, 25.80119 ] } },
{ "type": "Feature", "properties": { "inst name": "BIRGAR JUNIOR SCHOOL", "eiin": 128805, "inst_type": "School", "district": "THAKURGAON", "thana": "HARIPUR", "mauza": "BIRGAR", "long": 88.21469, "lat": 25.83214, "serial": 25368, "isUnique": 1, "field_11": null, "field_12": null }, "geometry": { "type": "Point", "coordinates": [ 88.21469, 25.83214 ] } },
{ "type": "Feature", "properties": { "inst name": "LAHUCHAND HIGH SCHOOL", "eiin": 128811, "inst_type": "School", "district": "THAKURGAON", "thana": "HARIPUR", "mauza": "LAHUCHAND", "long": 88.21428, "lat": 25.83044, "serial": 25369, "isUnique": 1, "field_11": null, "field_12": null }, "geometry": { "type": "Point", "coordinates": [ 88.21428, 25.83044 ] } },
{ "type": "Feature", "properties": { "inst name": "DANGIPARA HIGH SCHOOL", "eiin": 128802, "inst_type": "School", "district": "THAKURGAON", "thana": "HARIPUR", "mauza": "DANGI PARA", "long": 88.20731, "lat": 25.83061, "serial": 25370, "isUnique": 1, "field_11": null, "field_12": null }, "geometry": { "type": "Point", "coordinates": [ 88.20731, 25.83061 ] } },
{ "type": "Feature", "properties": { "inst name": "RANHATTA CHOWRONGI GIRLS HIGH SCHOOL", "eiin": 128786, "inst_type": "School", "district": "THAKURGAON", "thana": "HARIPUR", "mauza": "RANAHATTA", "long": 88.22086, "lat": 25.83314, "serial": 25371, "isUnique": 1, "field_11": null, "field_12": null }, "geometry": { "type": "Point", "coordinates": [ 88.22086, 25.83314 ] } },
{ "type": "Feature", "properties": { "inst name": "SHITALPUR JUNIOR GIRLS SCHOOL", "eiin": 128807, "inst_type": "School", "district": "THAKURGAON", "thana": "HARIPUR", "mauza": "SHITALPUR", "long": 88.22089, "lat": 25.83192, "serial": 25372, "isUnique": 1, "field_11": null, "field_12": null }, "geometry": { "type": "Point", "coordinates": [ 88.22089, 25.83192 ] } },
{ "type": "Feature", "properties": { "inst name": "SHITALPUR HIGH SCHOOL", "eiin": 128792, "inst_type": "School", "district": "THAKURGAON", "thana": "HARIPUR", "mauza": "SHITALPUR", "long": 88.15822, "lat": 25.84469, "serial": 25373, "isUnique": 1, "field_11": null, "field_12": null }, "geometry": { "type": "Point", "coordinates": [ 88.15822, 25.84469 ] } },
{ "type": "Feature", "properties": { "inst name": "RANAHATTA CHOWRANGI HIGH SCHOOL", "eiin": 128777, "inst_type": "School", "district": "THAKURGAON", "thana": "HARIPUR", "mauza": "RANAHATTA", "long": 88.18286, "lat": 25.857, "serial": 25374, "isUnique": 1, "field_11": null, "field_12": null }, "geometry": { "type": "Point", "coordinates": [ 88.18286, 25.857 ] } },
{ "type": "Feature", "properties": { "inst name": "ATGHARIA HIGH SCHOOL", "eiin": 128788, "inst_type": "School", "district": "THAKURGAON", "thana": "HARIPUR", "mauza": "GEDURA KISMAT", "long": 88.17147, "lat": 25.85097, "serial": 25375, "isUnique": 1, "field_11": null, "field_12": null }, "geometry": { "type": "Point", "coordinates": [ 88.17147, 25.85097 ] } },
{ "type": "Feature", "properties": { "inst name": "BONGAON HIGH SCHOOL", "eiin": 128774, "inst_type": "School", "district": "THAKURGAON", "thana": "HARIPUR", "mauza": "MEDINI SAGAR", "long": 88.173, "lat": 25.85025, "serial": 25376, "isUnique": 1, "field_11": null, "field_12": null }, "geometry": { "type": "Point", "coordinates": [ 88.173, 25.85025 ] } },
{ "type": "Feature", "properties": { "inst name": "DHOULA MEDNI SAGAR GIRLS HIGH SCHOOL", "eiin": 128791, "inst_type": "School", "district": "THAKURGAON", "thana": "HARIPUR", "mauza": "MEDINI SAGAR", "long": 88.13194, "lat": 25.83444, "serial": 25377, "isUnique": 1, "field_11": null, "field_12": null }, "geometry": { "type": "Point", "coordinates": [ 88.13194, 25.83444 ] } },
{ "type": "Feature", "properties": { "inst name": "MEDNI SAGOR HIGH SCHOOL", "eiin": 128790, "inst_type": "School", "district": "THAKURGAON", "thana": "HARIPUR", "mauza": "MEDINI SAGAR", "long": 88.13328, "lat": 25.84536, "serial": 25378, "isUnique": 1, "field_11": null, "field_12": null }, "geometry": { "type": "Point", "coordinates": [ 88.13328, 25.84536 ] } },
{ "type": "Feature", "properties": { "inst name": "KHOLORA ADARSHA HIGH SCHOOL", "eiin": 128810, "inst_type": "School", "district": "THAKURGAON", "thana": "HARIPUR", "mauza": "KHOLARA", "long": 88.16739, "lat": 25.95097, "serial": 25379, "isUnique": 1, "field_11": null, "field_12": null }, "geometry": { "type": "Point", "coordinates": [ 88.16739, 25.95097 ] } },
{ "type": "Feature", "properties": { "inst name": "TORRAH HIFIZIA HIGH SCHOOL", "eiin": 128775, "inst_type": "School", "district": "THAKURGAON", "thana": "HARIPUR", "mauza": "TORRA", "long": 88.14464, "lat": 25.98883, "serial": 25380, "isUnique": 1, "field_11": null, "field_12": null }, "geometry": { "type": "Point", "coordinates": [ 88.14464, 25.98883 ] } },
{ "type": "Feature", "properties": { "inst name": "MASHANGAON HIGH SCHOOL", "eiin": 128800, "inst_type": "School", "district": "THAKURGAON", "thana": "HARIPUR", "mauza": "MASHANGAON", "long": 88.13833, "lat": 25.95411, "serial": 25381, "isUnique": 1, "field_11": null, "field_12": null }, "geometry": { "type": "Point", "coordinates": [ 88.13833, 25.95411 ] } },
{ "type": "Feature", "properties": { "inst name": "TORRAH GIRLS HIGH SCHOOL", "eiin": 128793, "inst_type": "School", "district": "THAKURGAON", "thana": "HARIPUR", "mauza": "TORRA", "long": 88.18381, "lat": 25.94858, "serial": 25382, "isUnique": 1, "field_11": null, "field_12": null }, "geometry": { "type": "Point", "coordinates": [ 88.18381, 25.94858 ] } },
{ "type": "Feature", "properties": { "inst name": "B.M.S GIRLS HIGH SCHOOL", "eiin": 129015, "inst_type": "School", "district": "THAKURGAON", "thana": "RANISANKAIL", "mauza": "SONDHAROI", "long": 88.31875, "lat": 25.93953, "serial": 25383, "isUnique": 2, "field_11": null, "field_12": null }, "geometry": { "type": "Point", "coordinates": [ 88.31875, 25.93953 ] } },
{ "type": "Feature", "properties": { "inst name": "A.B. FULL BARI  HIGH SCHOOL", "eiin": 129025, "inst_type": "School", "district": "THAKURGAON", "thana": "RANISANKAIL", "mauza": "BAJE BAKSA", "long": 88.27222, "lat": 25.888, "serial": 25384, "isUnique": 1, "field_11": null, "field_12": null }, "geometry": { "type": "Point", "coordinates": [ 88.27222, 25.888 ] } },
{ "type": "Feature", "properties": { "inst name": "KENDRIO HIGH SCHOOL", "eiin": 128990, "inst_type": "School", "district": "THAKURGAON", "thana": "RANISANKAIL", "mauza": "BANSHBARI (PART)", "long": 88.24339, "lat": 25.90253, "serial": 25385, "isUnique": 1, "field_11": null, "field_12": null }, "geometry": { "type": "Point", "coordinates": [ 88.24339, 25.90253 ] } },
{ "type": "Feature", "properties": { "inst name": "B N GIRLS HIGH SCHOOL", "eiin": 129019, "inst_type": "School", "district": "THAKURGAON", "thana": "RANISANKAIL", "mauza": "BANSHBARI", "long": 88.25514, "lat": 25.93122, "serial": 25386, "isUnique": 1, "field_11": null, "field_12": null }, "geometry": { "type": "Point", "coordinates": [ 88.25514, 25.93122 ] } },
{ "type": "Feature", "properties": { "inst name": "RANISANKAIL  GOVT. GIRLS HIGH SCHOOL", "eiin": 128978, "inst_type": "School", "district": "THAKURGAON", "thana": "RANISANKAIL", "mauza": "MAHALBARI (PART)", "long": 88.27772, "lat": 25.91119, "serial": 25387, "isUnique": 1, "field_11": null, "field_12": null }, "geometry": { "type": "Point", "coordinates": [ 88.27772, 25.91119 ] } },
{ "type": "Feature", "properties": { "inst name": "BACHOR JUNIOUR SCHOOL", "eiin": 129028, "inst_type": "School", "district": "THAKURGAON", "thana": "RANISANKAIL", "mauza": "BACHOR", "long": 88.24872, "lat": 25.90189, "serial": 25388, "isUnique": 1, "field_11": null, "field_12": null }, "geometry": { "type": "Point", "coordinates": [ 88.24872, 25.90189 ] } },
{ "type": "Feature", "properties": { "inst name": "V.F JUNIOR GIRLS SCHOOL", "eiin": 129042, "inst_type": "School", "district": "THAKURGAON", "thana": "RANISANKAIL", "mauza": "BHANGBARI", "long": 88.25514, "lat": 25.90508, "serial": 25389, "isUnique": 1, "field_11": null, "field_12": null }, "geometry": { "type": "Point", "coordinates": [ 88.25514, 25.90508 ] } },
{ "type": "Feature", "properties": { "inst name": "BHANGBARI HIGH SCHOOL", "eiin": 129024, "inst_type": "School", "district": "THAKURGAON", "thana": "RANISANKAIL", "mauza": "BHANGBARI", "long": 88.24972, "lat": 25.90219, "serial": 25390, "isUnique": 1, "field_11": null, "field_12": null }, "geometry": { "type": "Point", "coordinates": [ 88.24972, 25.90219 ] } },
{ "type": "Feature", "properties": { "inst name": "CHOPRA DOSHIA (C.D) HIGH SCHOOL", "eiin": 129017, "inst_type": "School", "district": "THAKURGAON", "thana": "RANISANKAIL", "mauza": "CHOPRA", "long": 88.25397, "lat": 25.89614, "serial": 25391, "isUnique": 1, "field_11": null, "field_12": null }, "geometry": { "type": "Point", "coordinates": [ 88.25397, 25.89614 ] } },
{ "type": "Feature", "properties": { "inst name": "RANISANKAIL PILOT HIGH SCHOOL", "eiin": 128980, "inst_type": "School", "district": "THAKURGAON", "thana": "RANISANKAIL", "mauza": "DASIA (PART)", "long": 88.24525, "lat": 25.90417, "serial": 25392, "isUnique": 1, "field_11": null, "field_12": null }, "geometry": { "type": "Point", "coordinates": [ 88.24525, 25.90417 ] } },
{ "type": "Feature", "properties": { "inst name": "HAZI DOBERUDDIN CHOW. GIRLS HIGH SCHOOL", "eiin": 129001, "inst_type": "School", "district": "THAKURGAON", "thana": "RANISANKAIL", "mauza": "RAJOR", "long": 88.31836, "lat": 25.92964, "serial": 25393, "isUnique": 1, "field_11": null, "field_12": null }, "geometry": { "type": "Point", "coordinates": [ 88.31836, 25.92964 ] } },
{ "type": "Feature", "properties": { "inst name": "KATIHAR HIGH SCHOOL", "eiin": 128991, "inst_type": "School", "district": "THAKURGAON", "thana": "RANISANKAIL", "mauza": "RAJOR", "long": 88.27075, "lat": 25.93392, "serial": 25394, "isUnique": 1, "field_11": null, "field_12": null }, "geometry": { "type": "Point", "coordinates": [ 88.27075, 25.93392 ] } },
{ "type": "Feature", "properties": { "inst name": "LADABARI PARKUNDA JUNIOR SCHOOL", "eiin": 129026, "inst_type": "School", "district": "THAKURGAON", "thana": "RANISANKAIL", "mauza": "ARAZI CHANDAN CHAHAT", "long": 88.29228, "lat": 25.89353, "serial": 25395, "isUnique": 1, "field_11": null, "field_12": null }, "geometry": { "type": "Point", "coordinates": [ 88.29228, 25.89353 ] } },
{ "type": "Feature", "properties": { "inst name": "BHORNIA  HAT  HIGH SCHOOL", "eiin": 128995, "inst_type": "School", "district": "THAKURGAON", "thana": "RANISANKAIL", "mauza": "BHARNIA", "long": 88.27017, "lat": 25.89661, "serial": 25396, "isUnique": 1, "field_11": null, "field_12": null }, "geometry": { "type": "Point", "coordinates": [ 88.27017, 25.89661 ] } },
{ "type": "Feature", "properties": { "inst name": "LAXMIRHAT HIGH SCHOOL", "eiin": 128996, "inst_type": "School", "district": "THAKURGAON", "thana": "RANISANKAIL", "mauza": "BHARNIA", "long": 88.31811, "lat": 25.90931, "serial": 25397, "isUnique": 1, "field_11": null, "field_12": null }, "geometry": { "type": "Point", "coordinates": [ 88.31811, 25.90931 ] } },
{ "type": "Feature", "properties": { "inst name": "BHOMRA  GHAT  GIRLS  HIGH SCHOOL", "eiin": 128999, "inst_type": "School", "district": "THAKURGAON", "thana": "RANISANKAIL", "mauza": "CHANGMARI", "long": 88.31703, "lat": 25.90658, "serial": 25398, "isUnique": 1, "field_11": null, "field_12": null }, "geometry": { "type": "Point", "coordinates": [ 88.31703, 25.90658 ] } },
{ "type": "Feature", "properties": { "inst name": "BALANCHA N A C HIGH SCHOOL", "eiin": 128988, "inst_type": "School", "district": "THAKURGAON", "thana": "RANISANKAIL", "mauza": "BALANCHA", "long": 88.311, "lat": 25.97281, "serial": 25399, "isUnique": 1, "field_11": null, "field_12": null }, "geometry": { "type": "Point", "coordinates": [ 88.311, 25.97281 ] } },
{ "type": "Feature", "properties": { "inst name": "DHULJHARI  HIGH SCHOOL", "eiin": 129012, "inst_type": "School", "district": "THAKURGAON", "thana": "RANISANKAIL", "mauza": "DHULJHARI", "long": 88.23789, "lat": 25.99575, "serial": 25400, "isUnique": 1, "field_11": null, "field_12": null }, "geometry": { "type": "Point", "coordinates": [ 88.23789, 25.99575 ] } },
{ "type": "Feature", "properties": { "inst name": "ROUTHNAGAR BL HIGH SCHOOL", "eiin": 128981, "inst_type": "School", "district": "THAKURGAON", "thana": "RANISANKAIL", "mauza": "RAUTNAGAR", "long": 88.21067, "lat": 25.99058, "serial": 25401, "isUnique": 1, "field_11": null, "field_12": null }, "geometry": { "type": "Point", "coordinates": [ 88.21067, 25.99058 ] } },
{ "type": "Feature", "properties": { "inst name": "UTTAR GAON JUNIOR SCHOOL", "eiin": 129039, "inst_type": "School", "district": "THAKURGAON", "thana": "RANISANKAIL", "mauza": "UTTARGAON", "long": 88.20192, "lat": 25.99972, "serial": 25403, "isUnique": 1, "field_11": null, "field_12": null }, "geometry": { "type": "Point", "coordinates": [ 88.20192, 25.99972 ] } },
{ "type": "Feature", "properties": { "inst name": "KADIHAT K.D. GIRLS HIGH SCHOOL", "eiin": 129000, "inst_type": "School", "district": "THAKURGAON", "thana": "RANISANKAIL", "mauza": "KADIHAT (PART)", "long": 88.21978, "lat": 25.85383, "serial": 25404, "isUnique": 1, "field_11": null, "field_12": null }, "geometry": { "type": "Point", "coordinates": [ 88.21978, 25.85383 ] } },
{ "type": "Feature", "properties": { "inst name": "CHAPOR PARBOTIPUR adarsha GIRLS HIGH SCHOOL", "eiin": 129007, "inst_type": "School", "district": "THAKURGAON", "thana": "RANISANKAIL", "mauza": "CHAPAR PARBATIPUR", "long": 88.22033, "lat": 25.94139, "serial": 25405, "isUnique": 1, "field_11": null, "field_12": null }, "geometry": { "type": "Point", "coordinates": [ 88.22033, 25.94139 ] } },
{ "type": "Feature", "properties": { "inst name": "CHAPOR PARBOTIPUR HIGH SCHOOL", "eiin": 128997, "inst_type": "School", "district": "THAKURGAON", "thana": "RANISANKAIL", "mauza": "CHAPAR PARBATIPUR", "long": 88.23783, "lat": 25.87128, "serial": 25406, "isUnique": 1, "field_11": null, "field_12": null }, "geometry": { "type": "Point", "coordinates": [ 88.23783, 25.87128 ] } },
{ "type": "Feature", "properties": { "inst name": "GOGOR ABDUL JABBAR HIGH SCHOOL", "eiin": 128986, "inst_type": "School", "district": "THAKURGAON", "thana": "RANISANKAIL", "mauza": "GOGAR", "long": 88.20925, "lat": 25.87914, "serial": 25407, "isUnique": 1, "field_11": null, "field_12": null }, "geometry": { "type": "Point", "coordinates": [ 88.20925, 25.87914 ] } },
{ "type": "Feature", "properties": { "inst name": "GOGORE GIRLS  HIGH  SCHOOL", "eiin": 129010, "inst_type": "School", "district": "THAKURGAON", "thana": "RANISANKAIL", "mauza": "GOGAR", "long": 88.20064, "lat": 25.86189, "serial": 25408, "isUnique": 1, "field_11": null, "field_12": null }, "geometry": { "type": "Point", "coordinates": [ 88.20064, 25.86189 ] } },
{ "type": "Feature", "properties": { "inst name": "KISMAT SINDAGAR HIGH SCHOOL", "eiin": 128989, "inst_type": "School", "district": "THAKURGAON", "thana": "RANISANKAIL", "mauza": "KISMAT SINDAGARH", "long": 88.20997, "lat": 25.81444, "serial": 25409, "isUnique": 1, "field_11": null, "field_12": null }, "geometry": { "type": "Point", "coordinates": [ 88.20997, 25.81444 ] } },
{ "type": "Feature", "properties": { "inst name": "PADAMPUR HIGH  SCHOOL", "eiin": 129014, "inst_type": "School", "district": "THAKURGAON", "thana": "RANISANKAIL", "mauza": "PADAMPUR", "long": 88.24181, "lat": 25.85558, "serial": 25410, "isUnique": 1, "field_11": null, "field_12": null }, "geometry": { "type": "Point", "coordinates": [ 88.24181, 25.85558 ] } },
{ "type": "Feature", "properties": { "inst name": "RANI BOBANIPUR JUNIOR SCHOOL", "eiin": 131059, "inst_type": "School", "district": "THAKURGAON", "thana": "RANISANKAIL", "mauza": "RANI BHABANIPUR", "long": 88.29656, "lat": 25.87078, "serial": 25411, "isUnique": 1, "field_11": null, "field_12": null }, "geometry": { "type": "Point", "coordinates": [ 88.29656, 25.87078 ] } },
{ "type": "Feature", "properties": { "inst name": "BOLIDARA HIGH SCHOOL", "eiin": 129008, "inst_type": "School", "district": "THAKURGAON", "thana": "RANISANKAIL", "mauza": "ANANTAPUR", "long": 88.26481, "lat": 25.87067, "serial": 25412, "isUnique": 1, "field_11": null, "field_12": null }, "geometry": { "type": "Point", "coordinates": [ 88.26481, 25.87067 ] } },
{ "type": "Feature", "properties": { "inst name": "BONGAON ABU ZAHID HIGH SCHOOL", "eiin": 128987, "inst_type": "School", "district": "THAKURGAON", "thana": "RANISANKAIL", "mauza": "BANGAON", "long": 88.25986, "lat": 25.85661, "serial": 25413, "isUnique": 1, "field_11": null, "field_12": null }, "geometry": { "type": "Point", "coordinates": [ 88.25986, 25.85661 ] } },
{ "type": "Feature", "properties": { "inst name": "BHANDA GRAM  HIGH SCHOOL", "eiin": 129002, "inst_type": "School", "district": "THAKURGAON", "thana": "RANISANKAIL", "mauza": "BHANDAGRAM", "long": 88.301, "lat": 25.87292, "serial": 25414, "isUnique": 1, "field_11": null, "field_12": null }, "geometry": { "type": "Point", "coordinates": [ 88.301, 25.87292 ] } },
{ "type": "Feature", "properties": { "inst name": "GAZIRHAT MOJAHAR ALI HIGH SHCOOL", "eiin": 128992, "inst_type": "School", "district": "THAKURGAON", "thana": "RANISANKAIL", "mauza": "GAJIHAT", "long": 88.24225, "lat": 25.87875, "serial": 25415, "isUnique": 1, "field_11": null, "field_12": null }, "geometry": { "type": "Point", "coordinates": [ 88.24225, 25.87875 ] } },
{ "type": "Feature", "properties": { "inst name": "JAOGAON  HIGH SCHOOL", "eiin": 128983, "inst_type": "School", "district": "THAKURGAON", "thana": "RANISANKAIL", "mauza": "JAOGAON", "long": 88.29172, "lat": 25.86481, "serial": 25416, "isUnique": 1, "field_11": null, "field_12": null }, "geometry": { "type": "Point", "coordinates": [ 88.29172, 25.86481 ] } },
{ "type": "Feature", "properties": { "inst name": "MIRDANGI HIGH SCHOOL", "eiin": 128985, "inst_type": "School", "district": "THAKURGAON", "thana": "RANISANKAIL", "mauza": "SONDHAROI", "long": 88.2195, "lat": 25.908, "serial": 25417, "isUnique": 1, "field_11": null, "field_12": null }, "geometry": { "type": "Point", "coordinates": [ 88.2195, 25.908 ] } },
{ "type": "Feature", "properties": { "inst name": "ALSIA BHOKORGOAN HIGH SCHOOL", "eiin": 129003, "inst_type": "School", "district": "THAKURGAON", "thana": "RANISANKAIL", "mauza": "ALISA", "long": 88.25514, "lat": 25.93283, "serial": 25418, "isUnique": 1, "field_11": null, "field_12": null }, "geometry": { "type": "Point", "coordinates": [ 88.25514, 25.93283 ] } },
{ "type": "Feature", "properties": { "inst name": "NEKMARD ALIMUDDIN GOVT HIGH SCHOOL", "eiin": 128979, "inst_type": "School", "district": "THAKURGAON", "thana": "RANISANKAIL", "mauza": "BHABANANDAPUR", "long": 88.20539, "lat": 25.90319, "serial": 25419, "isUnique": 1, "field_11": null, "field_12": null }, "geometry": { "type": "Point", "coordinates": [ 88.20539, 25.90319 ] } },
{ "type": "Feature", "properties": { "inst name": "B. H. JUNIOR GIRLS SCHOOL", "eiin": 129021, "inst_type": "School", "district": "THAKURGAON", "thana": "RANISANKAIL", "mauza": "BHUKURGAON", "long": 88.22586, "lat": 25.94503, "serial": 25420, "isUnique": 1, "field_11": null, "field_12": null }, "geometry": { "type": "Point", "coordinates": [ 88.22586, 25.94503 ] } },
{ "type": "Feature", "properties": { "inst name": "NEKMORD KUSHUMUDDIN GIRLS HIGH SCHOOL", "eiin": 128993, "inst_type": "School", "district": "THAKURGAON", "thana": "RANISANKAIL", "mauza": "BHABANANDAPUR", "long": 88.20631, "lat": 25.90583, "serial": 25421, "isUnique": 1, "field_11": null, "field_12": null }, "geometry": { "type": "Point", "coordinates": [ 88.20631, 25.90583 ] } },
{ "type": "Feature", "properties": { "inst name": "KARNIT ADARSHA HIGH SCHOOL", "eiin": 129006, "inst_type": "School", "district": "THAKURGAON", "thana": "RANISANKAIL", "mauza": "KARNAIT", "long": 88.23256, "lat": 25.96161, "serial": 25422, "isUnique": 1, "field_11": null, "field_12": null }, "geometry": { "type": "Point", "coordinates": [ 88.23256, 25.96161 ] } },
{ "type": "Feature", "properties": { "inst name": "BARAPUKUR NEKMORAD FARID PARA HIGH SCHOOL", "eiin": 129013, "inst_type": "School", "district": "THAKURGAON", "thana": "RANISANKAIL", "mauza": "NEKMARAD FARID PARA", "long": 88.22836, "lat": 25.94511, "serial": 25423, "isUnique": 1, "field_11": null, "field_12": null }, "geometry": { "type": "Point", "coordinates": [ 88.22836, 25.94511 ] } },
{ "type": "Feature", "properties": { "inst name": "BANGLAGARH HIGH SCHOOL", "eiin": 129005, "inst_type": "School", "district": "THAKURGAON", "thana": "RANISANKAIL", "mauza": "ARAZI GARKATGAON", "long": 88.26106, "lat": 25.96758, "serial": 25424, "isUnique": 1, "field_11": null, "field_12": null }, "geometry": { "type": "Point", "coordinates": [ 88.26106, 25.96758 ] } },
{ "type": "Feature", "properties": { "inst name": "V M HIGH SCHOOL", "eiin": 129009, "inst_type": "School", "district": "THAKURGAON", "thana": "RANISANKAIL", "mauza": "BHELAI", "long": 88.26686, "lat": 25.97925, "serial": 25425, "isUnique": 1, "field_11": null, "field_12": null }, "geometry": { "type": "Point", "coordinates": [ 88.26686, 25.97925 ] } },
{ "type": "Feature", "properties": { "inst name": "MALIVITA GIRLS HIGH SCHOOL", "eiin": 129022, "inst_type": "School", "district": "THAKURGAON", "thana": "RANISANKAIL", "mauza": "MALIVITA", "long": 88.26661, "lat": 25.98631, "serial": 25426, "isUnique": 1, "field_11": null, "field_12": null }, "geometry": { "type": "Point", "coordinates": [ 88.26661, 25.98631 ] } },
{ "type": "Feature", "properties": { "inst name": "FARINGGADIGHI JUNIOR GIRLS HIGH SCHOOL", "eiin": 129043, "inst_type": "School", "district": "THAKURGAON", "thana": "RANISANKAIL", "mauza": "FARINGA DIGHI", "long": 88.26208, "lat": 25.98253, "serial": 25427, "isUnique": 1, "field_11": null, "field_12": null }, "geometry": { "type": "Point", "coordinates": [ 88.26208, 25.98253 ] } },
{ "type": "Feature", "properties": { "inst name": "PRAGPUR JUNIOR GIRLS SCHOOL", "eiin": 129041, "inst_type": "School", "district": "THAKURGAON", "thana": "RANISANKAIL", "mauza": "PRAYAGPUR", "long": 88.31958, "lat": 25.94742, "serial": 25428, "isUnique": 1, "field_11": null, "field_12": null }, "geometry": { "type": "Point", "coordinates": [ 88.31958, 25.94742 ] } },
{ "type": "Feature", "properties": { "inst name": "R G P HIGH SHCOOL", "eiin": 129011, "inst_type": "School", "district": "THAKURGAON", "thana": "RANISANKAIL", "mauza": "RAGHABPUR", "long": 88.25731, "lat": 25.96167, "serial": 25429, "isUnique": 1, "field_11": null, "field_12": null }, "geometry": { "type": "Point", "coordinates": [ 88.25731, 25.96167 ] } },
{ "type": "Feature", "properties": { "inst name": "RATOR HIGH SCHOOL", "eiin": 128984, "inst_type": "School", "district": "THAKURGAON", "thana": "RANISANKAIL", "mauza": "BHELAI", "long": 88.31111, "lat": 25.96964, "serial": 25430, "isUnique": 1, "field_11": null, "field_12": null }, "geometry": { "type": "Point", "coordinates": [ 88.31111, 25.96964 ] } },
{ "type": "Feature", "properties": { "inst name": "SARODUBI JUNIOR SCHOOL", "eiin": 129218, "inst_type": "School", "district": "THAKURGAON", "thana": "THAKURGAON SADAR", "mauza": "SARDUBI", "long": 88.31939, "lat": 25.98606, "serial": 25431, "isUnique": 1, "field_11": null, "field_12": null }, "geometry": { "type": "Point", "coordinates": [ 88.31939, 25.98606 ] } },
{ "type": "Feature", "properties": { "inst name": "TAWARI  GAON JUNIOR SCHOOL", "eiin": 129221, "inst_type": "School", "district": "THAKURGAON", "thana": "THAKURGAON SADAR", "mauza": "TEWARIGAON", "long": 88.29239, "lat": 25.95533, "serial": 25432, "isUnique": 1, "field_11": null, "field_12": null }, "geometry": { "type": "Point", "coordinates": [ 88.29239, 25.95533 ] } },
{ "type": "Feature", "properties": { "inst name": "LAUTHUTI ADARSHAH  GIRL'S SCHOOL", "eiin": 129192, "inst_type": "School", "district": "THAKURGAON", "thana": "THAKURGAON SADAR", "mauza": "LAUTHUTI", "long": 88.31875, "lat": 25.93953, "serial": 25433, "isUnique": 2, "field_11": null, "field_12": null }, "geometry": { "type": "Point", "coordinates": [ 88.31875, 25.93953 ] } },
{ "type": "Feature", "properties": { "inst name": "PURBA  SHUKHAN PUKHARI PAL PARA  JUNIOR SCHOOL", "eiin": 129214, "inst_type": "School", "district": "THAKURGAON", "thana": "THAKURGAON SADAR", "mauza": "PURBA SUKHAN PUKHARI", "long": 88.60372, "lat": 26.09878, "serial": 25434, "isUnique": 1, "field_11": null, "field_12": null }, "geometry": { "type": "Point", "coordinates": [ 88.60372, 26.09878 ] } },
{ "type": "Feature", "properties": { "inst name": "SUKHAN PUKHARI L.N GIRL'S HIGH SCHOOL", "eiin": 129206, "inst_type": "School", "district": "THAKURGAON", "thana": "THAKURGAON SADAR", "mauza": "PASCHIM SUKHAN PUKHARI", "long": 88.60053, "lat": 26.07606, "serial": 25435, "isUnique": 1, "field_11": null, "field_12": null }, "geometry": { "type": "Point", "coordinates": [ 88.60053, 26.07606 ] } },
{ "type": "Feature", "properties": { "inst name": "JATHIVHANGA S.C. HIGH SCHOOL", "eiin": 129123, "inst_type": "School", "district": "THAKURGAON", "thana": "THAKURGAON SADAR", "mauza": "PURBA SUKHAN PUKHARI", "long": 88.59931, "lat": 26.08953, "serial": 25436, "isUnique": 1, "field_11": null, "field_12": null }, "geometry": { "type": "Point", "coordinates": [ 88.59931, 26.08953 ] } },
{ "type": "Feature", "properties": { "inst name": "KALIKAGAON SAHA PARA JUNIOR SCHOOL", "eiin": 129228, "inst_type": "School", "district": "THAKURGAON", "thana": "THAKURGAON SADAR", "mauza": "KALIKAGAON", "long": 88.57092, "lat": 26.09156, "serial": 25437, "isUnique": 1, "field_11": null, "field_12": null }, "geometry": { "type": "Point", "coordinates": [ 88.57092, 26.09156 ] } },
{ "type": "Feature", "properties": { "inst name": "BABUPARA B .H JUNIOR SECONDARY GIRLS SCHOOL", "eiin": 129238, "inst_type": "School", "district": "THAKURGAON", "thana": "THAKURGAON SADAR", "mauza": "KALIKAGAON", "long": 88.57092, "lat": 26.08994, "serial": 25438, "isUnique": 1, "field_11": null, "field_12": null }, "geometry": { "type": "Point", "coordinates": [ 88.57092, 26.08994 ] } },
{ "type": "Feature", "properties": { "inst name": "KALIKAGAON D HAT HIGH SCHOOL", "eiin": 129120, "inst_type": "School", "district": "THAKURGAON", "thana": "THAKURGAON SADAR", "mauza": "KALIKAGAON", "long": 88.46081, "lat": 26.11006, "serial": 25439, "isUnique": 1, "field_11": null, "field_12": null }, "geometry": { "type": "Point", "coordinates": [ 88.46081, 26.11006 ] } },
{ "type": "Feature", "properties": { "inst name": "LAUTHUTI S.C. HIGH SCHOOL", "eiin": 129121, "inst_type": "School", "district": "THAKURGAON", "thana": "THAKURGAON SADAR", "mauza": "LAUTHUTI", "long": 88.60294, "lat": 26.10986, "serial": 25440, "isUnique": 1, "field_11": null, "field_12": null }, "geometry": { "type": "Point", "coordinates": [ 88.60294, 26.10986 ] } },
{ "type": "Feature", "properties": { "inst name": "DEOGAON DOYEL HIGH SCHOOL", "eiin": 129166, "inst_type": "School", "district": "THAKURGAON", "thana": "THAKURGAON SADAR", "mauza": "DEOGAON", "long": 88.61406, "lat": 26.07975, "serial": 25441, "isUnique": 1, "field_11": null, "field_12": null }, "geometry": { "type": "Point", "coordinates": [ 88.61406, 26.07975 ] } },
{ "type": "Feature", "properties": { "inst name": "YEAKUBPUR  HIGH SCHOOL", "eiin": 129159, "inst_type": "School", "district": "THAKURGAON", "thana": "THAKURGAON SADAR", "mauza": "IAKUBPUR", "long": 88.58222, "lat": 26.09228, "serial": 25442, "isUnique": 1, "field_11": null, "field_12": null }, "geometry": { "type": "Point", "coordinates": [ 88.58222, 26.09228 ] } },
{ "type": "Feature", "properties": { "inst name": "KHALEDA ZIA GIRLS HIGH SCHOOL", "eiin": 129173, "inst_type": "School", "district": "THAKURGAON", "thana": "THAKURGAON SADAR", "mauza": "KIARIGAON", "long": 88.50872, "lat": 26.06269, "serial": 25443, "isUnique": 1, "field_11": null, "field_12": null }, "geometry": { "type": "Point", "coordinates": [ 88.50872, 26.06269 ] } },
{ "type": "Feature", "properties": { "inst name": "BHASHA SMARONIKA HIGH SCHOOL", "eiin": 129152, "inst_type": "School", "district": "THAKURGAON", "thana": "THAKURGAON SADAR", "mauza": "KUJISAHAR", "long": 88.40794, "lat": 26.16144, "serial": 25444, "isUnique": 1, "field_11": null, "field_12": null }, "geometry": { "type": "Point", "coordinates": [ 88.40794, 26.16144 ] } },
{ "type": "Feature", "properties": { "inst name": "SANIHARI BOLDIA JUNIOR SCHOOL", "eiin": 129200, "inst_type": "School", "district": "THAKURGAON", "thana": "THAKURGAON SADAR", "mauza": "SENIHARI", "long": 88.41442, "lat": 26.17878, "serial": 25445, "isUnique": 1, "field_11": null, "field_12": null }, "geometry": { "type": "Point", "coordinates": [ 88.41442, 26.17878 ] } },
{ "type": "Feature", "properties": { "inst name": "MADHUPUR KAKOLI HIGH SCHOOL", "eiin": 129148, "inst_type": "School", "district": "THAKURGAON", "thana": "THAKURGAON SADAR", "mauza": "MADHUPUR", "long": 88.397, "lat": 26.14056, "serial": 25446, "isUnique": 1, "field_11": null, "field_12": null }, "geometry": { "type": "Point", "coordinates": [ 88.397, 26.14056 ] } },
{ "type": "Feature", "properties": { "inst name": "RUHEA HIGH SCHOOL", "eiin": 129078, "inst_type": "School", "district": "THAKURGAON", "thana": "THAKURGAON SADAR", "mauza": "GHANI MAHESHPUR", "long": 88.39703, "lat": 26.19183, "serial": 25447, "isUnique": 1, "field_11": null, "field_12": null }, "geometry": { "type": "Point", "coordinates": [ 88.39703, 26.19183 ] } },
{ "type": "Feature", "properties": { "inst name": "RUHEA GIRLS HIGH SCHOOL", "eiin": 129080, "inst_type": "School", "district": "THAKURGAON", "thana": "THAKURGAON SADAR", "mauza": "GHANI MAHESHPUR", "long": 88.41247, "lat": 26.19886, "serial": 25448, "isUnique": 1, "field_11": null, "field_12": null }, "geometry": { "type": "Point", "coordinates": [ 88.41247, 26.19886 ] } },
{ "type": "Feature", "properties": { "inst name": "SALEHA KHATUN GIRLS HIGH SCHOOL", "eiin": 129208, "inst_type": "School", "district": "THAKURGAON", "thana": "THAKURGAON SADAR", "mauza": "GHANI MAHESHPUR", "long": 88.38383, "lat": 26.14897, "serial": 25449, "isUnique": 1, "field_11": null, "field_12": null }, "geometry": { "type": "Point", "coordinates": [ 88.38383, 26.14897 ] } },
{ "type": "Feature", "properties": { "inst name": "DIP SHIKHA JUNIOR HIGH SCHOOL", "eiin": 129230, "inst_type": "School", "district": "THAKURGAON", "thana": "THAKURGAON SADAR", "mauza": "GHANI MAHESHPUR", "long": 88.41253, "lat": 26.15208, "serial": 25450, "isUnique": 1, "field_11": null, "field_12": null }, "geometry": { "type": "Point", "coordinates": [ 88.41253, 26.15208 ] } },
{ "type": "Feature", "properties": { "inst name": "BAIRAGI HAT HIGH SCOOL", "eiin": 129139, "inst_type": "School", "district": "THAKURGAON", "thana": "THAKURGAON SADAR", "mauza": "FARIDPUR", "long": 88.40419, "lat": 26.17347, "serial": 25451, "isUnique": 1, "field_11": null, "field_12": null }, "geometry": { "type": "Point", "coordinates": [ 88.40419, 26.17347 ] } },
{ "type": "Feature", "properties": { "inst name": "KHARIBARI HIGH SCHOOL", "eiin": 129119, "inst_type": "School", "district": "THAKURGAON", "thana": "THAKURGAON SADAR", "mauza": "KHARIBARI", "long": 88.41264, "lat": 26.18222, "serial": 25452, "isUnique": 1, "field_11": null, "field_12": null }, "geometry": { "type": "Point", "coordinates": [ 88.41264, 26.18222 ] } },
{ "type": "Feature", "properties": { "inst name": "TANGOAN BARAJ GIRL'S HIGH SCHOOL", "eiin": 129176, "inst_type": "School", "district": "THAKURGAON", "thana": "THAKURGAON SADAR", "mauza": "UTTAR BATINA", "long": 88.42444, "lat": 26.18814, "serial": 25453, "isUnique": 1, "field_11": null, "field_12": null }, "geometry": { "type": "Point", "coordinates": [ 88.42444, 26.18814 ] } },
{ "type": "Feature", "properties": { "inst name": "BARADESOWRI HAT ADARSHA HIGH SCHOOL", "eiin": 129155, "inst_type": "School", "district": "THAKURGAON", "thana": "THAKURGAON SADAR", "mauza": "KHARIBARI", "long": 88.454, "lat": 26.17536, "serial": 25454, "isUnique": 1, "field_11": null, "field_12": null }, "geometry": { "type": "Point", "coordinates": [ 88.454, 26.17536 ] } },
{ "type": "Feature", "properties": { "inst name": "PATIA DANGI HIGH SCHOOL", "eiin": 129144, "inst_type": "School", "district": "THAKURGAON", "thana": "THAKURGAON SADAR", "mauza": "UTTAR BATINA", "long": 88.42533, "lat": 26.135, "serial": 25455, "isUnique": 1, "field_11": null, "field_12": null }, "geometry": { "type": "Point", "coordinates": [ 88.42533, 26.135 ] } },
{ "type": "Feature", "properties": { "inst name": "AGNIBINA JUNIOR HIGH  SCHOOL", "eiin": 129204, "inst_type": "School", "district": "THAKURGAON", "thana": "THAKURGAON SADAR", "mauza": "CHAPATI", "long": 88.44133, "lat": 26.18136, "serial": 25456, "isUnique": 1, "field_11": null, "field_12": null }, "geometry": { "type": "Point", "coordinates": [ 88.44133, 26.18136 ] } },
{ "type": "Feature", "properties": { "inst name": "DHOLAR HAT GIRLS SCHOOL", "eiin": 129191, "inst_type": "School", "district": "THAKURGAON", "thana": "THAKURGAON SADAR", "mauza": "MUNSHI PARA", "long": 88.45658, "lat": 26.15269, "serial": 25457, "isUnique": 1, "field_11": null, "field_12": null }, "geometry": { "type": "Point", "coordinates": [ 88.45658, 26.15269 ] } },
{ "type": "Feature", "properties": { "inst name": "JAHAL JAHLI PUKUR ADARSHA HIGH SCHOOL", "eiin": 129128, "inst_type": "School", "district": "THAKURGAON", "thana": "THAKURGAON SADAR", "mauza": "DHARMAPUR", "long": 88.47697, "lat": 26.20172, "serial": 25458, "isUnique": 1, "field_11": null, "field_12": null }, "geometry": { "type": "Point", "coordinates": [ 88.47697, 26.20172 ] } },
{ "type": "Feature", "properties": { "inst name": "DHOLAR HAT  S.C. HIGH SCHOOL", "eiin": 129114, "inst_type": "School", "district": "THAKURGAON", "thana": "THAKURGAON SADAR", "mauza": "DAKSHIN BATINA", "long": 88.45142, "lat": 26.12869, "serial": 25459, "isUnique": 1, "field_11": null, "field_12": null }, "geometry": { "type": "Point", "coordinates": [ 88.45142, 26.12869 ] } },
{ "type": "Feature", "properties": { "inst name": "ASAN NAGAR ADARSAH HIGH SCHOOL", "eiin": 129185, "inst_type": "School", "district": "THAKURGAON", "thana": "THAKURGAON SADAR", "mauza": "ASAN NAGAR", "long": 88.43097, "lat": 26.14711, "serial": 25460, "isUnique": 1, "field_11": null, "field_12": null }, "geometry": { "type": "Point", "coordinates": [ 88.43097, 26.14711 ] } },
{ "type": "Feature", "properties": { "inst name": "BHOWLAR HAT GIRLS HGIH SCHOOL", "eiin": 129179, "inst_type": "School", "district": "THAKURGAON", "thana": "THAKURGAON SADAR", "mauza": "LADHABARI", "long": 88.42606, "lat": 26.12817, "serial": 25461, "isUnique": 1, "field_11": null, "field_12": null }, "geometry": { "type": "Point", "coordinates": [ 88.42606, 26.12817 ] } },
{ "type": "Feature", "properties": { "inst name": "BAKSHIRI ARAJI FAKDANPUR HIGH SCHOOL", "eiin": 129202, "inst_type": "School", "district": "THAKURGAON", "thana": "THAKURGAON SADAR", "mauza": "ROYPUR", "long": 88.34044, "lat": 26.04681, "serial": 25462, "isUnique": 1, "field_11": null, "field_12": null }, "geometry": { "type": "Point", "coordinates": [ 88.34044, 26.04681 ] } },
{ "type": "Feature", "properties": { "inst name": "MOTRA HAT HIGH SCHOOL", "eiin": 129145, "inst_type": "School", "district": "THAKURGAON", "thana": "THAKURGAON SADAR", "mauza": "MATRA", "long": 88.31886, "lat": 26.00583, "serial": 25463, "isUnique": 1, "field_11": null, "field_12": null }, "geometry": { "type": "Point", "coordinates": [ 88.31886, 26.00583 ] } },
{ "type": "Feature", "properties": { "inst name": "SINDURNA HIGH SCHOOL", "eiin": 129111, "inst_type": "School", "district": "THAKURGAON", "thana": "THAKURGAON SADAR", "mauza": "SINDURNA", "long": 88.32786, "lat": 26.02022, "serial": 25464, "isUnique": 1, "field_11": null, "field_12": null }, "geometry": { "type": "Point", "coordinates": [ 88.32786, 26.02022 ] } },
{ "type": "Feature", "properties": { "inst name": "DEHON HIGH SCHOOL", "eiin": 129143, "inst_type": "School", "district": "THAKURGAON", "thana": "THAKURGAON SADAR", "mauza": "DEHAN", "long": 88.45078, "lat": 26.16675, "serial": 25465, "isUnique": 1, "field_11": null, "field_12": null }, "geometry": { "type": "Point", "coordinates": [ 88.45078, 26.16675 ] } },
{ "type": "Feature", "properties": { "inst name": "ONVER DIGHI JUNIOR SCHOOL", "eiin": 129210, "inst_type": "School", "district": "THAKURGAON", "thana": "THAKURGAON SADAR", "mauza": "ARAZI FAKDANPUR", "long": 88.33394, "lat": 26.0145, "serial": 25466, "isUnique": 1, "field_11": null, "field_12": null }, "geometry": { "type": "Point", "coordinates": [ 88.33394, 26.0145 ] } },
{ "type": "Feature", "properties": { "inst name": "BHOWLAR HAT HIGH SCHOOL", "eiin": 129099, "inst_type": "School", "district": "THAKURGAON", "thana": "THAKURGAON SADAR", "mauza": "KACHNA", "long": 88.36381, "lat": 26.02806, "serial": 25467, "isUnique": 1, "field_11": null, "field_12": null }, "geometry": { "type": "Point", "coordinates": [ 88.36381, 26.02806 ] } },
{ "type": "Feature", "properties": { "inst name": "THAKURGAON SUGAR MILLS HIGH SCHOOL", "eiin": 129102, "inst_type": "School", "district": "THAKURGAON", "thana": "THAKURGAON SADAR", "mauza": "HARIHARPUR (PART)", "long": 88.32481, "lat": 26.03872, "serial": 25468, "isUnique": 1, "field_11": null, "field_12": null }, "geometry": { "type": "Point", "coordinates": [ 88.32481, 26.03872 ] } },
{ "type": "Feature", "properties": { "inst name": "MADARGANJ M.B. HIGH SCHOOL", "eiin": 129091, "inst_type": "School", "district": "THAKURGAON", "thana": "THAKURGAON SADAR", "mauza": "MAHUBHASHI", "long": 88.31147, "lat": 26.00144, "serial": 25469, "isUnique": 1, "field_11": null, "field_12": null }, "geometry": { "type": "Point", "coordinates": [ 88.31147, 26.00144 ] } },
{ "type": "Feature", "properties": { "inst name": "MATHURAPUR ADARSHA HIGH SCHOOL", "eiin": 129165, "inst_type": "School", "district": "THAKURGAON", "thana": "THAKURGAON SADAR", "mauza": "HARIHARPUR (PART)", "long": 88.33708, "lat": 26.04375, "serial": 25470, "isUnique": 1, "field_11": null, "field_12": null }, "geometry": { "type": "Point", "coordinates": [ 88.33708, 26.04375 ] } },
{ "type": "Feature", "properties": { "inst name": "THAKURGAON GOVT. GIRLS HIGH SCHOOL", "eiin": 129082, "inst_type": "School", "district": "THAKURGAON", "thana": "THAKURGAON SADAR", "mauza": "FAKIR PARA", "long": 88.42169, "lat": 26.05053, "serial": 25473, "isUnique": 1, "field_11": null, "field_12": null }, "geometry": { "type": "Point", "coordinates": [ 88.42169, 26.05053 ] } },
{ "type": "Feature", "properties": { "inst name": "PATHRAJ HIGH SCHOOL", "eiin": 129227, "inst_type": "School", "district": "THAKURGAON", "thana": "THAKURGAON SADAR", "mauza": "PURBA SUKHAN PUKHARI", "long": 88.40858, "lat": 26.00625, "serial": 25474, "isUnique": 1, "field_11": null, "field_12": null }, "geometry": { "type": "Point", "coordinates": [ 88.40858, 26.00625 ] } },
{ "type": "Feature", "properties": { "inst name": "MATHURAPUR PUBLIC HIGH SCHOOL", "eiin": 129088, "inst_type": "School", "district": "THAKURGAON", "thana": "THAKURGAON SADAR", "mauza": "HARIHARPUR (PART)", "long": 88.39725, "lat": 26.04708, "serial": 25475, "isUnique": 1, "field_11": null, "field_12": null }, "geometry": { "type": "Point", "coordinates": [ 88.39725, 26.04708 ] } },